TimeUS,PLX,PLY,PLZ,AX,AY,BX,BY,CX,CY,F,P,X,Y,SW
480139568,-0.05077359825372696,0.07259763032197952,-23.41964340209961,0.0,0.0,0.0,0.0,0.0,0.0,0.5794000029563904,0.0,0.0,0.0,0
480149308,-0.04656562581658363,0.07158409804105759,-23.418424606323242,0.0,0.0,0.0,0.0,0.0,0.0,0.5794000029563904,0.0,0.0,0.0,0
480159409,-0.04338927939534187,0.07542327791452408,-23.424274444580078,0.0,0.0,0.0,0.0,0.0,0.0,0.5794000029563904,0.0,0.0,0.0,0
480169853,-0.046833332628011703,0.07598190754652023,-23.426227569580078,0.0,0.0,0.0,0.0,0.0,0.0,0.5794000029563904,0.0,0.0,0.0,0
480179386,-0.041174400597810745,0.07675869762897491,-23.422157287597656,0.0,0.0,0.0,0.0,0.0,0.0,0.5794000029563904,0.0,0.0,0.0,0
480189544,-0.04655779153108597,0.0751282125711441,-23.413917541503906,0.0,0.0,0.0,0.0,0.0,0.0,0.5794000029563904,0.0,0.0,0.0,0
480199389,-0.05313800647854805,0.08051556348800659,-23.41219711303711,0.0,0.0,0.0,0.0,0.0,0.0,0.5794000029563904,0.0,0.0,0.0,0
480209306,-0.054355792701244354,0.08390793949365616,-23.418630599975586,0.0,0.0,0.0,0.0,0.0,0.0,0.5794000029563904,0.0,0.0,0.0,0
480219585,-0.04772206395864487,0.07747401297092438,-23.420677185058594,0.0,0.0,0.0,0.0,0.0,0.0,0.5794000029563904,0.0,0.0,0.0,0
480229300,-0.05014617741107941,0.06842771917581558,-23.419002532958984,0.0,0.0,0.0,0.0,0.0,0.0,0.5794000029563904,0.0,0.0,0.0,0
480239598,-0.04240722954273224,0.06710215657949448,-23.418392181396484,0.0,0.0,0.0,0.0,0.0,0.0,0.5794000029563904,0.0,0.0,0.0,0
480249338,-0.04230155795812607,0.07505697011947632,-23.416833877563477,0.0,0.0,0.0,0.0,0.0,0.0,0.5794000029563904,0.0,0.0,0.0,0
480259292,-0.04609332233667374,0.07898730039596558,-23.419063568115234,0.0,0.0,0.0,0.0,0.0,0.0,0.5794000029563904,0.0,0.0,0.0,0
480269961,-0.04420142248272896,0.0798669308423996,-23.42484474182129,0.0,0.0,0.0,0.0,0.0,0.0,0.5794000029563904,0.0,0.0,0.0,0
480279304,-0.04269794747233391,0.07954395562410355,-23.425308227539062,0.0,0.0,0.0,0.0,0.0,0.0,0.5794000029563904,0.0,0.0,0.0,0
480289608,-0.04415230080485344,0.07526814192533493,-23.419103622436523,0.0,0.0,0.0,0.0,0.0,0.0,0.5794000029563904,0.0,0.0,0.0,0
480299402,-0.03970557451248169,0.07512032985687256,-23.412931442260742,0.0,0.0,0.0,0.0,0.0,0.0,0.5794000029563904,0.0,0.0,0.0,0
480309388,-0.03964580222964287,0.07441290467977524,-23.413883209228516,0.0,0.0,0.0,0.0,0.0,0.0,0.5794000029563904,0.0,0.0,0.0,0
480319584,-0.036276206374168396,0.07144119590520859,-23.41106414794922,0.0,0.0,0.0,0.0,0.0,0.0,0.5794000029563904,0.0,0.0,0.0,0
480329324,-0.03778797760605812,0.06759050488471985,-23.417499542236328,0.0,0.0,0.0,0.0,0.0,0.0,0.5794000029563904,0.0,0.0,0.0,0
480340044,-0.03827383369207382,0.07710573822259903,-23.420761108398438,0.0,0.0,0.0,0.0,0.0,0.0,0.5794000029563904,0.0,0.0,0.0,0
480349286,-0.04291583597660065,0.08216765522956848,-23.424047470092773,0.0,0.0,0.0,0.0,0.0,0.0,0.5794000029563904,0.0,0.0,0.0,0
480359347,-0.046875882893800735,0.07911030203104019,-23.422855377197266,0.0,0.0,0.0,0.0,0.0,0.0,0.5794000029563904,0.0,0.0,0.0,0
480369578,-0.04296092689037323,0.07657355815172195,-23.41574478149414,0.0,0.0,0.0,0.0,0.0,0.0,0.5794000029563904,0.0,0.0,0.0,0
480379316,-0.0422796793282032,0.07559096068143845,-23.415895462036133,0.0,0.0,0.0,0.0,0.0,0.0,0.5794000029563904,0.0,0.0,0.0,0
480389611,-0.04170118272304535,0.07730773091316223,-23.41962432861328,0.0,0.0,0.0,0.0,0.0,0.0,0.5794000029563904,0.0,0.0,0.0,0
480399419,-0.04085789620876312,0.0735282152891159,-23.426471710205078,0.0,0.0,0.0,0.0,0.0,0.0,0.5794000029563904,0.0,0.0,0.0,0
480409365,-0.04102771356701851,0.07337836921215057,-23.42809295654297,0.0,0.0,0.0,0.0,0.0,0.0,0.5794000029563904,0.0,0.0,0.0,0
480419611,-0.04263994097709656,0.07413677126169205,-23.42366600036621,0.0,0.0,0.0,0.0,0.0,0.0,0.5794000029563904,0.0,0.0,0.0,0
480429310,-0.045809306204319,0.07735280692577362,-23.413860321044922,0.0,0.0,0.0,0.0,0.0,0.0,0.5794000029563904,0.0,0.0,0.0,0
480439608,-0.047211285680532455,0.0765608698129654,-23.411827087402344,0.0,0.0,0.0,0.0,0.0,0.0,0.5794000029563904,0.0,0.0,0.0,0
480449327,-0.04430321976542473,0.07171942293643951,-23.419742584228516,0.0,0.0,0.0,0.0,0.0,0.0,0.5794000029563904,0.0,0.0,0.0,0
480459386,-0.04178664833307266,0.07221771031618118,-23.428068161010742,0.0,0.0,0.0,0.0,0.0,0.0,0.5794000029563904,0.0,0.0,0.0,0
480470036,-0.03596590459346771,0.08439826965332031,-23.426443099975586,0.0,0.0,0.0,0.0,0.0,0.0,0.5794000029563904,0.0,0.0,0.0,0
480479353,-0.03479188308119774,0.08409819006919861,-23.419157028198242,0.0,0.0,0.0,0.0,0.0,0.0,0.5794000029563904,0.0,0.0,0.0,0
480489539,-0.03908570483326912,0.07931322604417801,-23.414705276489258,0.0,0.0,0.0,0.0,0.0,0.0,0.5794000029563904,0.0,0.0,0.0,0
480499335,-0.03781913220882416,0.07596837729215622,-23.42205238342285,0.0,0.0,0.0,0.0,0.0,0.0,0.5794000029563904,0.0,0.0,0.0,0
480509374,-0.04058246314525604,0.07994253933429718,-23.42328453063965,0.0,0.0,0.0,0.0,0.0,0.0,0.5794000029563904,0.0,0.0,0.0,0
480519612,-0.043331507593393326,0.07704310119152069,-23.424663543701172,0.0,0.0,0.0,0.0,0.0,0.0,0.5794000029563904,0.0,0.0,0.0,0
480529376,-0.04843606799840927,0.07313749194145203,-23.427446365356445,0.0,0.0,0.0,0.0,0.0,0.0,0.5794000029563904,0.0,0.0,0.0,0
480540094,-0.0486520379781723,0.06784597784280777,-23.421720504760742,0.0,0.0,0.0,0.0,0.0,0.0,0.5794000029563904,0.0,0.0,0.0,0
480549294,-0.05136741325259209,0.0689326748251915,-23.420236587524414,0.0,0.0,0.0,0.0,0.0,0.0,0.5794000029563904,0.0,0.0,0.0,0
480559394,-0.04835377261042595,0.07621463388204575,-23.41547203063965,0.0,0.0,0.0,0.0,0.0,0.0,0.5794000029563904,0.0,0.0,0.0,0
480569578,-0.04118684306740761,0.07418995350599289,-23.412494659423828,0.0,0.0,0.0,0.0,0.0,0.0,0.5794000029563904,0.0,0.0,0.0,0
480579362,-0.044558778405189514,0.06969302892684937,-23.419151306152344,0.0,0.0,0.0,0.0,0.0,0.0,0.5794000029563904,0.0,0.0,0.0,0
480589600,-0.04306629300117493,0.07190191745758057,-23.425643920898438,0.0,0.0,0.0,0.0,0.0,0.0,0.5794000029563904,0.0,0.0,0.0,0
480599393,-0.04577234759926796,0.07419202476739883,-23.419897079467773,0.0,0.0,0.0,0.0,0.0,0.0,0.5794000029563904,0.0,0.0,0.0,0
480609356,-0.044352851808071136,0.08300043642520905,-23.41901397705078,0.0,0.0,0.0,0.0,0.0,0.0,0.5794000029563904,0.0,0.0,0.0,0
480619575,-0.04179906100034714,0.07756751775741577,-23.42087745666504,0.0,0.0,0.0,0.0,0.0,0.0,0.5794000029563904,0.0,0.0,0.0,0
480629382,-0.04389660060405731,0.07410814613103867,-23.42108154296875,0.0,0.0,0.0,0.0,0.0,0.0,0.5794000029563904,0.0,0.0,0.0,0
480639623,-0.051761772483587265,0.07338068634271622,-23.423416137695312,0.0,0.0,0.0,0.0,0.0,0.0,0.5794000029563904,0.0,0.0,0.0,0
480649322,-0.049939222633838654,0.07798507064580917,-23.425067901611328,0.0,0.0,0.0,0.0,0.0,0.0,0.5794000029563904,0.0,0.0,0.0,0
480659346,-0.042835552245378494,0.0805756077170372,-23.42245101928711,0.0,0.0,0.0,0.0,0.0,0.0,0.5794000029563904,0.0,0.0,0.0,0
480669967,-0.043121032416820526,0.07330825924873352,-23.4178524017334,0.0,0.0,0.0,0.0,0.0,0.0,0.5794000029563904,0.0,0.0,0.0,0
480679307,-0.04011842608451843,0.07064120471477509,-23.417110443115234,0.0,0.0,0.0,0.0,0.0,0.0,0.5794000029563904,0.0,0.0,0.0,0
480689546,-0.04192906245589256,0.07630164176225662,-23.422264099121094,0.0,0.0,0.0,0.0,0.0,0.0,0.5794000029563904,0.0,0.0,0.0,0
480699388,-0.039837952703237534,0.08035018295049667,-23.431241989135742,0.0,0.0,0.0,0.0,0.0,0.0,0.5794000029563904,0.0,0.0,0.0,0
480709350,-0.0416221059858799,0.07571997493505478,-23.436309814453125,0.0,0.0,0.0,0.0,0.0,0.0,0.5794000029563904,0.0,0.0,0.0,0
480719620,-0.03981567546725273,0.06900502741336823,-23.427871704101562,0.0,0.0,0.0,0.0,0.0,0.0,0.5794000029563904,0.0,0.0,0.0,0
480729394,-0.04472532123327255,0.07434624433517456,-23.422189712524414,0.0,0.0,0.0,0.0,0.0,0.0,0.5794000029563904,0.0,0.0,0.0,0
480739999,-0.03955931216478348,0.0816265419125557,-23.419286727905273,0.0,0.0,0.0,0.0,0.0,0.0,0.5794000029563904,0.0,0.0,0.0,0
480749399,-0.04482216760516167,0.07903734594583511,-23.424659729003906,0.0,0.0,0.0,0.0,0.0,0.0,0.5794000029563904,0.0,0.0,0.0,0
480759313,-0.04453902691602707,0.06973616033792496,-23.434640884399414,0.0,0.0,0.0,0.0,0.0,0.0,0.5794000029563904,0.0,0.0,0.0,0
480769535,-0.040335915982723236,0.0690024271607399,-23.431163787841797,0.0,0.0,0.0,0.0,0.0,0.0,0.5794000029563904,0.0,0.0,0.0,0
480779386,-0.04145962372422218,0.07406369596719742,-23.421728134155273,0.0,0.0,0.0,0.0,0.0,0.0,0.5794000029563904,0.0,0.0,0.0,0
480789578,-0.04164803773164749,0.07429246604442596,-23.41618537902832,0.0,0.0,0.0,0.0,0.0,0.0,0.5794000029563904,0.0,0.0,0.0,0
480799365,-0.03933985158801079,0.069737508893013,-23.412811279296875,0.0,0.0,0.0,0.0,0.0,0.0,0.5794000029563904,0.0,0.0,0.0,0
480809342,-0.04358117654919624,0.06868180632591248,-23.42729377746582,0.0,0.0,0.0,0.0,0.0,0.0,0.5794000029563904,0.0,0.0,0.0,0
480819704,-0.044552531093358994,0.07475512474775314,-23.43012237548828,0.0,0.0,0.0,0.0,0.0,0.0,0.5794000029563904,0.0,0.0,0.0,0
480829359,-0.042829785495996475,0.08094926178455353,-23.423919677734375,0.0,0.0,0.0,0.0,0.0,0.0,0.5794000029563904,0.0,0.0,0.0,0
480839674,-0.0443277508020401,0.0784083902835846,-23.428712844848633,0.0,0.0,0.0,0.0,0.0,0.0,0.5794000029563904,0.0,0.0,0.0,0
480849366,-0.04023735970258713,0.07219495624303818,-23.4217586517334,0.0,0.0,0.0,0.0,0.0,0.0,0.5794000029563904,0.0,0.0,0.0,0
480859386,-0.041155096143484116,0.07363006472587585,-23.416545867919922,0.0,0.0,0.0,0.0,0.0,0.0,0.5794000029563904,0.0,0.0,0.0,0
480870018,-0.04327697679400444,0.078456349670887,-23.418445587158203,0.0,0.0,0.0,0.0,0.0,0.0,0.5794000029563904,0.0,0.0,0.0,0
480879306,-0.04159418120980263,0.07795850932598114,-23.423627853393555,0.0,0.0,0.0,0.0,0.0,0.0,0.5794000029563904,0.0,0.0,0.0,0
480889537,-0.04344312101602554,0.07341840863227844,-23.430044174194336,0.0,0.0,0.0,0.0,0.0,0.0,0.5794000029563904,0.0,0.0,0.0,0
480899348,-0.042199186980724335,0.06846946477890015,-23.435039520263672,0.0,0.0,0.0,0.0,0.0,0.0,0.5794000029563904,0.0,0.0,0.0,0
480909370,-0.041919708251953125,0.07201284915208817,-23.429258346557617,0.0,0.0,0.0,0.0,0.0,0.0,0.5794000029563904,0.0,0.0,0.0,0
480919655,-0.04209873080253601,0.07731346040964127,-23.419891357421875,0.0,0.0,0.0,0.0,0.0,0.0,0.5794000029563904,0.0,0.0,0.0,0
480929297,-0.04482105001807213,0.07405488193035126,-23.420982360839844,0.0,0.0,0.0,0.0,0.0,0.0,0.5794000029563904,0.0,0.0,0.0,0
480940016,-0.04377591609954834,0.06574353575706482,-23.423681259155273,0.0,0.0,0.0,0.0,0.0,0.0,0.5794000029563904,0.0,0.0,0.0,0
480949284,-0.04268105328083038,0.06711868941783905,-23.430221557617188,0.0,0.0,0.0,0.0,0.0,0.0,0.5794000029563904,0.0,0.0,0.0,0
480959377,-0.04379315674304962,0.07705329358577728,-23.435775756835938,0.0,0.0,0.0,0.0,0.0,0.0,0.5794000029563904,0.0,0.0,0.0,0
480969577,-0.04085127264261246,0.07953780144453049,-23.424591064453125,0.0,0.0,0.0,0.0,0.0,0.0,0.5794000029563904,0.0,0.0,0.0,0
480979365,-0.03947095945477486,0.07769377529621124,-23.416669845581055,0.0,0.0,0.0,0.0,0.0,0.0,0.5794000029563904,0.0,0.0,0.0,0
480989596,-0.036171410232782364,0.0742957815527916,-23.419322967529297,0.0,0.0,0.0,0.0,0.0,0.0,0.5794000029563904,0.0,0.0,0.0,0
480999408,-0.03849393501877785,0.07416509091854095,-23.426937103271484,0.0,0.0,0.0,0.0,0.0,0.0,0.5794000029563904,0.0,0.0,0.0,0
481009375,-0.04028905928134918,0.07136696577072144,-23.433151245117188,0.0,0.0,0.0,0.0,0.0,0.0,0.5794000029563904,0.0,0.0,0.0,0
481019684,-0.04525044560432434,0.06721507012844086,-23.429439544677734,0.0,0.0,0.0,0.0,0.0,0.0,0.5794000029563904,0.0,0.0,0.0,0
481029330,-0.04904544726014137,0.07187233865261078,-23.420446395874023,0.0,0.0,0.0,0.0,0.0,0.0,0.5794000029563904,0.0,0.0,0.0,0
481039675,-0.045395899564027786,0.07246938347816467,-23.421417236328125,0.0,0.0,0.0,0.0,0.0,0.0,0.5794000029563904,0.0,0.0,0.0,0
481049301,-0.040558960288763046,0.07412603497505188,-23.426660537719727,0.0,0.0,0.0,0.0,0.0,0.0,0.5794000029563904,0.0,0.0,0.0,0
481059306,-0.039337631314992905,0.07743466645479202,-23.430866241455078,0.0,0.0,0.0,0.0,0.0,0.0,0.5794000029563904,0.0,0.0,0.0,0
481070012,-0.04385882988572121,0.07271912693977356,-23.4267520904541,0.0,0.0,0.0,0.0,0.0,0.0,0.5794000029563904,0.0,0.0,0.0,0
481079322,-0.0464787632226944,0.07171718776226044,-23.420269012451172,0.0,0.0,0.0,0.0,0.0,0.0,0.5794000029563904,0.0,0.0,0.0,0
481089571,-0.044316187500953674,0.07331688702106476,-23.414188385009766,0.0,0.0,0.0,0.0,0.0,0.0,0.5794000029563904,0.0,0.0,0.0,0
481099414,-0.0421946719288826,0.07826738059520721,-23.418886184692383,0.0,0.0,0.0,0.0,0.0,0.0,0.5794000029563904,0.0,0.0,0.0,0
481109318,-0.039978668093681335,0.07790632545948029,-23.42337989807129,0.0,0.0,0.0,0.0,0.0,0.0,0.5794000029563904,0.0,0.0,0.0,0
481119596,-0.03659001737833023,0.07274805754423141,-23.433752059936523,0.0,0.0,0.0,0.0,0.0,0.0,0.5794000029563904,0.0,0.0,0.0,0
481129320,-0.04031200334429741,0.07672812044620514,-23.431442260742188,0.0,0.0,0.0,0.0,0.0,0.0,0.5794000029563904,0.0,0.0,0.0,0
481140023,-0.045604269951581955,0.08058987557888031,-23.426340103149414,0.0,0.0,0.0,0.0,0.0,0.0,0.5794000029563904,0.0,0.0,0.0,0
481149285,-0.04960249364376068,0.08235612511634827,-23.426284790039062,0.0,0.0,0.0,0.0,0.0,0.0,0.5794000029563904,0.0,0.0,0.0,0
481159386,-0.04540872946381569,0.07775711268186569,-23.426654815673828,0.0,0.0,0.0,0.0,0.0,0.0,0.5794000029563904,0.0,0.0,0.0,0
481169557,-0.04917146638035774,0.07529749721288681,-23.43216896057129,0.0,0.0,0.0,0.0,0.0,0.0,0.5794000029563904,0.0,0.0,0.0,0
481179331,-0.04850668087601662,0.0761328786611557,-23.434476852416992,0.0,0.0,0.0,0.0,0.0,0.0,0.5794000029563904,0.0,0.0,0.0,0
481189547,-0.04352610558271408,0.078276127576828,-23.431102752685547,0.0,0.0,0.0,0.0,0.0,0.0,0.5794000029563904,0.0,0.0,0.0,0
481199396,-0.03986126556992531,0.07604308426380157,-23.430328369140625,0.0,0.0,0.0,0.0,0.0,0.0,0.5794000029563904,0.0,0.0,0.0,0
481209298,-0.04144861921668053,0.07451917976140976,-23.425796508789062,0.0,0.0,0.0,0.0,0.0,0.0,0.5794000029563904,0.0,0.0,0.0,0
481219629,-0.043405063450336456,0.07578624784946442,-23.4183292388916,0.0,0.0,0.0,0.0,0.0,0.0,0.5794000029563904,0.0,0.0,0.0,0
481229385,-0.0425720140337944,0.08066095411777496,-23.420228958129883,0.0,0.0,0.0,0.0,0.0,0.0,0.5794000029563904,0.0,0.0,0.0,0
481239729,-0.040228426456451416,0.08249926567077637,-23.429162979125977,0.0,0.0,0.0,0.0,0.0,0.0,0.5794000029563904,0.0,0.0,0.0,0
481249295,-0.03963754326105118,0.07675239443778992,-23.42820930480957,0.0,0.0,0.0,0.0,0.0,0.0,0.5794000029563904,0.0,0.0,0.0,0
481259421,-0.04191815108060837,0.07425270229578018,-23.426485061645508,0.0,0.0,0.0,0.0,0.0,0.0,0.5794000029563904,0.0,0.0,0.0,0
481270017,-0.04345535859465599,0.07943441718816757,-23.422544479370117,0.0,0.0,0.0,0.0,0.0,0.0,0.5794000029563904,0.0,0.0,0.0,0
481279310,-0.047037359327077866,0.08075212687253952,-23.42496109008789,0.0,0.0,0.0,0.0,0.0,0.0,0.5794000029563904,0.0,0.0,0.0,0
481289599,-0.04972425103187561,0.07747625559568405,-23.432458877563477,0.0,0.0,0.0,0.0,0.0,0.0,0.5794000029563904,0.0,0.0,0.0,0
481299329,-0.049987249076366425,0.07541437447071075,-23.438261032104492,0.0,0.0,0.0,0.0,0.0,0.0,0.5794000029563904,0.0,0.0,0.0,0
481309302,-0.04877687245607376,0.07714886218309402,-23.434757232666016,0.0,0.0,0.0,0.0,0.0,0.0,0.5794000029563904,0.0,0.0,0.0,0
481319618,-0.04723207652568817,0.0787859782576561,-23.43276023864746,0.0,0.0,0.0,0.0,0.0,0.0,0.5794000029563904,0.0,0.0,0.0,0
481329381,-0.04534750059247017,0.07042498886585236,-23.434274673461914,0.0,0.0,0.0,0.0,0.0,0.0,0.5794000029563904,0.0,0.0,0.0,0
481340069,-0.047840628772974014,0.06651067733764648,-23.42574119567871,0.0,0.0,0.0,0.0,0.0,0.0,0.5794000029563904,0.0,0.0,0.0,0
481349334,-0.0457603856921196,0.07245132327079773,-23.43413734436035,0.0,0.0,0.0,0.0,0.0,0.0,0.5794000029563904,0.0,0.0,0.0,0
481359323,-0.04048401117324829,0.08007918298244476,-23.43946647644043,0.0,0.0,0.0,0.0,0.0,0.0,0.5794000029563904,0.0,0.0,0.0,0
481369591,-0.04169929027557373,0.07884199172258377,-23.43846321105957,0.0,0.0,0.0,0.0,0.0,0.0,0.5794000029563904,0.0,0.0,0.0,0
481379415,-0.03953170031309128,0.0690450519323349,-23.439071655273438,0.0,0.0,0.0,0.0,0.0,0.0,0.5794000029563904,0.0,0.0,0.0,0
481389589,-0.043428611010313034,0.06959863752126694,-23.43056869506836,0.0,0.0,0.0,0.0,0.0,0.0,0.5794000029563904,0.0,0.0,0.0,0
481399415,-0.04155300185084343,0.07695941627025604,-23.424528121948242,0.0,0.0,0.0,0.0,0.0,0.0,0.5794000029563904,0.0,0.0,0.0,0
481409292,-0.04398787021636963,0.073323555290699,-23.431827545166016,0.0,0.0,0.0,0.0,0.0,0.0,0.5794000029563904,0.0,0.0,0.0,0
481419652,-0.04085908085107803,0.06859353184700012,-23.440305709838867,0.0,0.0,0.0,0.0,0.0,0.0,0.5794000029563904,0.0,0.0,0.0,0
481429305,-0.042594242841005325,0.07102978229522705,-23.436866760253906,0.0,0.0,0.0,0.0,0.0,0.0,0.5794000029563904,0.0,0.0,0.0,0
481439670,-0.040430858731269836,0.07863736152648926,-23.431093215942383,0.0,0.0,0.0,0.0,0.0,0.0,0.5794000029563904,0.0,0.0,0.0,0
481449329,-0.041019339114427567,0.08177650719881058,-23.4298038482666,0.0,0.0,0.0,0.0,0.0,0.0,0.5794000029563904,0.0,0.0,0.0,0
481459315,-0.041136484593153,0.07746487110853195,-23.42628288269043,0.0,0.0,0.0,0.0,0.0,0.0,0.5794000029563904,0.0,0.0,0.0,0
481470025,-0.047756653279066086,0.06504080444574356,-23.429704666137695,0.0,0.0,0.0,0.0,0.0,0.0,0.5794000029563904,0.0,0.0,0.0,0
481479309,-0.04929947480559349,0.07005594670772552,-23.43808937072754,0.0,0.0,0.0,0.0,0.0,0.0,0.5794000029563904,0.0,0.0,0.0,0
481489592,-0.039174944162368774,0.07905016094446182,-23.44306182861328,0.0,0.0,0.0,0.0,0.0,0.0,0.5794000029563904,0.0,0.0,0.0,0
481499326,-0.04273784160614014,0.0820256918668747,-23.441936492919922,0.0,0.0,0.0,0.0,0.0,0.0,0.5794000029563904,0.0,0.0,0.0,0
481509327,-0.0418914258480072,0.07838533073663712,-23.440309524536133,0.0,0.0,0.0,0.0,0.0,0.0,0.5794000029563904,0.0,0.0,0.0,0
481519664,-0.04032323881983757,0.07677815854549408,-23.430429458618164,0.0,0.0,0.0,0.0,0.0,0.0,0.5794000029563904,0.0,0.0,0.0,0
481529312,-0.03984193131327629,0.07795748859643936,-23.427520751953125,0.0,0.0,0.0,0.0,0.0,0.0,0.5794000029563904,0.0,0.0,0.0,0
481540051,-0.04573558270931244,0.08063574135303497,-23.43287467956543,0.0,0.0,0.0,0.0,0.0,0.0,0.5794000029563904,0.0,0.0,0.0,0
481549287,-0.04674801975488663,0.07737181335687637,-23.44088363647461,0.0,0.0,0.0,0.0,0.0,0.0,0.5794000029563904,0.0,0.0,0.0,0
481559385,-0.04826639965176582,0.0759289488196373,-23.435361862182617,0.0,0.0,0.0,0.0,0.0,0.0,0.5794000029563904,0.0,0.0,0.0,0
481569552,-0.04673655331134796,0.07308478653430939,-23.430435180664062,0.0,0.0,0.0,0.0,0.0,0.0,0.5794000029563904,0.0,0.0,0.0,0
481579381,-0.04639950767159462,0.07383738458156586,-23.42803955078125,0.0,0.0,0.0,0.0,0.0,0.0,0.5794000029563904,0.0,0.0,0.0,0
481589607,-0.04608580097556114,0.07656537741422653,-23.43316650390625,0.0,0.0,0.0,0.0,0.0,0.0,0.5794000029563904,0.0,0.0,0.0,0
481599348,-0.04683534428477287,0.07138326019048691,-23.4388427734375,0.0,0.0,0.0,0.0,0.0,0.0,0.5794000029563904,0.0,0.0,0.0,0
481609325,-0.04191878065466881,0.06722299754619598,-23.44281005859375,0.0,0.0,0.0,0.0,0.0,0.0,0.5794000029563904,0.0,0.0,0.0,0
481619705,-0.04287489131093025,0.07071295380592346,-23.442855834960938,0.0,0.0,0.0,0.0,0.0,0.0,0.5794000029563904,0.0,0.0,0.0,0
481629348,-0.04136832058429718,0.08087792247533798,-23.442455291748047,0.0,0.0,0.0,0.0,0.0,0.0,0.5794000029563904,0.0,0.0,0.0,0
481639317,-0.04051107540726662,0.08228681236505508,-23.437808990478516,0.0,0.0,0.0,0.0,0.0,0.0,0.5794000029563904,0.0,0.0,0.0,0
481649528,-0.03964049369096756,0.07640764117240906,-23.438323974609375,0.0,0.0,0.0,0.0,0.0,0.0,0.5794000029563904,0.0,0.0,0.0,0
481659405,-0.04048005864024162,0.07234290987253189,-23.440412521362305,0.0,0.0,0.0,0.0,0.0,0.0,0.5794000029563904,0.0,0.0,0.0,0
481670021,-0.0446576327085495,0.0751386433839798,-23.447160720825195,0.0,0.0,0.0,0.0,0.0,0.0,0.5794000029563904,0.0,0.0,0.0,0
481679361,-0.0419200100004673,0.07429063320159912,-23.447113037109375,0.0,0.0,0.0,0.0,0.0,0.0,0.5794000029563904,0.0,0.0,0.0,0
481689298,-0.043557144701480865,0.07356156408786774,-23.43763542175293,0.0,0.0,0.0,0.0,0.0,0.0,0.5794000029563904,0.0,0.0,0.0,0
481699630,-0.04734165593981743,0.07146561145782471,-23.4339656829834,0.0,0.0,0.0,0.0,0.0,0.0,0.5794000029563904,0.0,0.0,0.0,0
481709343,-0.04942002892494202,0.06816057115793228,-23.434688568115234,0.0,0.0,0.0,0.0,0.0,0.0,0.5794000029563904,0.0,0.0,0.0,0
481719599,-0.044750772416591644,0.07407372444868088,-23.435585021972656,0.0,0.0,0.0,0.0,0.0,0.0,0.5794000029563904,0.0,0.0,0.0,0
481729375,-0.042486947029829025,0.07473764568567276,-23.449071884155273,0.0,0.0,0.0,0.0,0.0,0.0,0.5794000029563904,0.0,0.0,0.0,0
481739429,-0.04493008926510811,0.07427185773849487,-23.448301315307617,0.0,0.0,0.0,0.0,0.0,0.0,0.5794000029563904,0.0,0.0,0.0,0
481749926,-0.04712697118520737,0.07603845000267029,-23.44011688232422,0.0,0.0,0.0,0.0,0.0,0.0,0.5794000029563904,0.0,0.0,0.0,0
481759311,-0.04130534455180168,0.07521470636129379,-23.43388557434082,0.0,0.0,0.0,0.0,0.0,0.0,0.5794000029563904,0.0,0.0,0.0,0
481769570,-0.04117168113589287,0.0702146366238594,-23.431840896606445,0.0,0.0,0.0,0.0,0.0,0.0,0.5794000029563904,0.0,0.0,0.0,0
481779384,-0.04510943591594696,0.0706854984164238,-23.43610954284668,0.0,0.0,0.0,0.0,0.0,0.0,0.5794000029563904,0.0,0.0,0.0,0
481789320,-0.04388344660401344,0.06842733919620514,-23.446563720703125,0.0,0.0,0.0,0.0,0.0,0.0,0.5794000029563904,0.0,0.0,0.0,0
481800111,-0.044588927179574966,0.07029174268245697,-23.445613861083984,0.0,0.0,0.0,0.0,0.0,0.0,0.5794000029563904,0.0,0.0,0.0,0
481809323,-0.05203070864081383,0.0713583305478096,-23.438722610473633,0.0,0.0,0.0,0.0,0.0,0.0,0.5794000029563904,0.0,0.0,0.0,0
481819628,-0.05311216041445732,0.07607737928628922,-23.435211181640625,0.0,0.0,0.0,0.0,0.0,0.0,0.5794000029563904,0.0,0.0,0.0,0
481829348,-0.04679523780941963,0.07968420535326004,-23.434194564819336,0.0,0.0,0.0,0.0,0.0,0.0,0.5794000029563904,0.0,0.0,0.0,0
481839311,-0.037744905799627304,0.07320551574230194,-23.438133239746094,0.0,0.0,0.0,0.0,0.0,0.0,0.5794000029563904,0.0,0.0,0.0,0
481849577,-0.037116702646017075,0.07362745702266693,-23.44264030456543,0.0,0.0,0.0,0.0,0.0,0.0,0.5794000029563904,0.0,0.0,0.0,0
481859314,-0.034863490611314774,0.0759357288479805,-23.437889099121094,0.0,0.0,0.0,0.0,0.0,0.0,0.5794000029563904,0.0,0.0,0.0,0
481870103,-0.0397641696035862,0.0784277394413948,-23.429460525512695,0.0,0.0,0.0,0.0,0.0,0.0,0.5794000029563904,0.0,0.0,0.0,0
481879323,-0.04563906788825989,0.07460258901119232,-23.429153442382812,0.0,0.0,0.0,0.0,0.0,0.0,0.5794000029563904,0.0,0.0,0.0,0
481889381,-0.04934171959757805,0.0695105791091919,-23.43242835998535,0.0,0.0,0.0,0.0,0.0,0.0,0.5794000029563904,0.0,0.0,0.0,0
481899622,-0.052939947694540024,0.07353577762842178,-23.442012786865234,0.0,0.0,0.0,0.0,0.0,0.0,0.5794000029563904,0.0,0.0,0.0,0
481909389,-0.04472222551703453,0.07943804562091827,-23.44887351989746,0.0,0.0,0.0,0.0,0.0,0.0,0.5794000029563904,0.0,0.0,0.0,0
481919601,-0.04089340567588806,0.08062853664159775,-23.444957733154297,0.0,0.0,0.0,0.0,0.0,0.0,0.5794000029563904,0.0,0.0,0.0,0
481929406,-0.04170498251914978,0.0776430144906044,-23.43876838684082,0.0,0.0,0.0,0.0,0.0,0.0,0.5794000029563904,0.0,0.0,0.0,0
481939328,-0.03588747978210449,0.08110508322715759,-23.43281364440918,0.0,0.0,0.0,0.0,0.0,0.0,0.5794000029563904,0.0,0.0,0.0,0
481949902,-0.037953559309244156,0.07883559912443161,-23.43798828125,0.0,0.0,0.0,0.0,0.0,0.0,0.5794000029563904,0.0,0.0,0.0,0
481959310,-0.043802112340927124,0.08028193563222885,-23.447818756103516,0.0,0.0,0.0,0.0,0.0,0.0,0.5794000029563904,0.0,0.0,0.0,0
481969555,-0.04552280530333519,0.07831162214279175,-23.445472717285156,0.0,0.0,0.0,0.0,0.0,0.0,0.5794000029563904,0.0,0.0,0.0,0
481979350,-0.04386754333972931,0.07356266677379608,-23.44684600830078,0.0,0.0,0.0,0.0,0.0,0.0,0.5794000029563904,0.0,0.0,0.0,0
481989305,-0.044830188155174255,0.06877195835113525,-23.443660736083984,0.0,0.0,0.0,0.0,0.0,0.0,0.5794000029563904,0.0,0.0,0.0,0
482000053,-0.04144749417901039,0.07410577684640884,-23.43970489501953,0.0,0.0,0.0,0.0,0.0,0.0,0.5794000029563904,0.0,0.0,0.0,0
482009299,-0.04140850529074669,0.08214738965034485,-23.441808700561523,0.0,0.0,0.0,0.0,0.0,0.0,0.5794000029563904,0.0,0.0,0.0,0
482019599,-0.042961057275533676,0.07667022198438644,-23.441299438476562,0.0,0.0,0.0,0.0,0.0,0.0,0.5794000029563904,0.0,0.0,0.0,0
482029389,-0.04078429937362671,0.0708809569478035,-23.4483642578125,0.0,0.0,0.0,0.0,0.0,0.0,0.5794000029563904,0.0,0.0,0.0,0
482039310,-0.04344252869486809,0.07383313030004501,-23.45445442199707,0.0,0.0,0.0,0.0,0.0,0.0,0.5794000029563904,0.0,0.0,0.0,0
482049633,-0.04609271138906479,0.07609393447637558,-23.449277877807617,0.0,0.0,0.0,0.0,0.0,0.0,0.5794000029563904,0.0,0.0,0.0,0
482059387,-0.0437539778649807,0.07661116123199463,-23.438913345336914,0.0,0.0,0.0,0.0,0.0,0.0,0.5794000029563904,0.0,0.0,0.0,0
482070093,-0.04488152265548706,0.0771477222442627,-23.438154220581055,0.0,0.0,0.0,0.0,0.0,0.0,0.5794000029563904,0.0,0.0,0.0,0
482079353,-0.04123780503869057,0.07660996168851852,-23.444551467895508,0.0,0.0,0.0,0.0,0.0,0.0,0.5794000029563904,0.0,0.0,0.0,0
482089301,-0.042485978454351425,0.07890146225690842,-23.449562072753906,0.0,0.0,0.0,0.0,0.0,0.0,0.5794000029563904,0.0,0.0,0.0,0
482099656,-0.04454181715846062,0.0818435326218605,-23.44998550415039,0.0,0.0,0.0,0.0,0.0,0.0,0.5794000029563904,0.0,0.0,0.0,0
482109319,-0.04573618620634079,0.0748545452952385,-23.44308090209961,0.0,0.0,0.0,0.0,0.0,0.0,0.5794000029563904,0.0,0.0,0.0,0
482119639,-0.04376750811934471,0.07336488366127014,-23.438783645629883,0.0,0.0,0.0,0.0,0.0,0.0,0.5794000029563904,0.0,0.0,0.0,0
482129359,-0.04727105051279068,0.07533752173185349,-23.442968368530273,0.0,0.0,0.0,0.0,0.0,0.0,0.5794000029563904,0.0,0.0,0.0,0
482139339,-0.046106789261102676,0.07309533655643463,-23.442861557006836,0.0,0.0,0.0,0.0,0.0,0.0,0.5794000029563904,0.0,0.0,0.0,0
482149904,-0.042448412626981735,0.0688948780298233,-23.44725799560547,0.0,0.0,0.0,0.0,0.0,0.0,0.5794000029563904,0.0,0.0,0.0,0
482159421,-0.03486664593219757,0.07155352085828781,-23.447303771972656,0.0,0.0,0.0,0.0,0.0,0.0,0.5794000029563904,0.0,0.0,0.0,0
482169574,-0.04085903614759445,0.07068807631731033,-23.443649291992188,0.0,0.0,0.0,0.0,0.0,0.0,0.5794000029563904,0.0,0.0,0.0,0
482179396,-0.0390368215739727,0.07544625550508499,-23.442060470581055,0.0,0.0,0.0,0.0,0.0,0.0,0.5794000029563904,0.0,0.0,0.0,0
482189367,-0.03447398170828819,0.08166967332363129,-23.443504333496094,0.0,0.0,0.0,0.0,0.0,0.0,0.5794000029563904,0.0,0.0,0.0,0
482200068,-0.03676437586545944,0.07527629286050797,-23.455068588256836,0.0,0.0,0.0,0.0,0.0,0.0,0.5794000029563904,0.0,0.0,0.0,0
482209329,-0.039538875222206116,0.07163695991039276,-23.4503231048584,0.0,0.0,0.0,0.0,0.0,0.0,0.5794000029563904,0.0,0.0,0.0,0
482219639,-0.04473722353577614,0.07843901216983795,-23.443546295166016,0.0,0.0,0.0,0.0,0.0,0.0,0.5794000029563904,0.0,0.0,0.0,0
482229381,-0.044090256094932556,0.0826968178153038,-23.449878692626953,0.0,0.0,0.0,0.0,0.0,0.0,0.5794000029563904,0.0,0.0,0.0,0
482239410,-0.04451616480946541,0.08371919393539429,-23.44480323791504,0.0,0.0,0.0,0.0,0.0,0.0,0.5794000029563904,0.0,0.0,0.0,0
482249625,-0.04397852346301079,0.0783408060669899,-23.439085006713867,0.0,0.0,0.0,0.0,0.0,0.0,0.5794000029563904,0.0,0.0,0.0,0
482259458,-0.04551251605153084,0.07789354026317596,-23.44198989868164,0.0,0.0,0.0,0.0,0.0,0.0,0.5794000029563904,0.0,0.0,0.0,0
482270024,-0.04654551297426224,0.0783965215086937,-23.440759658813477,0.0,0.0,0.0,0.0,0.0,0.0,0.5794000029563904,0.0,0.0,0.0,0
482279356,-0.049694210290908813,0.08293189853429794,-23.43971824645996,0.0,0.0,0.0,0.0,0.0,0.0,0.5794000029563904,0.0,0.0,0.0,0
482289331,-0.020222077146172523,-0.003146938281133771,-23.453022003173828,0.0,0.0,0.0,0.0,0.0,0.0,0.5794000029563904,0.0,0.0,0.0,0
482299612,-0.047575391829013824,0.27416133880615234,-23.42129898071289,0.0,0.0,0.0,0.0,0.0,0.0,0.5794000029563904,0.0,0.0,0.0,0
482309306,-0.07032357156276703,-0.024699684232473373,-23.492712020874023,0.0,0.0,0.0,0.0,0.0,0.0,0.5794000029563904,0.0,0.0,0.0,0
482319557,-0.02842242643237114,-0.22096869349479675,-23.445100784301758,0.0,0.0,0.0,0.0,0.0,0.0,0.5794000029563904,0.0,0.0,0.0,0
482329368,-0.03270334750413895,0.5152356624603271,-23.4168758392334,0.0,0.0,0.0,0.0,0.0,0.0,0.5794000029563904,0.0,0.0,0.0,0
482339456,-0.04573683813214302,-0.2782103717327118,-23.520320892333984,0.0,0.0,0.0,0.0,0.0,0.0,0.5794000029563904,0.0,0.0,0.0,0
482349891,-0.030224090442061424,0.42008981108665466,-23.44627571105957,0.0,0.0,0.0,0.0,0.0,0.0,0.5794000029563904,0.0,0.0,0.0,0
482359425,-0.07627644389867783,0.04350743442773819,-23.438817977905273,0.0,0.0,0.0,0.0,0.0,0.0,0.5794000029563904,0.0,0.0,0.0,0
482369387,-0.06888441741466522,-0.2656896114349365,-23.462671279907227,0.0,0.0,0.0,0.0,0.0,0.0,0.5794000029563904,0.0,0.0,0.0,0
482379617,-0.07454125583171844,0.40398091077804565,-23.435455322265625,0.0,0.0,0.0,0.0,0.0,0.0,0.5794000029563904,0.0,0.0,0.0,0
482389294,-0.04444219917058945,-0.13085414469242096,-23.426502227783203,0.0,0.0,0.0,0.0,0.0,0.0,0.5794000029563904,0.0,0.0,0.0,0
482400087,-0.05494403839111328,0.28836455941200256,-23.457334518432617,0.0,0.0,0.0,0.0,0.0,0.0,0.5794000029563904,0.0,0.0,0.0,0
482409294,-0.03378978744149208,0.013614877127110958,-23.464698791503906,0.0,0.0,0.0,0.0,0.0,0.0,0.5794000029563904,0.0,0.0,0.0,0
482419341,-0.024728955700993538,-0.0315665528178215,-23.400177001953125,0.0,0.0,0.0,0.0,0.0,0.0,0.5794000029563904,0.0,0.0,0.0,0
482429657,-0.012193262577056885,0.09797866642475128,-23.462112426757812,0.0,0.0,0.0,0.0,0.0,0.0,0.5794000029563904,0.0,0.0,0.0,0
482439320,-0.01457808818668127,0.16401128470897675,-23.43239974975586,0.0,0.0,0.0,0.0,0.0,0.0,0.5794000029563904,0.0,0.0,0.0,0
482449540,-0.07003812491893768,0.029490984976291656,-23.427831649780273,0.0,0.0,0.0,0.0,0.0,0.0,0.5794000029563904,0.0,0.0,0.0,0
482459332,-0.10873550921678543,0.11037424206733704,-23.482263565063477,0.0,0.0,0.0,0.0,0.0,0.0,0.5794000029563904,0.0,0.0,0.0,0
482469292,-0.09856406599283218,0.04911080747842789,-23.447608947753906,0.0,0.0,0.0,0.0,0.0,0.0,0.5794000029563904,0.0,0.0,0.0,0
482479606,-0.030988099053502083,-0.009960428811609745,-23.43546485900879,0.0,0.0,0.0,0.0,0.0,0.0,0.5794000029563904,0.0,0.0,0.0,0
482489327,0.007307060528546572,0.24241772294044495,-23.446346282958984,0.0,0.0,0.0,0.0,0.0,0.0,0.5794000029563904,0.0,0.0,0.0,0
482499586,0.026962995529174805,-0.03799980878829956,-23.424409866333008,0.0,0.0,0.0,0.0,0.0,0.0,0.5794000029563904,0.0,0.0,0.0,0
482509308,-0.00873325951397419,0.13722658157348633,-23.435874938964844,0.0,0.0,0.0,0.0,0.0,0.0,0.5794000029563904,0.0,0.0,0.0,0
482519432,-0.06232158839702606,0.07107341289520264,-23.486967086791992,0.0,0.0,0.0,0.0,0.0,0.0,0.5794000029563904,0.0,0.0,0.0,0
482529532,-0.08708415180444717,0.028610743582248688,-23.4504451751709,0.0,0.0,0.0,0.0,0.0,0.0,0.5794000029563904,0.0,0.0,0.0,0
482539399,-0.08599710464477539,0.17032812535762787,-23.448482513427734,0.0,0.0,0.0,0.0,0.0,0.0,0.5794000029563904,0.0,0.0,0.0,0
482549935,-0.0730864405632019,0.014644183218479156,-23.466876983642578,0.0,0.0,0.0,0.0,0.0,0.0,0.5794000029563904,0.0,0.0,0.0,0
482559376,-0.03331209719181061,0.05995944142341614,-23.434490203857422,0.0,0.0,0.0,0.0,0.0,0.0,0.5794000029563904,0.0,0.0,0.0,0
482569326,-0.010562218725681305,0.10028458386659622,-23.4460391998291,0.0,0.0,0.0,0.0,0.0,0.0,0.5794000029563904,0.0,0.0,0.0,0
482579610,-0.018594497814774513,0.06355388462543488,-23.456066131591797,0.0,0.0,0.0,0.0,0.0,0.0,0.5794000029563904,0.0,0.0,0.0,0
482589303,-0.020276101306080818,0.10543003678321838,-23.427204132080078,0.0,0.0,0.0,0.0,0.0,0.0,0.5794000029563904,0.0,0.0,0.0,0
482600058,-0.05000488460063934,0.08062633126974106,-23.451801300048828,0.0,0.0,0.0,0.0,0.0,0.0,0.5794000029563904,0.0,0.0,0.0,0
482609325,-0.05409090965986252,-0.0036375527270138264,-23.463253021240234,0.0,0.0,0.0,0.0,0.0,0.0,0.5794000029563904,0.0,0.0,0.0,0
482619310,-0.05337556451559067,0.13410453498363495,-23.44894027709961,0.0,0.0,0.0,0.0,0.0,0.0,0.5794000029563904,0.0,0.0,0.0,0
482629598,-0.05475601926445961,0.06079841032624245,-23.46006202697754,0.0,0.0,0.0,0.0,0.0,0.0,0.5794000029563904,0.0,0.0,0.0,0
482639337,-0.045794807374477386,0.07696782052516937,-23.45362663269043,0.0,0.0,0.0,0.0,0.0,0.0,0.5794000029563904,0.0,0.0,0.0,0
482649533,-0.04342959448695183,0.09645453840494156,-23.443471908569336,0.0,0.0,0.0,0.0,0.0,0.0,0.5794000029563904,0.0,0.0,0.0,0
482659408,-0.03856364265084267,0.01575772650539875,-23.453248977661133,0.0,0.0,0.0,0.0,0.0,0.0,0.5794000029563904,0.0,0.0,0.0,0
482669355,-0.018504248932003975,0.1361418217420578,-23.43441390991211,0.0,0.0,0.0,0.0,0.0,0.0,0.5794000029563904,0.0,0.0,0.0,0
482679621,-0.01243581436574459,0.048635855317115784,-23.434825897216797,0.0,0.0,0.0,0.0,0.0,0.0,0.5794000029563904,0.0,0.0,0.0,0
482689382,-0.03427373245358467,0.06376902759075165,-23.45406723022461,0.0,0.0,0.0,0.0,0.0,0.0,0.5794000029563904,0.0,0.0,0.0,0
482699626,-0.05339273810386658,0.08313120156526566,-23.449033737182617,0.0,0.0,0.0,0.0,0.0,0.0,0.5794000029563904,0.0,0.0,0.0,0
482709385,-0.08041837811470032,0.06526675820350647,-23.45563316345215,0.0,0.0,0.0,0.0,0.0,0.0,0.5794000029563904,0.0,0.0,0.0,0
482719416,-0.08418288826942444,0.10340370982885361,-23.46622085571289,0.0,0.0,0.0,0.0,0.0,0.0,0.5794000029563904,0.0,0.0,0.0,0
482729615,-0.04856692627072334,0.09156634658575058,-23.440052032470703,0.0,0.0,0.0,0.0,0.0,0.0,0.5794000029563904,0.0,0.0,0.0,0
482739334,-0.013097968883812428,0.021197209134697914,-23.43075180053711,0.0,0.0,0.0,0.0,0.0,0.0,0.5794000029563904,0.0,0.0,0.0,0
482749912,-0.004455037415027618,0.08292943984270096,-23.440778732299805,0.0,0.0,0.0,0.0,0.0,0.0,0.5794000029563904,0.0,0.0,0.0,0
482759341,-0.021952610462903976,0.09491601586341858,-23.446508407592773,0.0,0.0,0.0,0.0,0.0,0.0,0.5794000029563904,0.0,0.0,0.0,0
482769378,-0.05458373948931694,0.08511105924844742,-23.45545196533203,0.0,0.0,0.0,0.0,0.0,0.0,0.5794000029563904,0.0,0.0,0.0,0
482779620,-0.0767529308795929,0.10099337249994278,-23.460800170898438,0.0,0.0,0.0,0.0,0.0,0.0,0.5794000029563904,0.0,0.0,0.0,0
482789328,-0.0600009560585022,0.007008163724094629,-23.43941307067871,0.0,0.0,0.0,0.0,0.0,0.0,0.5794000029563904,0.0,0.0,0.0,0
482800027,-0.04962779954075813,0.07614486664533615,-23.44477081298828,0.0,0.0,0.0,0.0,0.0,0.0,0.5794000029563904,0.0,0.0,0.0,0
482809371,-0.045584168285131454,0.0849272683262825,-23.459779739379883,0.0,0.0,0.0,0.0,0.0,0.0,0.5794000029563904,0.0,0.0,0.0,0
482819348,-0.03931532800197601,0.09653867036104202,-23.44354248046875,0.0,0.0,0.0,0.0,0.0,0.0,0.5794000029563904,0.0,0.0,0.0,0
482829547,-0.037137191742658615,0.0923084169626236,-23.452795028686523,0.0,0.0,0.0,0.0,0.0,0.0,0.5794000029563904,0.0,0.0,0.0,0
482839320,-0.031219907104969025,0.055945731699466705,-23.459157943725586,0.0,0.0,0.0,0.0,0.0,0.0,0.5794000029563904,0.0,0.0,0.0,0
482849556,-0.025461819022893906,0.06784627586603165,-23.437671661376953,0.0,0.0,0.0,0.0,0.0,0.0,0.5794000029563904,0.0,0.0,0.0,0
482859344,-0.052690133452415466,0.08734134584665298,-23.44910430908203,0.0,0.0,0.0,0.0,0.0,0.0,0.5794000029563904,0.0,0.0,0.0,0
482869303,-0.06866684556007385,0.07721694558858871,-23.457958221435547,0.0,0.0,0.0,0.0,0.0,0.0,0.5794000029563904,0.0,0.0,0.0,0
482879632,-0.07222587615251541,0.08715304732322693,-23.44903564453125,0.0,0.0,0.0,0.0,0.0,0.0,0.5794000029563904,0.0,0.0,0.0,0
482889329,-0.05488013103604317,0.0871538519859314,-23.467308044433594,0.0,0.0,0.0,0.0,0.0,0.0,0.5794000029563904,0.0,0.0,0.0,0
482899682,-0.019615696743130684,0.06622431427240372,-23.439430236816406,0.0,0.0,0.0,0.0,0.0,0.0,0.5794000029563904,0.0,0.0,0.0,0
482909337,-0.0010904509108513594,0.08828987181186676,-23.4294490814209,0.0,0.0,0.0,0.0,0.0,0.0,0.5794000029563904,0.0,0.0,0.0,0
482919393,-0.03027387522161007,0.054112643003463745,-23.44829559326172,0.0,0.0,0.0,0.0,0.0,0.0,0.5794000029563904,0.0,0.0,0.0,0
482929596,-0.06047476455569267,0.10233219712972641,-23.454383850097656,0.0,0.0,0.0,0.0,0.0,0.0,0.5794000029563904,0.0,0.0,0.0,0
482939353,-0.07688843458890915,0.09114883095026016,-23.475692749023438,0.0,0.0,0.0,0.0,0.0,0.0,0.5794000029563904,0.0,0.0,0.0,0
482949899,-0.061997849494218826,0.08215108513832092,-23.468900680541992,0.0,0.0,0.0,0.0,0.0,0.0,0.5794000029563904,0.0,0.0,0.0,0
482959321,-0.03721382096409798,0.06788265705108643,-23.43300437927246,0.0,0.0,0.0,0.0,0.0,0.0,0.5794000029563904,0.0,0.0,0.0,0
482969416,-0.030912790447473526,0.053925011307001114,-23.44230079650879,0.0,0.0,0.0,0.0,0.0,0.0,0.5794000029563904,0.0,0.0,0.0,0
482979441,-0.0377570204436779,0.07998963445425034,-23.447507858276367,0.0,0.0,0.0,0.0,0.0,0.0,0.5794000029563904,0.0,0.0,0.0,0
482989573,-0.03235252946615219,0.09832355380058289,-23.45363998413086,0.0,0.0,0.0,0.0,0.0,0.0,0.5794000029563904,0.0,0.0,0.0,0
482999998,-0.033761583268642426,0.07983200252056122,-23.45731544494629,0.0,0.0,0.0,0.0,0.0,0.0,0.5794000029563904,0.0,0.0,0.0,0
483009300,-0.03735789656639099,0.05989135429263115,-23.45747947692871,0.0,0.0,0.0,0.0,0.0,0.0,0.5794000029563904,0.0,0.0,0.0,0
483019388,-0.03701241686940193,0.049417607486248016,-23.34883689880371,0.0,0.0,0.0,0.0,0.0,0.0,0.5794000029563904,0.0,0.0,0.0,0
483029369,-0.06628146022558212,0.0653616338968277,-23.37140464782715,0.0,0.0,0.0,0.0,0.0,0.0,0.5794000029563904,0.0,0.0,0.0,0
483039620,-0.06685134768486023,0.11646557599306107,-23.41322898864746,0.0,0.0,0.0,0.0,0.0,0.0,0.5794000029563904,0.0,0.0,0.0,0
483049563,-0.05039539188146591,0.07707581669092178,-23.37141227722168,0.0,0.0,0.0,0.0,0.0,0.0,0.5794000029563904,0.0,0.0,0.0,0
483059378,-0.029260456562042236,0.06814497709274292,-23.377004623413086,0.0,0.0,0.0,0.0,0.0,0.0,0.5794000029563904,0.0,0.0,0.0,0
483069415,-0.015015659853816032,0.06677605211734772,-23.358015060424805,0.0,0.0,0.0,0.0,0.0,0.0,0.5794000029563904,0.0,0.0,0.0,0
483079391,-0.02581622824072838,0.0805317685008049,-23.340469360351562,0.0,0.0,0.0,0.0,0.0,0.0,0.5794000029563904,0.0,0.0,0.0,0
483089599,-0.05259525030851364,0.11173483729362488,-23.392663955688477,0.0,0.0,0.0,0.0,0.0,0.0,0.5794000029563904,0.0,0.0,0.0,0
483099648,-0.06533285975456238,0.0791899636387825,-23.37114715576172,0.0,0.0,0.0,0.0,0.0,0.0,0.5794000029563904,0.0,0.0,0.0,0
483109369,-0.058190204203128815,0.07156515121459961,-23.3652286529541,0.0,0.0,0.0,0.0,0.0,0.0,0.5794000029563904,0.0,0.0,0.0,0
483119379,-0.04015125334262848,0.06893343478441238,-23.39082908630371,0.0,0.0,0.0,0.0,0.0,0.0,0.5794000029563904,0.0,0.0,0.0,0
483129312,-0.04055098816752434,0.06369727849960327,-23.356021881103516,0.0,0.0,0.0,0.0,0.0,0.0,0.5794000029563904,0.0,0.0,0.0,0
483140076,-0.03693510219454765,0.09469170868396759,-23.368431091308594,0.0,0.0,0.0,0.0,0.0,0.0,0.5794000029563904,0.0,0.0,0.0,0
483149980,-0.043703578412532806,0.09163845330476761,-23.36834716796875,0.0,0.0,0.0,0.0,0.0,0.0,0.5794000029563904,0.0,0.0,0.0,0
483159412,-0.034302812069654465,0.07803960144519806,-23.345064163208008,0.0,0.0,0.0,0.0,0.0,0.0,0.5794000029563904,0.0,0.0,0.0,0
483169385,-0.030174368992447853,0.07455913722515106,-23.356245040893555,0.0,0.0,0.0,0.0,0.0,0.0,0.5794000029563904,0.0,0.0,0.0,0
483179353,-0.049276918172836304,0.06282362341880798,-23.36040687561035,0.0,0.0,0.0,0.0,0.0,0.0,0.5794000029563904,0.0,0.0,0.0,0
483189533,-0.06067822873592377,0.07700474560260773,-23.365371704101562,0.0,0.0,0.0,0.0,0.0,0.0,0.5794000029563904,0.0,0.0,0.0,0
483200056,-0.06906547397375107,0.10570116341114044,-23.378847122192383,0.0,0.0,0.0,0.0,0.0,0.0,0.5794000029563904,0.0,0.0,0.0,0
483209327,-0.053936105221509933,0.0764681026339531,-23.36362648010254,0.0,0.0,0.0,0.0,0.0,0.0,0.5794000029563904,0.0,0.0,0.0,0
483219337,-0.019729500636458397,0.06996656954288483,-23.34978485107422,0.0,0.0,0.0,0.0,0.0,0.0,0.5794000029563904,0.0,0.0,0.0,0
483229306,-0.019482851028442383,0.0496174618601799,-23.343271255493164,0.0,0.0,0.0,0.0,0.0,0.0,0.5794000029563904,0.0,0.0,0.0,0
483239665,-0.02962443418800831,0.08079172670841217,-23.368608474731445,0.0,0.0,0.0,0.0,0.0,0.0,0.5794000029563904,0.0,0.0,0.0,0
483249638,-0.043259114027023315,0.11744654923677444,-23.370357513427734,0.0,0.0,0.0,0.0,0.0,0.0,0.5794000029563904,0.0,0.0,0.0,0
483259337,-0.06251944601535797,0.09057693928480148,-23.360755920410156,0.0,0.0,0.0,0.0,0.0,0.0,0.5794000029563904,0.0,0.0,0.0,0
483269321,-0.05200902745127678,0.05840042605996132,-23.36465835571289,0.0,0.0,0.0,0.0,0.0,0.0,0.5794000029563904,0.0,0.0,0.0,0
483279331,-0.04557717591524124,0.04838722571730614,-23.3367977142334,0.0,0.0,0.0,0.0,0.0,0.0,0.5794000029563904,0.0,0.0,0.0,0
483289554,-0.03580925986170769,0.0899823009967804,-23.356422424316406,0.0,0.0,0.0,0.0,0.0,0.0,0.5794000029563904,0.0,0.0,0.0,0
483299670,-0.03451966121792793,0.11540821939706802,-23.359146118164062,0.0,0.0,0.0,0.0,0.0,0.0,0.5794000029563904,0.0,0.0,0.0,0
483309294,-0.034468743950128555,0.08818331360816956,-23.369524002075195,0.0,0.0,0.0,0.0,0.0,0.0,0.5794000029563904,0.0,0.0,0.0,0
483319392,-0.03825146704912186,0.030414098873734474,-23.353755950927734,0.0,0.0,0.0,0.0,0.0,0.0,0.5794000029563904,0.0,0.0,0.0,0
483329391,-0.03628876805305481,0.056145600974559784,-23.34963607788086,0.0,0.0,0.0,0.0,0.0,0.0,0.5794000029563904,0.0,0.0,0.0,0
483340100,-0.04810994863510132,0.08935362845659256,-23.339088439941406,0.0,0.0,0.0,0.0,0.0,0.0,0.5794000029563904,0.0,0.0,0.0,0
483349897,-0.050371501594781876,0.1256580650806427,-23.377613067626953,0.0,0.0,0.0,0.0,0.0,0.0,0.5794000029563904,0.0,0.0,0.0,0
483359330,-0.054767951369285583,0.08386292308568954,-23.37567138671875,0.0,0.0,0.0,0.0,0.0,0.0,0.5794000029563904,0.0,0.0,0.0,0
483369312,-0.05472584813833237,0.02404087409377098,-23.347408294677734,0.0,0.0,0.0,0.0,0.0,0.0,0.5794000029563904,0.0,0.0,0.0,0
483379316,-0.037170443683862686,0.07093679159879684,-23.360265731811523,0.0,0.0,0.0,0.0,0.0,0.0,0.5794000029563904,0.0,0.0,0.0,0
483389566,-0.025644950568675995,0.1066780611872673,-23.34722328186035,0.0,0.0,0.0,0.0,0.0,0.0,0.5794000029563904,0.0,0.0,0.0,0
483400057,-0.023883648216724396,0.11670585721731186,-23.351058959960938,0.0,0.0,0.0,0.0,0.0,0.0,0.5794000029563904,0.0,0.0,0.0,0
483409399,-0.03791312873363495,0.06954461336135864,-23.369680404663086,0.0,0.0,0.0,0.0,0.0,0.0,0.5794000029563904,0.0,0.0,0.0,0
483419391,-0.05641971156001091,0.020488621667027473,-23.35280990600586,0.0,0.0,0.0,0.0,0.0,0.0,0.5794000029563904,0.0,0.0,0.0,0
483429387,-0.0625990480184555,0.07496896386146545,-23.3701229095459,0.0,0.0,0.0,0.0,0.0,0.0,0.5794000029563904,0.0,0.0,0.0,0
483439644,-0.04364975169301033,0.12500904500484467,-23.377954483032227,0.0,0.0,0.0,0.0,0.0,0.0,0.5794000029563904,0.0,0.0,0.0,0
483449578,-0.02843708172440529,0.09962692111730576,-23.351837158203125,0.0,0.0,0.0,0.0,0.0,0.0,0.5794000029563904,0.0,0.0,0.0,0
483459411,-0.029465625062584877,0.07410696893930435,-23.370010375976562,0.0,0.0,0.0,0.0,0.0,0.0,0.5794000029563904,0.0,0.0,0.0,0
483469283,-0.051372628659009933,0.020310385152697563,-23.346637725830078,0.0,0.0,0.0,0.0,0.0,0.0,0.5794000029563904,0.0,0.0,0.0,0
483479319,-0.05440717563033104,0.08453702926635742,-23.3563175201416,0.0,0.0,0.0,0.0,0.0,0.0,0.5794000029563904,0.0,0.0,0.0,0
483489546,-0.03915507718920708,0.11653375625610352,-23.381084442138672,0.0,0.0,0.0,0.0,0.0,0.0,0.5794000029563904,0.0,0.0,0.0,0
483499607,-0.034201838076114655,0.08972878009080887,-23.354150772094727,0.0,0.0,0.0,0.0,0.0,0.0,0.5794000029563904,0.0,0.0,0.0,0
483509312,-0.0422675758600235,0.06720887124538422,-23.352848052978516,0.0,0.0,0.0,0.0,0.0,0.0,0.5794000029563904,0.0,0.0,0.0,0
483519324,-0.059201449155807495,0.03345661610364914,-23.33477020263672,0.0,0.0,0.0,0.0,0.0,0.0,0.5794000029563904,0.0,0.0,0.0,0
483529334,-0.04955855384469032,0.08693651854991913,-23.346981048583984,0.0,0.0,0.0,0.0,0.0,0.0,0.5794000029563904,0.0,0.0,0.0,0
483540048,-0.04021422937512398,0.10598663240671158,-23.361082077026367,0.0,0.0,0.0,0.0,0.0,0.0,0.5794000029563904,0.0,0.0,0.0,0
483549952,-0.02041546255350113,0.07884499430656433,-23.35081672668457,0.0,0.0,0.0,0.0,0.0,0.0,0.5794000029563904,0.0,0.0,0.0,0
483559351,-0.024704905226826668,0.051741719245910645,-23.326034545898438,0.0,0.0,0.0,0.0,0.0,0.0,0.5794000029563904,0.0,0.0,0.0,0
483569315,-0.04975035414099693,0.058437544852495193,-23.348201751708984,0.0,0.0,0.0,0.0,0.0,0.0,0.5794000029563904,0.0,0.0,0.0,0
483579370,-0.05370797961950302,0.0871986448764801,-23.350975036621094,0.0,0.0,0.0,0.0,0.0,0.0,0.5794000029563904,0.0,0.0,0.0,0
483589539,-0.04045522212982178,0.11362148821353912,-23.363649368286133,0.0,0.0,0.0,0.0,0.0,0.0,0.5794000029563904,0.0,0.0,0.0,0
483600073,-0.03505405783653259,0.07295957952737808,-23.349605560302734,0.0,0.0,0.0,0.0,0.0,0.0,0.5794000029563904,0.0,0.0,0.0,0
483609304,-0.03802063688635826,0.053789906203746796,-23.340938568115234,0.0,0.0,0.0,0.0,0.0,0.0,0.5794000029563904,0.0,0.0,0.0,0
483619403,-0.0401102751493454,0.07420843094587326,-23.32709503173828,0.0,0.0,0.0,0.0,0.0,0.0,0.5794000029563904,0.0,0.0,0.0,0
483629324,-0.05136672407388687,0.07733969390392303,-23.34964942932129,0.0,0.0,0.0,0.0,0.0,0.0,0.5794000029563904,0.0,0.0,0.0,0
483639631,-0.03797729313373566,0.1046803891658783,-23.363468170166016,0.0,0.0,0.0,0.0,0.0,0.0,0.5794000029563904,0.0,0.0,0.0,0
483649546,-0.030061842873692513,0.06922736018896103,-23.343557357788086,0.0,0.0,0.0,0.0,0.0,0.0,0.5794000029563904,0.0,0.0,0.0,0
483659330,-0.04674283787608147,0.05863797292113304,-23.35909652709961,0.0,0.0,0.0,0.0,0.0,0.0,0.5794000029563904,0.0,0.0,0.0,0
483669323,-0.05379152297973633,0.08379790931940079,-23.36614418029785,0.0,0.0,0.0,0.0,0.0,0.0,0.5794000029563904,0.0,0.0,0.0,0
483679314,-0.047932639718055725,0.08449749648571014,-23.357574462890625,0.0,0.0,0.0,0.0,0.0,0.0,0.5794000029563904,0.0,0.0,0.0,0
483689606,-0.037209652364254,0.09349047392606735,-23.364416122436523,0.0,0.0,0.0,0.0,0.0,0.0,0.5794000029563904,0.0,0.0,0.0,0
483699634,-0.024900391697883606,0.07809020578861237,-23.34884262084961,0.0,0.0,0.0,0.0,0.0,0.0,0.5794000029563904,0.0,0.0,0.0,0
483709353,-0.04257830232381821,0.04367827624082565,-23.345670700073242,0.0,0.0,0.0,0.0,0.0,0.0,0.5794000029563904,0.0,0.0,0.0,0
483719394,-0.050067197531461716,0.08744334429502487,-23.374439239501953,0.0,0.0,0.0,0.0,0.0,0.0,0.5794000029563904,0.0,0.0,0.0,0
483729393,-0.04231376200914383,0.07754077762365341,-23.35121726989746,0.0,0.0,0.0,0.0,0.0,0.0,0.5794000029563904,0.0,0.0,0.0,0
483740046,-0.03088911809027195,0.087527334690094,-23.35177230834961,0.0,0.0,0.0,0.0,0.0,0.0,0.5794000029563904,0.0,0.0,0.0,0
483749944,-0.031904757022857666,0.08099354803562164,-23.3587589263916,0.0,0.0,0.0,0.0,0.0,0.0,0.5794000029563904,0.0,0.0,0.0,0
483759359,-0.04900822788476944,0.04096634313464165,-23.328208923339844,0.0,0.0,0.0,0.0,0.0,0.0,0.5794000029563904,0.0,0.0,0.0,0
483769356,-0.05437394231557846,0.09719374030828476,-23.367353439331055,0.0,0.0,0.0,0.0,0.0,0.0,0.5794000029563904,0.0,0.0,0.0,0
483779393,-0.03978445753455162,0.08542599529027939,-23.354625701904297,0.0,0.0,0.0,0.0,0.0,0.0,0.5794000029563904,0.0,0.0,0.0,0
483789528,-0.02539297565817833,0.09043700993061066,-23.34463882446289,0.0,0.0,0.0,0.0,0.0,0.0,0.5794000029563904,0.0,0.0,0.0,0
483800103,-0.033327095210552216,0.0732123851776123,-23.345989227294922,0.0,0.0,0.0,0.0,0.0,0.0,0.5794000029563904,0.0,0.0,0.0,0
483809300,-0.0497976690530777,0.04087339714169502,-23.332582473754883,0.0,0.0,0.0,0.0,0.0,0.0,0.5794000029563904,0.0,0.0,0.0,0
483819354,-0.06010584905743599,0.08955328166484833,-23.348594665527344,0.0,0.0,0.0,0.0,0.0,0.0,0.5794000029563904,0.0,0.0,0.0,0
483829306,-0.054595042020082474,0.08799164742231369,-23.371387481689453,0.0,0.0,0.0,0.0,0.0,0.0,0.5794000029563904,0.0,0.0,0.0,0
483839601,-0.03690577298402786,0.07897457480430603,-23.347490310668945,0.0,0.0,0.0,0.0,0.0,0.0,0.5794000029563904,0.0,0.0,0.0,0
483849576,-0.032284852117300034,0.0625741258263588,-23.342212677001953,0.0,0.0,0.0,0.0,0.0,0.0,0.5794000029563904,0.0,0.0,0.0,0
483859410,-0.03531096875667572,0.04765855893492699,-23.352109909057617,0.0,0.0,0.0,0.0,0.0,0.0,0.5794000029563904,0.0,0.0,0.0,0
483869398,-0.04722999036312103,0.09014895558357239,-23.35616111755371,0.0,0.0,0.0,0.0,0.0,0.0,0.5794000029563904,0.0,0.0,0.0,0
483879333,-0.04376451298594475,0.09481345862150192,-23.358781814575195,0.0,0.0,0.0,0.0,0.0,0.0,0.5794000029563904,0.0,0.0,0.0,0
483889551,-0.03506341949105263,0.06867708265781403,-23.34804344177246,0.0,0.0,0.0,0.0,0.0,0.0,0.5794000029563904,0.0,0.0,0.0,0
483899617,-0.04284289479255676,0.06571660190820694,-23.332426071166992,0.0,0.0,0.0,0.0,0.0,0.0,0.5794000029563904,0.0,0.0,0.0,0
483909352,-0.049924336373806,0.053082991391420364,-23.351980209350586,0.0,0.0,0.0,0.0,0.0,0.0,0.5794000029563904,0.0,0.0,0.0,0
483919347,-0.05432985723018646,0.1034136638045311,-23.36621856689453,0.0,0.0,0.0,0.0,0.0,0.0,0.5794000029563904,0.0,0.0,0.0,0
483929311,-0.04945208504796028,0.10145280510187149,-23.353559494018555,0.0,0.0,0.0,0.0,0.0,0.0,0.5794000029563904,0.0,0.0,0.0,0
483940030,-0.03407962992787361,0.06991684436798096,-23.342811584472656,0.0,0.0,0.0,0.0,0.0,0.0,0.5794000029563904,0.0,0.0,0.0,0
483949907,-0.03140859678387642,0.05324746295809746,-23.336429595947266,0.0,0.0,0.0,0.0,0.0,0.0,0.5794000029563904,0.0,0.0,0.0,0
483959397,-0.041469722986221313,0.06996755301952362,-23.347549438476562,0.0,0.0,0.0,0.0,0.0,0.0,0.5794000029563904,0.0,0.0,0.0,0
483969408,-0.05093720927834511,0.10410147905349731,-23.369535446166992,0.0,0.0,0.0,0.0,0.0,0.0,0.5794000029563904,0.0,0.0,0.0,0
483979342,-0.0522015281021595,0.09345885366201401,-23.360549926757812,0.0,0.0,0.0,0.0,0.0,0.0,0.5794000029563904,0.0,0.0,0.0,0
483989545,-0.04208122938871384,0.04480854421854019,-23.34016227722168,0.0,0.0,0.0,0.0,0.0,0.0,0.5794000029563904,0.0,0.0,0.0,0
484000098,-0.04123469069600105,0.04806938394904137,-23.329965591430664,0.0,0.0,0.0,0.0,0.0,0.0,0.5794000029563904,0.0,0.0,0.0,0
484009383,-0.03977665677666664,0.08483284711837769,-23.34547996520996,0.0,0.0,0.0,0.0,0.0,0.0,0.5794000029563904,0.0,0.0,0.0,0
484019344,-0.03335900232195854,0.10419122129678726,-23.348825454711914,0.0,0.0,0.0,0.0,0.0,0.0,0.5794000029563904,0.0,0.0,0.0,0
484029304,-0.034386664628982544,0.09993433952331543,-23.363113403320312,0.0,0.0,0.0,0.0,0.0,0.0,0.5794000029563904,0.0,0.0,0.0,0
484039674,-0.03649907559156418,0.033927325159311295,-23.344335556030273,0.0,0.0,0.0,0.0,0.0,0.0,0.5794000029563904,0.0,0.0,0.0,0
484049658,-0.0481451041996479,0.05893969163298607,-23.336135864257812,0.0,0.0,0.0,0.0,0.0,0.0,0.5794000029563904,0.0,0.0,0.0,0
484059414,-0.047944147139787674,0.109137624502182,-23.35820770263672,0.0,0.0,0.0,0.0,0.0,0.0,0.5794000029563904,0.0,0.0,0.0,0
484069399,-0.03840969130396843,0.1111135259270668,-23.354000091552734,0.0,0.0,0.0,0.0,0.0,0.0,0.5794000029563904,0.0,0.0,0.0,0
484079400,-0.04517658054828644,0.0897514820098877,-23.360273361206055,0.0,0.0,0.0,0.0,0.0,0.0,0.5794000029563904,0.0,0.0,0.0,0
484089603,-0.04152335599064827,0.03986160084605217,-23.345905303955078,0.0,0.0,0.0,0.0,0.0,0.0,0.5794000029563904,0.0,0.0,0.0,0
484099608,-0.04321957752108574,0.05959330499172211,-23.332178115844727,0.0,0.0,0.0,0.0,0.0,0.0,0.5794000029563904,0.0,0.0,0.0,0
484109299,-0.0428188294172287,0.1075645238161087,-23.35187339782715,0.0,0.0,0.0,0.0,0.0,0.0,0.5794000029563904,0.0,0.0,0.0,0
484119327,-0.03587714210152626,0.09831899404525757,-23.342042922973633,0.0,0.0,0.0,0.0,0.0,0.0,0.5794000029563904,0.0,0.0,0.0,0
484129374,-0.03410952910780907,0.07985780388116837,-23.34177017211914,0.0,0.0,0.0,0.0,0.0,0.0,0.5794000029563904,0.0,0.0,0.0,0
484140076,-0.049470726400613785,0.029104989022016525,-23.340229034423828,0.0,0.0,0.0,0.0,0.0,0.0,0.5794000029563904,0.0,0.0,0.0,0
484149916,-0.05316467955708504,0.04450148716568947,-23.346330642700195,0.0,0.0,0.0,0.0,0.0,0.0,0.5794000029563904,0.0,0.0,0.0,0
484159319,-0.04840979352593422,0.1105702668428421,-23.347864151000977,0.0,0.0,0.0,0.0,0.0,0.0,0.5794000029563904,0.0,0.0,0.0,0
484169284,-0.03538772463798523,0.09443597495555878,-23.350828170776367,0.0,0.0,0.0,0.0,0.0,0.0,0.5794000029563904,0.0,0.0,0.0,0
484179412,-0.027595646679401398,0.09250720590353012,-23.332042694091797,0.0,0.0,0.0,0.0,0.0,0.0,0.5794000029563904,0.0,0.0,0.0,0
484189547,-0.0471956729888916,0.03630536049604416,-23.33201026916504,0.0,0.0,0.0,0.0,0.0,0.0,0.5794000029563904,0.0,0.0,0.0,0
484199987,-0.05407261848449707,0.06166074424982071,-23.352256774902344,0.0,0.0,0.0,0.0,0.0,0.0,0.5794000029563904,0.0,0.0,0.0,0
484209305,-0.05266613885760307,0.10194320976734161,-23.354446411132812,0.0,0.0,0.0,0.0,0.0,0.0,0.5794000029563904,0.0,0.0,0.0,0
484219324,-0.03766387701034546,0.09327997267246246,-23.364852905273438,0.0,0.0,0.0,0.0,0.0,0.0,0.5794000029563904,0.0,0.0,0.0,0
484229318,-0.03496808558702469,0.07828386127948761,-23.35281753540039,0.0,0.0,0.0,0.0,0.0,0.0,0.5794000029563904,0.0,0.0,0.0,0
484239661,-0.0489695742726326,0.04024282842874527,-23.336870193481445,0.0,0.0,0.0,0.0,0.0,0.0,0.5794000029563904,0.0,0.0,0.0,0
484249573,-0.04913577809929848,0.06722967326641083,-23.335153579711914,0.0,0.0,0.0,0.0,0.0,0.0,0.5794000029563904,0.0,0.0,0.0,0
484259417,-0.044510290026664734,0.11370640248060226,-23.354036331176758,0.0,0.0,0.0,0.0,0.0,0.0,0.5794000029563904,0.0,0.0,0.0,0
484269370,-0.03912268951535225,0.09883839637041092,-23.339149475097656,0.0,0.0,0.0,0.0,0.0,0.0,0.5794000029563904,0.0,0.0,0.0,0
484279314,-0.03955955430865288,0.06980057060718536,-23.351531982421875,0.0,0.0,0.0,0.0,0.0,0.0,0.5794000029563904,0.0,0.0,0.0,0
484289596,-0.048085492104291916,0.04498375207185745,-23.339452743530273,0.0,0.0,0.0,0.0,0.0,0.0,0.5794000029563904,0.0,0.0,0.0,0
484299617,-0.05310232937335968,0.06655633449554443,-23.336511611938477,0.0,0.0,0.0,0.0,0.0,0.0,0.5794000029563904,0.0,0.0,0.0,0
484309299,-0.039502646774053574,0.11649327725172043,-23.357378005981445,0.0,0.0,0.0,0.0,0.0,0.0,0.5794000029563904,0.0,0.0,0.0,0
484319412,-0.03132866695523262,0.08501109480857849,-23.344697952270508,0.0,0.0,0.0,0.0,0.0,0.0,0.5794000029563904,0.0,0.0,0.0,0
484329329,-0.03821714594960213,0.05112379789352417,-23.333675384521484,0.0,0.0,0.0,0.0,0.0,0.0,0.5794000029563904,0.0,0.0,0.0,0
484340067,-0.0530698262155056,0.049990639090538025,-23.347354888916016,0.0,0.0,0.0,0.0,0.0,0.0,0.5794000029563904,0.0,0.0,0.0,0
484349906,-0.054030243307352066,0.07931845635175705,-23.33045768737793,0.0,0.0,0.0,0.0,0.0,0.0,0.5794000029563904,0.0,0.0,0.0,0
484359325,-0.03774935007095337,0.1180097833275795,-23.35441780090332,0.0,0.0,0.0,0.0,0.0,0.0,0.5794000029563904,0.0,0.0,0.0,0
484369385,-0.028360532596707344,0.07556584477424622,-23.352476119995117,0.0,0.0,0.0,0.0,0.0,0.0,0.5794000029563904,0.0,0.0,0.0,0
484379311,-0.04210331663489342,0.035501331090927124,-23.33038330078125,0.0,0.0,0.0,0.0,0.0,0.0,0.5794000029563904,0.0,0.0,0.0,0
484389610,-0.057191263884305954,0.06271737068891525,-23.33765983581543,0.0,0.0,0.0,0.0,0.0,0.0,0.5794000029563904,0.0,0.0,0.0,0
484400067,-0.05634229630231857,0.10056701302528381,-23.348804473876953,0.0,0.0,0.0,0.0,0.0,0.0,0.5794000029563904,0.0,0.0,0.0,0
484409378,-0.03537609428167343,0.11856827884912491,-23.346363067626953,0.0,0.0,0.0,0.0,0.0,0.0,0.5794000029563904,0.0,0.0,0.0,0
484419348,-0.02867533080279827,0.07526068389415741,-23.345176696777344,0.0,0.0,0.0,0.0,0.0,0.0,0.5794000029563904,0.0,0.0,0.0,0
484429297,-0.04237520694732666,0.020508496090769768,-23.325958251953125,0.0,0.0,0.0,0.0,0.0,0.0,0.5794000029563904,0.0,0.0,0.0,0
484439630,-0.05494414269924164,0.06631746888160706,-23.350383758544922,0.0,0.0,0.0,0.0,0.0,0.0,0.5794000029563904,0.0,0.0,0.0,0
484449556,-0.04946071654558182,0.09941386431455612,-23.354089736938477,0.0,0.0,0.0,0.0,0.0,0.0,0.5794000029563904,0.0,0.0,0.0,0
484459329,-0.033235374838113785,0.11046291887760162,-23.3530216217041,0.0,0.0,0.0,0.0,0.0,0.0,0.5794000029563904,0.0,0.0,0.0,0
484469372,-0.027936572209000587,0.07199779152870178,-23.34922981262207,0.0,0.0,0.0,0.0,0.0,0.0,0.5794000029563904,0.0,0.0,0.0,0
484479336,-0.045088741928339005,0.03711764141917229,-23.327939987182617,0.0,0.0,0.0,0.0,0.0,0.0,0.5794000029563904,0.0,0.0,0.0,0
484489551,-0.057776447385549545,0.09226763993501663,-23.341445922851562,0.0,0.0,0.0,0.0,0.0,0.0,0.5794000029563904,0.0,0.0,0.0,0
484499693,-0.05428686738014221,0.09476073086261749,-23.343538284301758,0.0,0.0,0.0,0.0,0.0,0.0,0.5794000029563904,0.0,0.0,0.0,0
484509426,-0.03165971860289574,0.09377153217792511,-23.353384017944336,0.0,0.0,0.0,0.0,0.0,0.0,0.5794000029563904,0.0,0.0,0.0,0
484519453,-0.02138161100447178,0.05726296082139015,-23.323932647705078,0.0,0.0,0.0,0.0,0.0,0.0,0.5794000029563904,0.0,0.0,0.0,0
484529344,-0.04358929768204689,0.04250368848443031,-23.234163284301758,0.0,0.0,0.0,0.0,0.0,0.0,0.5794000029563904,0.0,0.0,0.0,0
484540072,-0.05796433985233307,0.10056586563587189,-23.105894088745117,0.0,0.0,0.0,0.0,0.0,0.0,0.5794000029563904,0.0,0.0,0.0,0
484549942,-0.05466698110103607,0.08958469331264496,-22.951692581176758,0.0,0.0,0.0,0.0,0.0,0.0,0.5794000029563904,0.0,0.0,0.0,0
484559465,-0.035739436745643616,0.08253908902406693,-22.794267654418945,0.0,0.0,0.0,0.0,0.0,0.0,0.5794000029563904,0.0,0.0,0.0,0
484569350,-0.02370896004140377,0.05180073156952858,-22.60542106628418,0.0,0.0,0.0,0.0,0.0,0.0,0.5794000029563904,0.0,0.0,0.0,0
484579359,-0.04154323786497116,0.05508381128311157,-22.422861099243164,0.0,0.0,0.0,0.0,0.0,0.0,0.5794000029563904,0.0,0.0,0.0,0
484589727,-0.061661045998334885,0.10801790654659271,-22.21765899658203,0.0,0.0,0.0,0.0,0.0,0.0,0.5794000029563904,0.0,0.0,0.0,0
484600162,-0.04554940387606621,0.09278271347284317,-21.980785369873047,0.0,0.0,0.0,0.0,0.0,0.0,0.5794000029563904,0.0,0.0,0.0,0
484609388,-0.024758264422416687,0.06272314488887787,-21.74610137939453,0.0,0.0,0.0,0.0,0.0,0.0,0.5794000029563904,0.0,0.0,0.0,0
484619458,-0.04333224147558212,0.038299497216939926,-21.521024703979492,0.0,0.0,0.0,0.0,0.0,0.0,0.5794000029563904,0.0,0.0,0.0,0
484629364,-0.053824834525585175,0.07881277799606323,-21.273025512695312,0.0,0.0,0.0,0.0,0.0,0.0,0.5794000029563904,0.0,0.0,0.0,0
484639661,-0.02413235232234001,0.12800940871238708,-21.011878967285156,0.0,0.0,0.0,0.0,0.0,0.0,0.5794000029563904,0.0,0.0,0.0,0
484649646,-0.030785586684942245,0.06043381989002228,-20.743227005004883,0.0,0.0,0.0,0.0,0.0,0.0,0.5794000029563904,0.0,0.0,0.0,0
484659491,-0.0652068555355072,0.03358284384012222,-20.49149513244629,0.0,0.0,0.0,0.0,0.0,0.0,0.5794000029563904,0.0,0.0,0.0,0
484669398,-0.03818586841225624,0.11609017848968506,-20.200016021728516,0.0,0.0,0.0,0.0,0.0,0.0,0.5794000029563904,0.0,0.0,0.0,0
484679476,-0.07102453708648682,0.0449669249355793,-19.904033660888672,0.0,0.0,0.0,0.0,0.0,0.0,0.5794000029563904,0.0,0.0,0.0,0
484689698,-0.01887011155486107,0.14348164200782776,-19.67827606201172,0.0,0.0,0.0,0.0,0.0,0.0,0.5794000029563904,0.0,0.0,0.0,0
484699730,-0.05915866792201996,0.011721284128725529,-19.337419509887695,0.0,0.0,0.0,0.0,0.0,0.0,0.5794000029563904,0.0,0.0,0.0,0
484709413,0.005672085098922253,0.09615768492221832,-19.078510284423828,0.0,0.0,0.0,0.0,0.0,0.0,0.5794000029563904,0.0,0.0,0.0,0
484719436,-0.05121617019176483,0.02838352881371975,-18.779699325561523,0.0,0.0,0.0,0.0,0.0,0.0,0.5794000029563904,0.0,0.0,0.0,0
484729341,0.0014721557963639498,0.12852513790130615,-18.48296546936035,0.0,0.0,0.0,0.0,0.0,0.0,0.5794000029563904,0.0,0.0,0.0,0
484740094,-0.027846457436680794,0.0875953957438469,-18.22626304626465,0.0,0.0,0.0,0.0,0.0,0.0,0.5794000029563904,0.0,0.0,0.0,0
484749946,-0.07799838483333588,0.05430510640144348,-17.91284942626953,0.0,0.0,0.0,0.0,0.0,0.0,0.5794000029563904,0.0,0.0,0.0,0
484759438,-0.03344867378473282,0.07568908482789993,-17.627309799194336,0.0,0.0,0.0,0.0,0.0,0.0,0.5794000029563904,0.0,0.0,0.0,0
484769389,-0.0335012748837471,0.049954287707805634,-17.371307373046875,0.0,0.0,0.0,0.0,0.0,0.0,0.5794000029563904,0.0,0.0,0.0,0
484779425,-0.06646523624658585,0.11545147746801376,-17.021926879882812,0.0,0.0,0.0,0.0,0.0,0.0,0.5794000029563904,0.0,0.0,0.0,0
