TimeUS,PLX,PLY,PLZ,AX,AY,BX,BY,CX,CY,F,P,X,Y,SW
185477561,0.21870636940002441,0.15752291679382324,-23.47934341430664,-0.0011860271915793419,8.332396828336641e-05,0.0004019943007733673,-0.000540455337613821,0.2162768840789795,0.15853822231292725,0.6000000238418579,0.0,-16.12964630126953,55.673851013183594,0
185487613,0.21694280207157135,0.15872716903686523,-23.48426628112793,-0.0010297645349055529,5.94927478232421e-05,0.00037512584822252393,-0.0005363576929084957,0.2163487672805786,0.15852725505828857,0.6000000238418579,0.0,-16.152198791503906,55.631351470947266,0
185497496,0.21631017327308655,0.15866217017173767,-23.488323211669922,-0.0009579472243785858,3.4638691431609914e-05,0.0003616614849306643,-0.0005316980532370508,0.21638230979442596,0.15851564705371857,0.6000000238418579,0.0,-16.163850784301758,55.5859375,0
185508203,0.21757493913173676,0.15482217073440552,-23.488187789916992,-0.0008126651518978179,-0.0002566821640357375,0.0003314673085696995,-0.0004711524525191635,0.21645158529281616,0.15837673842906952,0.6000000238418579,0.0,-16.190135955810547,55.02204132080078,0
185517874,0.21943295001983643,0.15661676228046417,-23.481124877929688,-0.0005757384351454675,-0.00038355254218913615,0.00027757405769079924,-0.00044229350169189274,0.21656687557697296,0.1583150029182434,0.6000000238418579,0.0,-16.252098083496094,54.80649185180664,0
185527610,0.21382296085357666,0.1609375774860382,-23.478227615356445,-0.0007017585448920727,-0.00024207225942518562,0.00030946958577260375,-0.00047810195246711373,0.21650388836860657,0.15838570892810822,0.6000000238418579,0.0,-16.21819496154785,55.05219268798828,0
185537580,0.21745549142360687,0.15894430875778198,-23.479150772094727,-0.0006198505288921297,-0.0002277969615533948,0.0002862486580852419,-0.0004821490147151053,0.21654614806175232,0.15839307010173798,0.6000000238418579,0.0,-16.235483169555664,55.079505920410156,0
185547641,0.22420476377010345,0.1574440449476242,-23.486236572265625,-0.00023599441919941455,-0.00028669118182733655,0.00016352369857486337,-0.00046331959310919046,0.2167517989873886,0.1583615094423294,0.6000000238418579,0.0,-16.408811569213867,54.96677017211914,0
185557990,0.21843239665031433,0.16449369490146637,-23.495439529418945,-0.00015470619837287813,-4.076014010934159e-05,0.00013399632007349283,-0.0005526523455046117,0.2167973518371582,0.1584993153810501,0.6000000238418579,0.0,-16.516643524169922,55.447261810302734,0
185568447,0.214698925614357,0.16680875420570374,-23.48545265197754,-0.00022609600273426622,0.00025131835718639195,0.000164107492309995,-0.0006758467643521726,0.21675492823123932,0.15867288410663605,0.6000000238418579,0.0,-16.430709838867188,55.876895904541016,0
185577575,0.21384519338607788,0.1633632332086563,-23.47854232788086,-0.00031540176132693887,0.00038403409416787326,0.00020708491501864046,-0.0007397147710435092,0.21669870615005493,0.15875643491744995,0.6000000238418579,0.0,-16.383840560913086,55.9997444152832,0
185587527,0.21490801870822906,0.15766198933124542,-23.485319137573242,-0.00035905942786484957,0.00032759414170868695,0.00023170524218585342,-0.0007078860071487725,0.2166690230369568,0.1587180644273758,0.6000000238418579,0.0,-16.37592887878418,55.95431137084961,0
185597508,0.21567125618457794,0.15407346189022064,-23.488475799560547,-0.00037596956826746464,0.0001898057817015797,0.00024305697297677398,-0.0006153890280984342,0.2166564017534256,0.15861524641513824,0.6000000238418579,0.0,-16.376752853393555,55.8200569152832,0
185607810,0.21979273855686188,0.15306703746318817,-23.494518280029297,-0.00030108229839242995,5.6335928093176335e-05,0.00018192586139775813,-0.0005064364522695541,0.2167191207408905,0.158503457903862,0.6000000238418579,0.0,-16.346385955810547,55.63166809082031,0
185617919,0.22054222226142883,0.1598573923110962,-23.49625015258789,-0.00022891037224326283,7.138025102904066e-05,0.00010804666817421094,-0.0005218366859480739,0.2167891412973404,0.15851806104183197,0.6000000238418579,0.0,-16.24385643005371,55.65682601928711,0
185627513,0.21973325312137604,0.1620190441608429,-23.48351287841797,-0.0001857761963037774,0.00011282738705631346,5.015985152567737e-05,-0.000577459461055696,0.21683987975120544,0.15856681764125824,0.6000000238418579,0.0,-16.06656837463379,55.713836669921875,0
185637591,0.21784184873104095,0.16374246776103973,-23.47524070739746,-0.00017479105736128986,0.00015937827993184328,2.932740426331293e-05,-0.0006657394696958363,0.21685679256916046,0.15863847732543945,0.6000000238418579,0.0,-15.96909236907959,55.755859375,0
185647615,0.21423228085041046,0.16176137328147888,-23.47734260559082,-0.00019114183669444174,0.0001748990616761148,8.023659756872803e-05,-0.0007140644011087716,0.21681849658489227,0.15867482125759125,0.6000000238418579,0.0,-16.200292587280273,55.761085510253906,0
185657858,0.21727272868156433,0.1596548706293106,-23.480976104736328,-0.000189722835784778,0.00017554919759277254,6.902657332830131e-05,-0.0007192004122771323,0.21682631969451904,0.15867841243743896,0.6000000238418579,0.0,-16.151796340942383,55.76028823852539,0
185667828,0.21755366027355194,0.1614372730255127,-23.489288330078125,-0.00019070621056016535,0.00017307346570305526,5.2236900955904275e-05,-0.0007614698261022568,0.21683719754219055,0.15870581567287445,0.6000000238418579,0.0,-16.07021141052246,55.7443733215332,0
185677608,0.22063486278057098,0.1614995151758194,-23.48725128173828,-0.00021006875613238662,0.00016287612379528582,-2.9750086468993686e-05,-0.0008046485017985106,0.21688659489154816,0.1587318331003189,0.6000000238418579,0.0,-15.66217041015625,55.720603942871094,0
185687542,0.2190971076488495,0.16169531643390656,-23.487234115600586,-0.00022925692610442638,0.00014381366781890392,-7.697421096963808e-05,-0.0008515632362104952,0.21691307425498962,0.15875813364982605,0.6000000238418579,0.0,-15.478926658630371,55.68818664550781,0
185697505,0.2143852859735489,0.15699726343154907,-23.486186981201172,-0.00019626902940217406,0.00017660984303802252,-1.921156217576936e-05,-0.0007941362564451993,0.21688291430473328,0.15872815251350403,0.6000000238418579,0.0,-15.705282211303711,55.739715576171875,0
185707876,0.21096844971179962,0.15303081274032593,-23.476917266845703,-9.892140224110335e-05,0.0002824405091814697,0.00011393863678677008,-0.000649383116979152,0.21681810915470123,0.15865769982337952,0.6000000238418579,0.0,-16.658687591552734,55.9311408996582,0
185717796,0.21062518656253815,0.15707919001579285,-23.48332405090332,2.339451566513162e-05,0.0003262952377554029,0.00025167735293507576,-0.0005999987479299307,0.21675556898117065,0.15863527357578278,0.6000000238418579,0.0,-17.466341018676758,56.01897430419922,0
185727534,0.21195033192634583,0.1625261753797531,-23.500486373901367,0.000131470340420492,0.00024665676755830646,0.0003553267742972821,-0.0006763755227439106,0.2167116403579712,0.1586676388978958,0.6000000238418579,0.0,-17.728031158447266,55.87057113647461,0
185737584,0.21676674485206604,0.1590730994939804,-23.493806838989258,0.00011972654465353116,0.0002522604481782764,0.0003455078403931111,-0.0006716903299093246,0.21671552956104279,0.15866577625274658,0.6000000238418579,0.0,-17.70722770690918,55.88014602661133,0
185747629,0.21452906727790833,0.1549883335828781,-23.484066009521484,0.00017585056775715202,0.00038369582034647465,0.0003870910732075572,-0.0005743076908402145,0.21670013666152954,0.15862973034381866,0.6000000238418579,0.0,-17.800067901611328,56.10987854003906,0
185757986,0.21767860651016235,0.1550036370754242,-23.47829818725586,0.00012803786376025528,0.0005227542715147138,0.0003553137357812375,-0.00048188643995672464,0.2167111486196518,0.15859772264957428,0.6000000238418579,0.0,-17.719520568847656,56.34693908691406,0
185768445,0.21759693324565887,0.1631360501050949,-23.47709083557129,8.031570905586705e-05,0.00036225770600140095,0.0003268663422204554,-0.0005775591707788408,0.216720312833786,0.15862855315208435,0.6000000238418579,0.0,-17.614595413208008,56.08108139038086,0
185777527,0.21837960183620453,0.16445349156856537,-23.483211517333984,-3.008830162798404e-07,0.00014341127825900912,0.00028264144202694297,-0.0006976146250963211,0.21673376858234406,0.15866506099700928,0.6000000238418579,0.0,-17.372589111328125,55.723636627197266,0
185787633,0.22300831973552704,0.15996021032333374,-23.493572235107422,-0.0002834753249771893,0.0001127623108914122,0.0001403574424330145,-0.0007130145095288754,0.21677438914775848,0.15866945683956146,0.6000000238418579,0.0,-16.262601852416992,55.677738189697266,0
185797594,0.21799637377262115,0.15439122915267944,-23.494638442993164,-0.00034007939393632114,0.000337241857778281,0.0001142103283200413,-0.0006093207048252225,0.2167814075946808,0.15864162147045135,0.6000000238418579,0.0,-16.12685775756836,56.02639389038086,0
185807902,0.21840710937976837,0.15082675218582153,-23.485567092895508,-0.000416377471992746,0.000735269975848496,8.173657261068001e-05,-0.0004399132158141583,0.2167896181344986,0.15859876573085785,0.6000000238418579,0.0,-15.996697425842285,56.55251693725586,0
185817858,0.21572846174240112,0.15931673347949982,-23.48520851135254,-0.0003557734889909625,0.0007000605692155659,0.00010553378524491563,-0.0004537388158496469,0.21678392589092255,0.15860207378864288,0.6000000238418579,0.0,-16.091222763061523,56.51661682128906,0
185827494,0.21355818212032318,0.16493789851665497,-23.484086990356445,-0.00018031004583463073,0.00036650541005656123,0.00016912563296500593,-0.0005746266106143594,0.2167694866657257,0.15862953662872314,0.6000000238418579,0.0,-16.55626106262207,56.08864974975586,0
185837513,0.217026948928833,0.16175340116024017,-23.487945556640625,-0.00019663710554596037,0.0002108755288645625,0.00016366854833904654,-0.0006266436539590359,0.21677066385746002,0.1586408168077469,0.6000000238418579,0.0,-16.49700927734375,55.84550094604492,0
185847537,0.2220594882965088,0.15616880357265472,-23.490930557250977,-0.0004950961447320879,0.00037159075145609677,7.182582339737564e-05,-0.0005771878641098738,0.2167898416519165,0.15863049030303955,0.6000000238418579,0.0,-15.946928024291992,56.09288787841797,0
185857957,0.2212430089712143,0.1595727801322937,-23.494070053100586,-0.0007373137050308287,0.00033042507129721344,3.3823641842900543e-06,-0.0005888200830668211,0.21680374443531036,0.15863285958766937,0.6000000238418579,0.0,-15.807445526123047,56.03226089477539,0
185867897,0.2184745967388153,0.16110512614250183,-23.49500846862793,-0.000807725009508431,0.00019925064407289028,-1.4812152585363947e-05,-0.0006227159756235778,0.21680738031864166,0.15863963961601257,0.6000000238418579,0.0,-15.78452205657959,55.830562591552734,0
185877599,0.21835769712924957,0.15749654173851013,-23.491539001464844,-0.0008671577670611441,0.0002869316376745701,-2.8779961212421767e-05,-0.0006021092995069921,0.2168101817369461,0.15863549709320068,0.6000000238418579,0.0,-15.769681930541992,55.96559524536133,0
185887612,0.21946518123149872,0.15396492183208466,-23.487201690673828,-0.0009894771501421928,0.0005824778927490115,-5.474089994095266e-05,-0.0005393828614614904,0.2168155312538147,0.1586225926876068,0.6000000238418579,0.0,-15.747591972351074,56.34468078613281,0
185897612,0.21744708716869354,0.1504960060119629,-23.4888973236084,-0.0009819363476708531,0.001073407125659287,-5.330961357685737e-05,-0.0004462024080567062,0.21681521832942963,0.15860238671302795,0.6000000238418579,0.0,-15.748621940612793,56.69772720336914,0
185908285,0.22077301144599915,0.15979167819023132,-23.488155364990234,-0.0011770786950364709,0.0009688889258541167,-8.559185516787693e-05,-0.00046349276090040803,0.21682292222976685,0.15860651433467865,0.6000000238418579,0.0,-15.730271339416504,56.645484924316406,0
185917861,0.21642842888832092,0.16384398937225342,-23.48957061767578,-0.00109382055234164,0.0006204884848557413,-7.347138307522982e-05,-0.000514211889822036,0.2168196737766266,0.15862007439136505,0.6000000238418579,0.0,-15.735790252685547,56.39967346191406,0
185927614,0.21592652797698975,0.16353245079517365,-23.490428924560547,-0.0009831783827394247,0.0003089832316618413,-5.982676157145761e-05,-0.0005526273744180799,0.21681533753871918,0.1586322784423828,0.6000000238418579,0.0,-15.742083549499512,56.030704498291016,0
185937565,0.21513573825359344,0.1622554361820221,-23.480113983154297,-0.000829758180771023,9.224466339219362e-05,-4.435001392266713e-05,-0.0005744915688410401,0.21680913865566254,0.1586410254240036,0.6000000238418579,0.0,-15.749460220336914,55.68009567260742,0
185947534,0.21978969871997833,0.16016162931919098,-23.485353469848633,-0.0009663471719250083,1.4338292203319725e-05,-5.500368934008293e-05,-0.0005805680993944407,0.21681495010852814,0.15864433348178864,0.6000000238418579,0.0,-15.746001243591309,55.54557800292969,0
185957967,0.2209794968366623,0.15830761194229126,-23.492204666137695,-0.0011644575279206038,5.146679177414626e-05,-6.58383869449608e-05,-0.0005785375251434743,0.2168239951133728,0.15864263474941254,0.6000000238418579,0.0,-15.746378898620605,55.60961151123047,0
185968437,0.22298350930213928,0.15618516504764557,-23.48562240600586,-0.0014676841674372554,0.0002110533823724836,-7.442726928275079e-05,-0.0005740172346122563,0.21683922410011292,0.15863461792469025,0.6000000238418579,0.0,-15.752191543579102,55.87322235107422,0
185977604,0.22477787733078003,0.14895035326480865,-23.482561111450195,-0.0018531735986471176,0.0007813867996446788,-7.675578672206029e-05,-0.0005705721559934318,0.21686041355133057,0.1586032658815384,0.6000000238418579,0.0,-15.76146411895752,56.46097183227539,0
185987533,0.22327688336372375,0.1565793752670288,-23.479032516479492,-0.002123518381267786,0.0008702633203938603,-7.143610855564475e-05,-0.0005723210051655769,0.21687699854373932,0.15859781205654144,0.6000000238418579,0.0,-15.769231796264648,56.50995635986328,0
185997542,0.22370406985282898,0.16338367760181427,-23.485301971435547,-0.0023969074245542288,0.000565737544093281,-5.871471876162104e-05,-0.0005581507575698197,0.21689584851264954,0.15861880779266357,0.6000000238418579,0.0,-15.77836799621582,56.31303787231445,0
186007884,0.21827857196331024,0.16126757860183716,-23.48969078063965,-0.0023473259061574936,0.0003996343875769526,-6.242396921152249e-05,-0.0005457244114950299,0.21689198911190033,0.15863175690174103,0.6000000238418579,0.0,-15.77627182006836,56.1529655456543,0
186017898,0.21605704724788666,0.15493084490299225,-23.49195671081543,-0.0021794699132442474,0.0005888227024115622,-7.997365173650905e-05,-0.0005655044224113226,0.21687714755535126,0.15861503779888153,0.6000000238418579,0.0,-15.766181945800781,56.32648468017578,0
186027600,0.2134719043970108,0.1537809520959854,-23.49367332458496,-0.0018865299643948674,0.0008228854858316481,-0.00011984236334683374,-0.0005973600200377405,0.21684770286083221,0.15859150886535645,0.6000000238418579,0.0,-15.739419937133789,56.46376419067383,0
186037582,0.21132102608680725,0.1587647944688797,-23.496471405029297,-0.0015051114605739713,0.0007796669960953295,-0.00018460564024280757,-0.0005900217220187187,0.21680404245853424,0.1585964560508728,0.6000000238418579,0.0,-15.680816650390625,56.443870544433594,0
186047610,0.2157752364873886,0.16143645346164703,-23.487367630004883,-0.0013776988489553332,0.0006046074558980763,-0.00021084419859107584,-0.0005539710400626063,0.2167874127626419,0.15861929953098297,0.6000000238418579,0.0,-15.650997161865234,56.3499641418457,0
186057869,0.216410830616951,0.15814204514026642,-23.48845100402832,-0.0012917015701532364,0.0006029505166225135,-0.00023190630599856377,-0.0005535652162507176,0.2167746126651764,0.15861955285072327,0.6000000238418579,0.0,-15.625216484069824,56.348960876464844,0
186067937,0.21335820853710175,0.15943151712417603,-23.485429763793945,-0.0010698700789362192,0.0005398003850132227,-0.0002956065582111478,-0.0005354312597773969,0.21673692762851715,0.15863028168678284,0.6000000238418579,0.0,-15.533283233642578,56.31034851074219,0
186077566,0.21670834720134735,0.1611706018447876,-23.48238182067871,-0.001019295770674944,0.000402578356442973,-0.00031246687285602093,-0.0004896845202893019,0.2167271226644516,0.15865691006183624,0.6000000238418579,0.0,-15.505402565002441,56.20896911621094,0
186087575,0.21677275002002716,0.16091202199459076,-23.49066925048828,-0.0009765048162080348,0.00028816680423915386,-0.0003289085580036044,-0.00044572382466867566,0.21671763062477112,0.15868227183818817,0.6000000238418579,0.0,-15.477972030639648,56.09480667114258,0
186097602,0.211906298995018,0.1549835354089737,-23.49273681640625,-0.0007362354081124067,0.0004298019630368799,-0.000434753717854619,-0.0005081179551780224,0.21665669977664948,0.1586463451385498,0.6000000238418579,0.0,-15.269447326660156,56.22297668457031,0
186108336,0.2166702151298523,0.15323327481746674,-23.487234115600586,-0.0007083741365931928,0.0006256385240703821,-0.0004489665443543345,-0.0006080197636038065,0.21664848923683167,0.15858866274356842,0.6000000238418579,0.0,-15.237957000732422,56.32056427001953,0
186117870,0.21848584711551666,0.16045662760734558,-23.48647689819336,-0.0007519079372286797,0.0005307000828906894,-0.0004239615809638053,-0.000553488964214921,0.21666300296783447,0.15862031280994415,0.6000000238418579,0.0,-15.289445877075195,56.2852668762207,0
186127609,0.21231992542743683,0.16310513019561768,-23.486034393310547,-0.000573829049244523,0.00035165759618394077,-0.0005406812415458262,-0.00043613772140815854,0.2165946364402771,0.15868903696537018,0.6000000238418579,0.0,-15.04719352722168,56.19945526123047,0
186137510,0.2112172544002533,0.16092827916145325,-23.487455368041992,-0.00037990021519362926,0.00026404036907479167,-0.0006859424756839871,-0.00037050858372822404,0.21650861203670502,0.15872789919376373,0.6000000238418579,0.0,-14.737846374511719,56.140045166015625,0
186147602,0.2163485884666443,0.15170495212078094,-23.49662208557129,-0.0003673562314361334,0.00046973099233582616,-0.0006967184017412364,-0.0005472073098644614,0.2165021449327469,0.1586219072341919,0.6000000238418579,0.0,-14.717284202575684,56.23024368286133,0
186158018,0.2223021537065506,0.1538616418838501,-23.494131088256836,-0.0005256618605926633,0.0005880654789507389,-0.000540051783900708,-0.0006643165834248066,0.21659745275974274,0.1585506647825241,0.6000000238418579,0.0,-15.003958702087402,56.2454719543457,0
186168443,0.21722780168056488,0.1606546938419342,-23.487070083618164,-0.0005323957884684205,0.0005152284284122288,-0.0005322006181813776,-0.0005793954478576779,0.21660231053829193,0.15860320627689362,0.6000000238418579,0.0,-15.017643928527832,56.24773025512695,0
186177504,0.21480132639408112,0.16334371268749237,-23.481534957885742,-0.0004824530624318868,0.0003899952571373433,-0.0005993868107907474,-0.0004109237343072891,0.21656014025211334,0.15870895981788635,0.6000000238418579,0.0,-14.909790992736816,56.28015899658203,0
186187615,0.21480242908000946,0.15998521447181702,-23.48332405090332,-0.00044113630428910255,0.00035353965358808637,-0.0006654270691797137,-0.00035265350015833974,0.21651798486709595,0.1587461531162262,0.6000000238418579,0.0,-14.817479133605957,56.30753707885742,0
186197567,0.21637819707393646,0.1524772346019745,-23.492908477783203,-0.0004356690333224833,0.00045641037286259234,-0.0006760151009075344,-0.0005518752732314169,0.2165111005306244,0.15861673653125763,0.6000000238418579,0.0,-14.80453872680664,56.211883544921875,0
186207824,0.2203132063150406,0.15206944942474365,-23.497413635253906,-0.0004901286447420716,0.0005440482636913657,-0.0005446372088044882,-0.0007632922497577965,0.21659798920154572,0.15847691893577576,0.6000000238418579,0.0,-14.96483325958252,56.1401252746582,0
186217902,0.22028984129428864,0.1583557277917862,-23.49102210998535,-0.0005315545131452382,0.0005357344052754343,-0.00041487172711640596,-0.0007372492691501975,0.21668538451194763,0.15849445760250092,0.6000000238418579,0.0,-15.140130996704102,56.14928436279297,0
186227602,0.21407945454120636,0.1634763777256012,-23.487552642822266,-0.0005060200346633792,0.00048436198267154396,-0.0005262250197120011,-0.0005132193327881396,0.21660898625850677,0.15864814817905426,0.6000000238418579,0.0,-14.99789047241211,56.27736282348633,0
186237619,0.21245689690113068,0.15734314918518066,-23.47809600830078,-0.00048106646863743663,0.00048798922216519713,-0.0006991647533141077,-0.0005383577663451433,0.2164880931377411,0.1586305797100067,0.6000000238418579,0.0,-14.83473014831543,56.25724411010742,0
186247623,0.2094525545835495,0.1562388837337494,-23.48006248474121,-0.00046262869727797806,0.0004924014210700989,-0.0009906773921102285,-0.0006081172614358366,0.21628040075302124,0.15858088433742523,0.6000000238418579,0.0,-14.668949127197266,56.20151901245117,0
186257912,0.2153797596693039,0.15836291015148163,-23.48728370666504,-0.0004630665935110301,0.0004927223781123757,-0.0010214220965281129,-0.0005855823983438313,0.21625807881355286,0.15859724581241608,0.6000000238418579,0.0,-14.657703399658203,56.220375061035156,0
186267825,0.2154989391565323,0.15946853160858154,-23.487079620361328,-0.00046508951345458627,0.0004989462322555482,-0.0010442599887028337,-0.0005153174861334264,0.21624116599559784,0.158649280667305,0.6000000238418579,0.0,-14.651065826416016,56.29014205932617,0
186277638,0.2177991420030594,0.1548752635717392,-23.483760833740234,-0.00045191391836851835,0.0004770861123688519,-0.0009621430654078722,-0.000651560549158603,0.21630318462848663,0.15854638814926147,0.6000000238418579,0.0,-14.671174049377441,56.15290832519531,0
186287510,0.21802398562431335,0.15369780361652374,-23.485008239746094,-0.0004309623036533594,0.0004346751666162163,-0.0008711065747775137,-0.0008358394261449575,0.21637330949306488,0.1584044247865677,0.6000000238418579,0.0,-14.691485404968262,56.00043869018555,0
186297493,0.22396381199359894,0.1600181758403778,-23.47561264038086,-0.0003228267887607217,0.00046905118506401777,-0.0005081610288470984,-0.0007204599678516388,0.2166585773229599,0.15849511325359344,0.6000000238418579,0.0,-14.798023223876953,56.097991943359375,0
186307893,0.22074149549007416,0.1654355525970459,-23.474740982055664,-0.00025096963508985937,0.0006017218111082911,-0.0003110230027232319,-0.00035648199263960123,0.2168167233467102,0.1587871015071869,0.6000000238418579,0.0,-14.911006927490234,56.55683898925781,0
186317907,0.21415330469608307,0.1666262149810791,-23.486282348632812,-0.00030390461324714124,0.0007746049086563289,-0.00043420359725132585,4.58199210697785e-05,0.21671584248542786,0.15911656618118286,0.6000000238418579,0.0,-14.842729568481445,57.150760650634766,0
186327630,0.20857922732830048,0.15823236107826233,-23.496784210205078,-0.0004923776723444462,0.0007648376049473882,-0.000815593870356679,2.60550259554293e-05,0.21639689803123474,0.15910004079341888,0.6000000238418579,0.0,-14.775200843811035,57.125728607177734,0
186337602,0.21083955466747284,0.15760810673236847,-23.49245262145996,-0.0006320102256722748,0.0007371288374997675,-0.0010657318634912372,-2.3582482754136436e-05,0.21618318557739258,0.1590576320886612,0.6000000238418579,0.0,-14.767339706420898,57.0596923828125,0
186347535,0.21638096868991852,0.16038380563259125,-23.48517417907715,-0.000611636380199343,0.0007902787765488029,-0.0010329801589250565,6.185816164361313e-05,0.21621178090572357,0.1591322422027588,0.6000000238418579,0.0,-14.766658782958984,57.1697883605957,0
186358001,0.2243013232946396,0.15816374123096466,-23.4799861907959,-0.0003290295135229826,0.0007713426020927727,-0.0006209632847458124,3.425085014896467e-05,0.2165796309709549,0.15910759568214417,0.6000000238418579,0.0,-14.719318389892578,57.13604736328125,0
186368485,0.22296544909477234,0.15031439065933228,-23.481307983398438,-8.489467290928587e-05,0.0004665166197810322,-0.00029825096135027707,-0.0003686867421492934,0.21687504649162292,0.15873874723911285,0.6000000238418579,0.0,-14.509369850158691,56.422874450683594,0
186377587,0.21534304320812225,0.14963649213314056,-23.485252380371094,-0.0001356249995296821,0.0001367554214084521,-0.00036050446215085685,-0.0007733518141321838,0.21681684255599976,0.15836045145988464,0.6000000238418579,0.0,-14.59189224243164,55.695899963378906,0
186387517,0.2162327915430069,0.15866553783416748,-23.491159439086914,-0.00014914250641595572,0.00018022512085735798,-0.0003758495731744915,-0.0007240048726089299,0.21680215001106262,0.15840770304203033,0.6000000238418579,0.0,-14.609819412231445,55.76484298706055,0
186397505,0.21573367714881897,0.1600729078054428,-23.488874435424805,-0.00018391302728559822,0.00028524722438305616,-0.00041251300717704,-0.0006132653215900064,0.21676616370677948,0.15851640701293945,0.6000000238418579,0.0,-14.651447296142578,55.95623779296875,0
186407917,0.21614131331443787,0.15875990688800812,-23.47602081298828,-0.00019866175716742873,0.0003277827054262161,-0.0004270071804057807,-0.000571464013773948,0.2167515605688095,0.15855850279331207,0.6000000238418579,0.0,-14.667518615722656,56.04164505004883,0
186417945,0.21231520175933838,0.15261279046535492,-23.4782772064209,-0.0003981177869718522,7.083943637553602e-05,-0.0006102033075876534,-0.0008074609795585275,0.21656212210655212,0.15831446647644043,0.6000000238418579,0.0,-14.81014633178711,55.60838317871094,0
186427638,0.21137945353984833,0.15911202132701874,-23.48516845703125,-0.0006380252307280898,0.00015109294326975942,-0.000816555111669004,-0.0007384324562735856,0.21634279191493988,0.15838783979415894,0.6000000238418579,0.0,-14.895334243774414,55.72270202636719,0
186437515,0.2164793759584427,0.16373226046562195,-23.4874267578125,-0.0005994270322844386,0.0004719340067822486,-0.0007854148861952126,-0.0004795843851752579,0.21637685596942902,0.15867096185684204,0.6000000238418579,0.0,-14.883955955505371,56.29823303222656,0
186447630,0.2152286022901535,0.15934307873249054,-23.488603591918945,-0.0006288592121563852,0.0005403193645179272,-0.0008077129605226219,-0.0004277750267647207,0.2163517326116562,0.15872934460639954,0.6000000238418579,0.0,-14.893596649169922,56.4220085144043,0
186457853,0.21882934868335724,0.1543264240026474,-23.483705520629883,-0.0004532216989900917,0.00032324291532859206,-0.0006826534518040717,-0.000582340348046273,0.21649713814258575,0.15854962170124054,0.6000000238418579,0.0,-14.818154335021973,56.02760696411133,0
186467888,0.2162247598171234,0.1513214260339737,-23.476295471191406,-0.00043492266559042037,-5.689668614650145e-05,-0.0006704034167341888,-0.0008368188282474875,0.21651186048984528,0.15824387967586517,0.6000000238418579,-10383783.0,-10383798.0,-10383728.0,0
186477588,0.2117759734392166,0.15674829483032227,-23.474857330322266,-0.0010918842162936926,-0.000303237815387547,-0.0006780488765798509,-0.0008396856137551367,0.2160840630531311,0.1580834686756134,0.6000000238418579,-10383783.0,-22.0,49.0,0
186487594,0.21236594021320343,0.15974612534046173,-23.479448318481445,-0.001437417697161436,-0.00010037740139523521,-0.000682070036418736,-0.0008373248274438083,0.215859055519104,0.15821556746959686,0.6000000238418579,-10383783.0,-22.112661361694336,49.22724914550781,0
186497580,0.21356578171253204,0.16283372044563293,-23.483539581298828,-0.001558816758915782,7.983783871168271e-05,-0.0005980610731057823,-0.000962034915573895,0.21574240922927856,0.15838873386383057,0.6000000238418579,-10383783.0,-22.18936538696289,49.42935562133789,0
186507883,0.2160717248916626,0.15809260308742523,-23.48240852355957,-0.001552141853608191,2.502594179532025e-05,-0.0006026801420375705,-0.0009241047082468867,0.21574881672859192,0.1583360731601715,0.6000000238418579,-10383783.0,-22.185338973999023,49.37363052368164,0
186517879,0.21410836279392242,0.15623144805431366,-23.48297882080078,-0.0016276106471195817,-9.926035272656009e-05,-0.0005504552973434329,-0.0008380977669730783,0.21567630767822266,0.158216655254364,0.6000000238418579,-10383783.0,-22.22958755493164,49.228668212890625,0
186527603,0.21716009080410004,0.1598023623228073,-23.48052215576172,-0.0015740442322567105,-6.793063948862255e-05,-0.0005875236238352954,-0.0008597781416028738,0.2157277762889862,0.15824675559997559,0.6000000238418579,-10383783.0,-22.198467254638672,49.26770782470703,0
186537607,0.21730715036392212,0.16400398313999176,-23.482866287231445,-0.0015215034363791347,0.00011551572970347479,-0.0006238821661099792,-0.0009867241606116295,0.21577826142311096,0.1584230214357376,0.6000000238418579,-10383783.0,-22.166574478149414,49.46309280395508,0
186547591,0.21303868293762207,0.1571892648935318,-23.477964401245117,-0.0016258135437965393,3.716646460816264e-05,-0.0005516988458111882,-0.0009325059945695102,0.21567803621292114,0.1583477407693863,0.6000000238418579,-10383783.0,-22.228565216064453,49.386390686035156,0
186558025,0.21116840839385986,0.1569795459508896,-23.48080825805664,-0.001781976199708879,-3.9779828512109816e-05,-0.0004436332965269685,-0.0008792586741037667,0.2155279815196991,0.15827380120754242,0.6000000238418579,-10383783.0,-22.31171417236328,49.30134201049805,0
186568484,0.21227814257144928,0.16197209060192108,-23.49005889892578,-0.0018861697753891349,5.270175824989565e-05,-0.0003715306520462036,-0.0009432564838789403,0.21542786061763763,0.15836265683174133,0.6000000238418579,-10383783.0,-22.361223220825195,49.402366638183594,0
186577591,0.20965194702148438,0.15833094716072083,-23.487089157104492,-0.0020617584232240915,2.2967442419030704e-05,-0.0002500222180970013,-0.0009226801339536905,0.2152591496706009,0.15833409130573273,0.6000000238418579,-10383783.0,-22.43503189086914,49.37144088745117,0
186587546,0.2109638750553131,0.1584898829460144,-23.487197875976562,-0.0021816538646817207,7.723193675701623e-07,-0.00016705378948245198,-0.0009073209948837757,0.21514394879341125,0.15831276774406433,0.6000000238418579,-10383783.0,-22.479286193847656,49.34740447998047,0
186597623,0.2188958376646042,0.1582690328359604,-23.482378005981445,-0.0020618275739252567,-2.580901673354674e-05,-0.00024997437139973044,-0.0008889265591278672,0.21525909006595612,0.15828722715377808,0.6000000238418579,-10383783.0,-22.43505859375,49.317527770996094,0
186607899,0.2235182374715805,0.15953965485095978,-23.474456787109375,-0.0018233084119856358,-1.4647691386926454e-05,-0.0004150310414843261,-0.000896650250069797,0.2154882699251175,0.15829795598983765,0.6000000238418579,-10383783.0,-22.331897735595703,49.33021926879883,0
186617903,0.21617762744426727,0.1583305299282074,-23.479896545410156,-0.0018028608756139874,-3.708330768859014e-05,-0.0004291808872949332,-0.0008811246952973306,0.21550790965557098,0.15827639400959015,0.6000000238418579,-10383783.0,-22.322004318237305,49.30449295043945,0
186627617,0.2196379154920578,0.16134433448314667,-23.49306869506836,-0.0016933386214077473,2.126181971107144e-05,-0.0005049709579907358,-0.0009214999154210091,0.21561314165592194,0.1583324521780014,0.6000000238418579,-10383783.0,-22.26589584350586,49.369625091552734,0
186637635,0.2146114706993103,0.15971633791923523,-23.48279571533203,-0.0017201926093548536,3.368336183484644e-05,-0.0004863878421019763,-0.0009300956735387444,0.2155873328447342,0.15834438800811768,0.6000000238418579,-10383783.0,-22.2801513671875,49.382755279541016,0
186647531,0.21817734837532043,0.16072125732898712,-23.479633331298828,-0.0016567414859309793,7.007498061284423e-05,-0.0005302963545545936,-0.0009552789269946516,0.21564829349517822,0.15837936103343964,0.6000000238418579,-10383783.0,-22.24593162536621,49.41978073120117,0
186657846,0.21885761618614197,0.1581999659538269,-23.47675132751465,-0.0015814194921404123,4.304264803067781e-05,-0.0005824196268804371,-0.0009365723817609251,0.21572066843509674,0.15835338830947876,0.6000000238418579,-10383783.0,-22.202836990356445,49.39248275756836,0
186667924,0.22084717452526093,0.15972119569778442,-23.473419189453125,-0.0014645135961472988,5.366577170207165e-05,-0.0006633192533627152,-0.0009439236600883305,0.21583299338817596,0.15836359560489655,0.6000000238418579,-10383783.0,-22.13042449951172,49.403350830078125,0
186677581,0.22211356461048126,0.15825654566287994,-23.479103088378906,-0.0013263736618682742,2.994304486492183e-05,-0.0007589129381813109,-0.0009275074116885662,0.21596571803092957,0.15834079682826996,0.6000000238418579,-10383783.0,-22.0360050201416,49.37882995605469,0
186687653,0.2175852358341217,0.1595926284790039,-23.48342514038086,-0.0012988443486392498,3.774676224566065e-05,-0.0007779634324833751,-0.0009329076274298131,0.21599216759204865,0.15834829211235046,0.6000000238418579,-10383783.0,-22.01605224609375,49.38699722290039,0
186697622,0.21878553926944733,0.1577015519142151,-23.480175018310547,-0.0012467100750654936,3.548587301338557e-06,-0.000814040657132864,-0.0009092422551475465,0.21604226529598236,0.15831543505191803,0.6000000238418579,-10383783.0,-21.977264404296875,49.350460052490234,0
186708259,0.22003306448459625,0.15576514601707458,-23.476646423339844,-0.0011709736427292228,-7.015895243966952e-05,-0.0008664507186040282,-0.000858236220665276,0.2161150425672531,0.15824460983276367,0.6000000238418579,-10383783.0,-21.91868019104004,49.264991760253906,0
186717860,0.2195313274860382,0.15691696107387543,-23.474620819091797,-0.0011103351134806871,-0.00011520110274432227,-0.0009084129706025124,-0.0008270667749457061,0.21617330610752106,0.15820133686065674,0.6000000238418579,-10383783.0,-21.870006561279297,49.208160400390625,0
186727576,0.21786031126976013,0.15549099445343018,-23.483081817626953,-0.001087737618945539,-0.00018706321134231985,-0.0009240505751222372,-0.0007773377583362162,0.2161950170993805,0.15813228487968445,0.6000000238418579,-10383783.0,-21.851499557495117,49.11040115356445,0
186737590,0.21423113346099854,0.15740562975406647,-23.49224090576172,-0.001139971660450101,-0.00021603995992336422,-0.0008879043161869049,-0.000757285684812814,0.21614482998847961,0.15810444951057434,0.6000000238418579,-10383783.0,-21.89398193359375,49.06865692138672,0
186747616,0.21843771636486053,0.15333151817321777,-23.487995147705078,-0.0011055869981646538,-0.00032449536956846714,-0.0009116986766457558,-0.0006822338909842074,0.21617786586284637,0.15800024569034576,0.6000000238418579,-10383783.0,-21.866134643554688,48.902587890625,0
186757969,0.22157900035381317,0.1576259881258011,-23.48579216003418,-0.0010116222547367215,-0.00034308136673644185,-0.0009767228038981557,-0.0006693722680211067,0.2162681519985199,0.15798239409923553,0.6000000238418579,-10383783.0,-21.787864685058594,48.8729248046875,0
186768454,0.22038967907428741,0.16007591784000397,-23.479461669921875,-0.0012078601866960526,-0.00044183991849422455,-0.0010932192672044039,-0.0007280001882463694,0.2162461131811142,0.1579713076353073,0.6000000238418579,-10383783.0,-21.820093154907227,48.80105972290039,0
186777619,0.21825088560581207,0.16383515298366547,-23.473045349121094,-0.001234138268046081,-0.0007868489483371377,-0.0011088191531598568,-0.0009328144951723516,0.21624316275119781,0.1579325646162033,0.6000000238418579,-10383783.0,-21.823749542236328,48.64583206176758,0
186787576,0.21478153765201569,0.16340935230255127,-23.480377197265625,-0.0010304776951670647,-0.0010654098587110639,-0.0009879161370918155,-0.0010981819359585643,0.21626603603363037,0.15790128707885742,0.6000000238418579,-10383783.0,-21.791397094726562,48.57630157470703,0
186797532,0.22159737348556519,0.15898169577121735,-23.481216430664062,-0.0012749931775033474,-0.0010373109253123403,-0.0011330725392326713,-0.0010815010173246264,0.2162385880947113,0.15790444612503052,0.6000000238418579,-10383783.0,-21.829181671142578,48.582008361816406,0
186807843,0.21465043723583221,0.161751851439476,-23.477354049682617,-0.001077826484106481,-0.001178332488052547,-0.0010160247329622507,-0.0011652184184640646,0.21626073122024536,0.15788860619068146,0.6000000238418579,-10383783.0,-21.799821853637695,48.55556106567383,0
186817927,0.2157335877418518,0.15995247662067413,-23.477670669555664,-0.0009621515637263656,-0.001201928942464292,-0.0009473544196225703,-0.001179226441308856,0.2162737250328064,0.15788595378398895,0.6000000238418579,-10383783.0,-21.778064727783203,48.5516242980957,0
186827522,0.2224491834640503,0.15305066108703613,-23.476119995117188,-0.0012306153075769544,-0.0008395020267926157,-0.001106727751903236,-0.0009640719508752227,0.21624357998371124,0.15792664885520935,0.6000000238418579,-10383783.0,-21.82326889038086,48.6301155090332,0
186837583,0.21797552704811096,0.15398216247558594,-23.478384017944336,-0.0012351718032732606,-0.0005590435466729105,-0.0011094326619058847,-0.0007975779590196908,0.21624307334423065,0.15795813500881195,0.6000000238418579,-10383783.0,-21.82389259338379,48.735206604003906,0
186847574,0.21749691665172577,0.1586727797985077,-23.480836868286133,-0.001214478979818523,-0.0005459896638058126,-0.0010971484007313848,-0.0007898285402916372,0.2162453979253769,0.15795959532260895,0.6000000238418579,-10383783.0,-21.821027755737305,48.74170684814453,0
186857505,0.2152934968471527,0.15688207745552063,-23.48931884765625,-0.0010845480719581246,-0.00044385335058905184,-0.0010200149845331907,-0.0007291954243555665,0.21625998616218567,0.1579710692167282,0.6000000238418579,-10383783.0,-21.800968170166016,48.79977035522461,0
186868105,0.2171572595834732,0.1587914675474167,-23.487821578979492,-0.0010558543726801872,-0.00044300593435764313,-0.0010029809782281518,-0.0007286923355422914,0.21626320481300354,0.15797115862369537,0.6000000238418579,-10383783.0,-21.795989990234375,48.80031204223633,0
186877533,0.2189551144838333,0.15885119140148163,-23.47928237915039,-0.0011147018522024155,-0.000445058656623587,-0.0010379157029092312,-0.0007299109129235148,0.21625660359859467,0.15797093510627747,0.6000000238418579,-10383783.0,-21.805971145629883,48.79899978637695,0
186887552,0.21932636201381683,0.15362311899662018,-23.46904754638672,-0.0011864100815728307,-0.00020534940995275974,-0.0010804851772263646,-0.0005876076756976545,0.21624855697155,0.15799784660339355,0.6000000238418579,-10383783.0,-21.81700897216797,49.010353088378906,0
186897601,0.21805313229560852,0.1560371071100235,-23.465444564819336,-0.0011957167880609632,-9.127691737376153e-05,-0.0010860101319849491,-0.0005198885919526219,0.21624751389026642,0.15801066160202026,0.6000000238418579,-10383783.0,-21.818359375,49.172752380371094,0
186907945,0.2150278240442276,0.15923205018043518,-23.474353790283203,-0.0010714783566072583,-0.0001253673544852063,-0.0010122560197487473,-0.0005401263479143381,0.21626146137714386,0.15800683200359344,0.6000000238418579,-10383783.0,-21.798728942871094,49.11848068237305,0
186917856,0.21558032929897308,0.15657450258731842,-23.49102783203125,-0.0009791837073862553,-4.317603088566102e-05,-0.0009574653813615441,-0.0004913335433229804,0.21627181768417358,0.15801605582237244,0.6000000238418579,-10383783.0,-21.78152847290039,49.2588996887207,0
186927554,0.2150198519229889,0.15981659293174744,-23.489744186401367,-0.000869322509970516,-0.00010225913865724578,-0.0008922463748604059,-0.0005264081992208958,0.2162841558456421,0.15800942480564117,0.6000000238418579,-10383783.0,-21.757301330566406,49.15468215942383,0
186937579,0.223516047000885,0.1626078188419342,-23.479413986206055,-0.001115031074732542,-0.00027220300398766994,-0.0010381111642345786,-0.0006272952305153012,0.21625657379627228,0.15799033641815186,0.6000000238418579,-10383783.0,-21.80602264404297,48.93714141845703,0
186947528,0.2235034704208374,0.16224031150341034,-23.47275733947754,-0.0013452850980684161,-0.00041703545139171183,-0.0011748013785108924,-0.0007132749306038022,0.21623072028160095,0.15797407925128937,0.6000000238418579,-10383783.0,-21.837860107421875,48.817474365234375,0
186958002,0.22081954777240753,0.15424717962741852,-23.477025985717773,-0.001456158235669136,-0.0002383702521910891,-0.0012406210880726576,-0.0006072104442864656,0.2162182778120041,0.1579941362142563,0.6000000238418579,-10383783.0,-21.850067138671875,48.972469329833984,0
186968411,0.2195741832256317,0.15161451697349548,-23.484718322753906,-0.0015125006902962923,3.1731233320897445e-05,-0.0012740687234327197,-0.00044686486944556236,0.2162119448184967,0.15802446007728577,0.6000000238418579,-10383783.0,-21.855669021606445,49.41743850708008,0
186977498,0.2197667509317398,0.15709328651428223,-23.486705780029297,-0.0015729785664007068,7.876622839830816e-05,-0.00130997144151479,-0.0004189425671938807,0.2162051498889923,0.1580297350883484,0.6000000238418579,-10383783.0,-21.861289978027344,49.53239059448242,0
186987602,0.21682409942150116,0.16082824766635895,-23.481136322021484,-0.0015204597730189562,-1.5987954611773603e-05,-0.0012787936720997095,-0.0004751933447550982,0.21621105074882507,0.15801909565925598,0.6000000238418579,-10383783.0,-21.85643196105957,49.31291580200195,0
186997524,0.2165479063987732,0.16337496042251587,-23.481399536132812,-0.001460639527067542,-0.00019896359299309552,-0.0012432814110070467,-0.0005838166689500213,0.2162177711725235,0.15799854695796967,0.6000000238418579,-10383783.0,-21.850526809692383,49.01809310913086,0
187007898,0.21561101078987122,0.16690275073051453,-23.476011276245117,-0.0013701926218345761,-0.0004994766786694527,-0.0011895876377820969,-0.0007622159901075065,0.2162279337644577,0.1579648107290268,0.6000000238418579,-10383783.0,-21.84075164794922,48.766456604003906,0
187017858,0.21442721784114838,0.16263943910598755,-23.47464942932129,-0.001242397353053093,-0.0006333672790788114,-0.00111372210085392,-0.00084170006448403,0.21624228358268738,0.1579497754573822,0.6000000238418579,-10383783.0,-21.824872970581055,48.701454162597656,0
187027595,0.2132507711648941,0.1620391607284546,-23.477062225341797,-0.0010711528593674302,-0.0007866985979489982,-0.0012080797459930182,-0.0007572128088213503,0.21618220210075378,0.158003568649292,0.6000000238418579,-10383783.0,-21.710309982299805,48.542049407958984,0
187037608,0.2195618748664856,0.1620299220085144,-23.475271224975586,-0.001174388569779694,-0.0009246952249668539,-0.001151195727288723,-0.0006811750936321914,0.21621842682361603,0.1580519825220108,0.6000000238418579,-10383783.0,-21.78028678894043,48.410648345947266,0
187047618,0.2157575637102127,0.16157107055187225,-23.47343635559082,-0.0011183610185980797,-0.0010317827109247446,-0.0011820675572380424,-0.0006221687071956694,0.21619877219200134,0.1580895483493805,0.6000000238418579,-10383783.0,-21.74262809753418,48.3183708190918,0
187057838,0.2148650884628296,0.1573868989944458,-23.479917526245117,-0.0010334544349461794,-0.0009704860858619213,-0.0012288520811125636,-0.0006559438188560307,0.21616898477077484,0.15806804597377777,0.6000000238418579,-10383783.0,-21.68415641784668,48.37010955810547,0
187067836,0.21556609869003296,0.1572476327419281,-23.480134963989258,-0.0009815430967137218,-0.0009093243279494345,-0.0012574557913467288,-0.0006896446575410664,0.21615077555179596,0.15804658830165863,0.6000000238418579,-10383783.0,-21.647701263427734,48.42461395263672,0
187077601,0.22008082270622253,0.15889368951320648,-23.475116729736328,-0.0010943928500637412,-0.0009117080480791628,-0.001195274293422699,-0.000688331201672554,0.216190367937088,0.15804742276668549,0.6000000238418579,-10383783.0,-21.726282119750977,48.42243576049805,0
187087591,0.21305492520332336,0.16335290670394897,-23.477182388305664,-0.0009560128673911095,-0.0010676821693778038,-0.001271523186005652,-0.0006023877067491412,0.21614181995391846,0.1581021398305893,0.6000000238418579,-10383783.0,-21.629608154296875,48.2894287109375,0
187097502,0.21179839968681335,0.166657954454422,-23.477346420288086,-0.0007860999321565032,-0.0013224809663370252,-0.0013651471817865968,-0.00046199068310670555,0.21608221530914307,0.1581915318965912,0.6000000238418579,-10383783.0,-21.50737762451172,48.11183166503906,0
187107805,0.21111395955085754,0.15866199135780334,-23.480060577392578,-0.0006064041517674923,-0.0012978649465367198,-0.001464161672629416,-0.000475554377771914,0.2160191684961319,0.15818288922309875,0.6000000238418579,-10383783.0,-21.377573013305664,48.12696838378906,0
187117950,0.20903204381465912,0.15376785397529602,-23.482481002807617,-0.0003734162892214954,-0.001119611319154501,-0.0015925407642498612,-0.0005737742176279426,0.21593743562698364,0.15812034904956818,0.6000000238418579,-10383783.0,-21.215232849121094,48.249324798583984,0
187127555,0.21105007827281952,0.15918640792369843,-23.473106384277344,-0.0002189964143326506,-0.0011214445112273097,-0.001677627908065915,-0.0005727641400881112,0.2158832550048828,0.1581209897994995,0.6000000238418579,-10383783.0,-21.114721298217773,48.247947692871094,0
187137520,0.21834607422351837,0.16355514526367188,-23.47413444519043,-0.0002954751253128052,-0.0012552276020869613,-0.0016354871913790703,-0.0004990480374544859,0.21591009199619293,0.15816792845726013,0.6000000238418579,-10383783.0,-21.163652420043945,48.15415954589844,0
187147605,0.21931196749210358,0.1617279350757599,-23.482742309570312,-0.0003955263819079846,-0.0013263400178402662,-0.0015803577844053507,-0.0004598642699420452,0.21594519913196564,0.15819287300109863,0.6000000238418579,-10383783.0,-21.230154037475586,48.109493255615234,0
187157992,0.22075679898262024,0.15772992372512817,-23.479045867919922,-0.0005310276173986495,-0.0012774135684594512,-0.0015056949341669679,-0.0004868232936132699,0.215992733836174,0.15817570686340332,0.6000000238418579,-10383783.0,-21.323974609375,48.139854431152344,0
187168446,0.2226613610982895,0.16062107682228088,-23.484647750854492,-0.0007121183443814516,-0.0013133063912391663,-0.0014059117529541254,-0.00046704590204171836,0.21605627238750458,0.15818829834461212,0.6000000238418579,-10383783.0,-21.45376205444336,48.11742401123047,0
187177593,0.21983258426189423,0.1598631739616394,-23.48150062561035,-0.0008039516978897154,-0.0013260385021567345,-0.0013553104363381863,-0.00046003033639863133,0.21608848869800568,0.15819276869297028,0.6000000238418579,-10383783.0,-21.520309448242188,48.109676361083984,0
187187594,0.22030770778656006,0.1576460748910904,-23.474407196044922,-0.0009033684618771076,-0.0012777287047356367,-0.001300530624575913,-0.0004866495728492737,0.21612337231636047,0.15817582607269287,0.6000000238418579,-10383783.0,-21.592018127441406,48.13965606689453,0
187197604,0.21823763847351074,0.16445863246917725,-23.48027992248535,-0.0009418904082849622,-0.001414014375768602,-0.001279304618947208,-0.0004115545598324388,0.2161368876695633,0.15822364389896393,0.6000000238418579,-10383783.0,-21.61956024169922,48.05897903442383,0
187207894,0.21855369210243225,0.16774454712867737,-23.48379898071289,-0.0009865681640803814,-0.0016289131017401814,-0.0012546866200864315,-0.00029314286075532436,0.21615256369113922,0.1582990437746048,0.6000000238418579,-10383783.0,-21.6512508392334,47.95380401611328,0
187217861,0.21587532758712769,0.16122688353061676,-23.48246192932129,-0.0009598167380318046,-0.0016642581904307008,-0.0012694270117208362,-0.0002736673050094396,0.2161431759595871,0.15831144154071808,0.6000000238418579,-10383783.0,-21.63231086730957,47.93872833251953,0
187227550,0.21427424252033234,0.15591202676296234,-23.487136840820312,-0.0008939033723436296,-0.0015630517154932022,-0.0013057460309937596,-0.00032943327096290886,0.21612004935741425,0.15827593207359314,0.6000000238418579,-10383783.0,-21.58522605895996,47.98347091674805,0
187237522,0.21404315531253815,0.15855875611305237,-23.478267669677734,-0.0008256292203441262,-0.001533069764263928,-0.0013433658750727773,-0.0003459536819718778,0.21609610319137573,0.15826541185379028,0.6000000238418579,-10383783.0,-21.535999298095703,47.9976921081543,0
187247613,0.21182432770729065,0.16789783537387848,-23.470848083496094,-0.0007063246448524296,-0.0017339016776531935,-0.0014091040939092636,-0.00023529294412583113,0.21605424582958221,0.1583358645439148,0.6000000238418579,-10383783.0,-21.449569702148438,47.91062545776367,0
187257894,0.21425460278987885,0.16474945843219757,-23.47370719909668,-0.000651701760943979,-0.0018486517947167158,-0.0014392018783837557,-0.00017206430493388325,0.21603508293628693,0.15837612748146057,0.6000000238418579,-10383783.0,-21.410114288330078,47.86855697631836,0
187267908,0.2188223898410797,0.15788611769676208,-23.48122215270996,-0.0007086214027367532,-0.0017942199483513832,-0.001407838542945683,-0.00020205687906127423,0.21605505049228668,0.15835702419281006,0.6000000238418579,-10383783.0,-21.45123291015625,47.88789367675781,0
187277606,0.21713532507419586,0.1570243090391159,-23.47983741760254,-0.0007231766358017921,-0.0017221125308424234,-0.0013998184585943818,-0.00024178884632419795,0.21606016159057617,0.1583317220211029,0.6000000238418579,-10383783.0,-21.461772918701172,47.91524124145508,0
187287538,0.21547003090381622,0.1518182009458542,-23.48590660095215,-0.0006984297069720924,-0.001532615046016872,-0.0014134543016552925,-0.0003462040040176362,0.21605147421360016,0.15826524794101715,0.6000000238418579,-10383783.0,-21.443857192993164,47.9979133605957,0
187297472,0.21448765695095062,0.15619009733200073,-23.478673934936523,-0.0007467964896932244,-0.0017453087493777275,-0.001467825029976666,-0.0005853001493960619,0.21599958837032318,0.15803709626197815,0.6000000238418579,-10383783.0,-21.455562591552734,48.09931945800781,0
187307898,0.2155018150806427,0.1590658575296402,-23.4654483795166,-0.0007021148921921849,-0.001674845814704895,-0.001417596940882504,-0.0005060904077254236,0.2160475105047226,0.15811267495155334,0.6000000238418579,-10383783.0,-21.444786071777344,48.06919860839844,0
187317861,0.219771146774292,0.15905293822288513,-23.4736270904541,-0.0003633537271525711,-0.0016212802147492766,-0.0010367842623963952,-0.00044587551383301616,0.21641089022159576,0.15817013382911682,0.6000000238418579,-10383783.0,-21.322004318237305,48.044132232666016,0
187327619,0.22002281248569489,0.1595129817724228,-23.478853225708008,-7.736319093964994e-05,-0.001548893516883254,-0.0007152927573770285,-0.0003645032411441207,0.2167176604270935,0.15824778378009796,0.6000000238418579,-10383783.0,-21.092655181884766,48.00687789916992,0
187337559,0.21556861698627472,0.16223736107349396,-23.480968475341797,-0.00010822317562997341,-0.0013284856686368585,-0.0007499834755435586,-0.00011673536209855229,0.21668456494808197,0.15848420560359955,0.6000000238418579,-10383783.0,-21.12822914123535,47.863399505615234,0
187347625,0.21313294768333435,0.1624506115913391,-23.477819442749023,-0.00026726259966380894,-0.0011337733594700694,-0.0009287649882026017,0.00010214727808488533,0.2165139764547348,0.15869306027889252,0.6000000238418579,-10383783.0,-21.265108108520508,47.6859016418457,0
187358058,0.21513839066028595,0.15758760273456573,-23.471508026123047,-0.00029914063634350896,-0.0012175372103229165,-0.0009646001271903515,7.985592674231157e-06,0.21647977828979492,0.15860320627689362,0.6000000238418579,-10383783.0,-21.28563117980957,47.769195556640625,0
187368439,0.21036095917224884,0.15484246611595154,-23.468843460083008,-0.0005546133616007864,-0.0014202706515789032,-0.0012517855502665043,-0.00021991388348396868,0.21620574593544006,0.1583857387304306,0.6000000238418579,-10383783.0,-21.4019832611084,47.92937469482422,0
187377572,0.2111131250858307,0.16002881526947021,-23.471860885620117,-0.0007416061125695705,-0.001362216891720891,-0.0014619904104620218,-0.00015465366595890373,0.21600516140460968,0.1584480106830597,0.6000000238418579,-10383783.0,-21.454355239868164,47.88880157470703,0
187387644,0.21439611911773682,0.16487275063991547,-23.480390548706055,-0.0007651355117559433,-0.0011054471833631396,-0.0014884405536577106,0.00013398972805589437,0.2159799188375473,0.15872342884540558,0.6000000238418579,-10383783.0,-21.45974349975586,47.65513610839844,0
187397599,0.21119065582752228,0.16271084547042847,-23.493783950805664,-0.0009153627324849367,-0.0009667719714343548,-0.0016573159955441952,0.00028987915720790625,0.21581877768039703,0.15887217223644257,0.6000000238418579,-10383783.0,-21.489538192749023,47.48444366455078,0
187407957,0.21618476510047913,0.15655753016471863,-23.489309310913086,-0.0008563006995245814,-0.0010807127691805363,-0.0015909223584458232,0.0001617944217287004,0.21588213741779327,0.15874995291233063,0.6000000238418579,-10383783.0,-21.478689193725586,47.62714767456055,0
187417920,0.22157932817935944,0.15759259462356567,-23.47675323486328,-0.000605015957262367,-0.0011443350231274962,-0.0013084447709843516,9.027455962495878e-05,0.21615168452262878,0.1586817055940628,0.6000000238418579,-10383783.0,-21.41802978515625,47.69702911376953,0
187427626,0.21847125887870789,0.1644393801689148,-23.476953506469727,-0.000489017809741199,-0.0009598928154446185,-0.0011780473869293928,0.00029761227779090405,0.2162761092185974,0.15887954831123352,0.6000000238418579,-10383783.0,-21.378379821777344,47.47510528564453,0
187437586,0.21708528697490692,0.16605380177497864,-23.47358512878418,-0.0004312896344345063,-0.0007386371726170182,-0.0011131531791761518,0.0005463332054205239,0.21633803844451904,0.15911687910556793,0.6000000238418579,-10383783.0,-21.354557037353516,47.13890838623047,0
187447615,0.21337777376174927,0.161020889878273,-23.48111915588379,-0.0005000088713131845,-0.0007023031357675791,-0.001190402777865529,0.000587177521083504,0.21626432240009308,0.15915584564208984,0.6000000238418579,-10383783.0,-21.3825740814209,47.07939910888672,0
187457885,0.22090233862400055,0.15952566266059875,-23.493789672851562,-0.0003254226176068187,-0.0007163333357311785,-0.0009941444732248783,0.0005714056896977127,0.21645160019397736,0.15914079546928406,0.6000000238418579,-10383783.0,-21.3012638092041,47.1024284362793,0
187467913,0.22816349565982819,0.1572359949350357,-23.487154006958008,5.560760109801777e-05,-0.0007989619625732303,-0.0005658157169818878,0.0004785200871992856,0.2168603092432022,0.15905216336250305,0.6000000238418579,-10383783.0,-20.886953353881836,47.236122131347656,0
187477600,0.223575159907341,0.15509387850761414,-23.479537963867188,0.00026990516926161945,-0.0009380665724165738,-0.00032491664751432836,0.0003221479128114879,0.2170901745557785,0.15890295803546906,0.6000000238418579,-10383783.0,-20.29174041748047,47.44495391845703,0
187487589,0.2187713235616684,0.15849833190441132,-23.475116729736328,0.0003295917413197458,-0.0009686204721219838,-0.00025656475918367505,0.00028715815278701484,0.2171553522348404,0.15886959433555603,0.6000000238418579,-10383783.0,-20.075571060180664,47.487545013427734,0
187497549,0.21810533106327057,0.15390494465827942,-23.4778995513916,0.00036604763590730727,-0.0011240849271416664,-0.00021346850553527474,0.00010337624553358182,0.21719640493392944,0.1586945354938507,0.6000000238418579,-10383783.0,-19.942073822021484,47.684043884277344,0
187507863,0.2194349318742752,0.15993937849998474,-23.484397888183594,0.0004352733085397631,-0.0011050069006159902,-0.00012899356079287827,0.00012665678514167666,0.21727678179740906,0.15871669352054596,0.6000000238418579,-10383783.0,-19.702224731445312,47.66162872314453,0
187517835,0.21781498193740845,0.1626177728176117,-23.48885726928711,0.0004567747237160802,-0.0010178377851843834,-0.00010191016917815432,0.00023645580222364515,0.21730253100395203,0.15882106125354767,0.6000000238418579,-10383783.0,-19.63363265991211,47.547489166259766,0
187527634,0.2137526422739029,0.158299520611763,-23.485118865966797,0.0003742859698832035,-0.0010464501101523638,-0.000209157878998667,0.00019925551896449178,0.21720068156719208,0.15878573060035706,0.6000000238418579,-10383783.0,-19.923707962036133,47.58759307861328,0
187537619,0.2163504660129547,0.15973608195781708,-23.47548484802246,0.000361828861059621,-0.0010377287399023771,-0.00022587439161725342,0.0002109589840983972,0.21718482673168182,0.15879683196544647,0.6000000238418579,-10383783.0,-19.972185134887695,47.5751953125,0
187547592,0.2138826698064804,0.15624108910560608,-23.476577758789062,0.00029223953606560826,-0.0011120904237031937,-0.0003222530067432672,0.00010797076538437977,0.21709346771240234,0.15869921445846558,0.6000000238418579,-10383783.0,-20.248321533203125,47.6789665222168,0
187558001,0.21072429418563843,0.15894761681556702,-23.4802303314209,-0.0005277328309603035,-0.0010092792799696326,-0.0005096455570310354,0.00013146673154551536,0.2165641486644745,0.15876558423042297,0.6000000238418579,-10383783.0,-21.787748336791992,47.64622116088867,0
187568400,0.2133641242980957,0.1626567840576172,-23.480859756469727,-0.0008057111408561468,-0.00052186957327649,-0.0005796957411803305,0.0002542934089433402,0.216379314661026,0.15908966958522797,0.6000000238418579,-10383783.0,-21.932029724121094,47.32233428955078,0
187577585,0.21333082020282745,0.161764994263649,-23.482961654663086,-0.001017223228700459,-0.0002460003306623548,-0.0006397746619768441,0.0003326526493765414,0.21623829007148743,0.15927359461784363,0.6000000238418579,-10383783.0,-21.99428367614746,46.84170913696289,0
187587566,0.2152731716632843,0.15569815039634705,-23.480571746826172,-0.0010048419935628772,-0.0005824201507493854,-0.0006358619430102408,0.00022633631306234747,0.21624654531478882,0.15904931724071503,0.6000000238418579,-10383783.0,-21.991525650024414,47.40509796142578,0
187597578,0.21442878246307373,0.15661261975765228,-23.473596572875977,-0.0010651479242369533,-0.000773031497374177,-0.0006567871896550059,0.00016019710164982826,0.21620634198188782,0.1589222550392151,0.6000000238418579,-10383783.0,-22.00316619873047,47.5714111328125,0
187607866,0.21662190556526184,0.15572547912597656,-23.477563858032227,-0.0009455764084123075,-0.0009950504172593355,-0.0006117134471423924,7.650475890841335e-05,0.2162860482931137,0.158774271607399,0.6000000238418579,-10383783.0,-21.98150634765625,47.69901657104492,0
187617862,0.22025419771671295,0.16145914793014526,-23.478052139282227,-0.0005880626849830151,-0.0007677894318476319,-0.000466569559648633,0.0001687684707576409,0.21652431786060333,0.15892572700977325,0.6000000238418579,-10383783.0,-21.885009765625,47.55937957763672,0
187627519,0.1976955085992813,0.09453123062849045,-23.48884391784668,-0.00179921998642385,-0.005054269451647997,-0.0009923072066158056,-0.00169190124142915,0.21571721136569977,0.15606924891471863,0.6000000238418579,-10383783.0,-22.05170440673828,48.09877014160156,0
187637580,0.212197408080101,0.3905651271343231,-23.463623046875,-0.0019053593277931213,0.009973530657589436,-0.0010412676492705941,0.005240183789283037,0.21564649045467377,0.1660824418067932,0.6000000238418579,-10383783.0,-22.055566787719727,45.117923736572266,0
187647607,0.2267860472202301,-0.25374066829681396,-23.520631790161133,-0.0011272098636254668,-0.015607155859470367,-0.0006618197658099234,-0.007233689073473215,0.21616491675376892,0.14903995394706726,0.6000000238418579,-10383783.0,-22.024810791015625,48.20975875854492,0
187657858,0.23191224038600922,0.36852696537971497,-23.445146560668945,-0.00017057385412044823,-0.0023697619326412678,-0.00017092911002691835,-0.00044101878302171826,0.21680216491222382,0.15785782039165497,0.6000000238418579,-10383783.0,-21.769275665283203,47.95974349975586,0
187667837,0.23510822653770447,0.5155735611915588,-23.47266960144043,0.0008277239976450801,0.01697964407503605,0.0003660111397039145,0.009966171346604824,0.2174670696258545,0.17074520885944366,0.6000000238418579,-10383783.0,-18.99778175354004,45.164920806884766,0
187677648,0.20524989068508148,-0.44469863176345825,-23.548542022705078,0.00015958932635840029,-0.015601151622831821,-9.344862519355956e-06,-0.00833761878311634,0.2170221358537674,0.1490485668182373,0.6000000238418579,-10383783.0,-19.472610473632812,48.26655197143555,0
187687599,0.23500074446201324,0.6385846138000488,-23.440196990966797,0.0010420378530398011,0.009310353547334671,0.0005068822065368295,0.006235460750758648,0.2176096886396408,0.16563531756401062,0.6000000238418579,-10383783.0,-18.96138572692871,45.22427749633789,0
187697609,0.16863875091075897,-0.1066495031118393,-23.5085391998291,-0.0013256227830424905,-0.004081763327121735,-0.0009314096532762051,-0.0018998996820300817,0.21603350341320038,0.15671998262405396,0.6000000238418579,-10383783.0,-21.9432315826416,48.21138381958008,0
187707899,0.1813623607158661,0.0089616309851408,-23.492835998535156,-0.002838178537786007,-0.010646133683621883,-0.0018832042114809155,-0.0060306116938591,0.21502675116062164,0.15235073864459991,0.6000000238418579,-10383783.0,-21.96988868713379,48.291141510009766,0
