TimeUS,PLX,PLY,PLZ,AX,AY,BX,BY,CX,CY,F,P,X,Y,SW
55185060,0.00164614908862859,0.08920802175998688,-23.513660430908203,0.00016203938866965473,-0.00014705810463055968,0.0003281286044511944,-0.000456442212453112,0.004266923759132624,0.088845394551754,0.6000000238418579,0.0,-5.72083854675293,22.92828941345215,0
55195161,-0.0004098000645171851,0.0856945589184761,-23.50250816345215,-7.706091128056869e-05,-0.00028753207880072296,6.431959627661854e-05,-0.0006114328280091286,0.004109267145395279,0.08875276893377304,0.6000000238418579,0.0,-4.386863708496094,22.800397872924805,0
55205806,0.005114978179335594,0.0912783071398735,-23.50803565979004,-2.7294976462144405e-05,-0.00015019471175037324,0.00011540370906004682,-0.0004704577149823308,0.004142031539231539,0.08884318917989731,0.6000000238418579,0.0,-5.029890537261963,22.930946350097656,0
55215098,0.0026043911930173635,0.08835813403129578,-23.50885772705078,-9.621147182770073e-05,-0.00016140961088240147,4.982818427379243e-05,-0.0004811289254575968,0.004096716642379761,0.08883581310510635,0.6000000238418579,0.0,-4.169210433959961,22.916288375854492,0
55225298,0.0029180466663092375,0.09272751212120056,-23.506572723388672,-0.000143639903399162,1.784527012205217e-05,8.188925676222425e-06,-0.0003237541241105646,0.0040655615739524364,0.08895356208086014,0.6000000238418579,0.0,-3.7482919692993164,23.295034408569336,0
55235082,0.002577032893896103,0.09468427300453186,-23.52079963684082,-0.00020037419744767249,0.0002600573643576354,-3.749775714823045e-05,-0.00012870690261479467,0.004028319381177425,0.08911255747079849,0.6000000238418579,0.0,-3.5063443183898926,24.351192474365234,0
55245001,0.004900545813143253,0.08724065124988556,-23.520313262939453,-0.0001563790865475312,0.00017325014050584286,-5.025105110689765e-06,-0.0001927790290210396,0.004057230427861214,0.08905551582574844,0.6000000238418579,0.0,-3.6592202186584473,23.972064971923828,0
55255320,0.009031958878040314,0.09345370531082153,-23.507802963256836,4.7780027671251446e-05,0.0003416454419493675,0.0001299080322496593,-8.148296183208004e-05,0.004191181622445583,0.08916600048542023,0.6000000238418579,0.0,-5.614582061767578,24.57663917541504,0
55265075,0.005986659321933985,0.08656062185764313,-23.504131317138672,0.00011549820919753984,0.00022745697060599923,0.00016979830979835242,-0.00014874715998303145,0.004235624335706234,0.08909106254577637,0.6000000238418579,0.0,-5.8594584465026855,24.23161506652832,0
55275301,0.004422038793563843,0.08799611032009125,-23.5029296875,0.00011842123785754666,0.0001773097610566765,0.00017130913329310715,-0.00017466679855715483,0.0042375437915325165,0.08905813097953796,0.6000000238418579,0.0,-5.866983890533447,24.03287696838379,0
55285135,0.002672188449651003,0.09699052572250366,-23.51072883605957,5.689961471944116e-05,0.00046244417899288237,0.0001439911575289443,-4.805611024494283e-05,0.004197108093649149,0.08924553543329239,0.6000000238418579,0.0,-5.638466835021973,24.70722007751465,0
55295157,0.0025973885785788298,0.07949121296405792,-23.520214080810547,-2.0084946754650446e-06,9.537398000247777e-05,0.0001221775746671483,-0.00018398162501398474,0.0041583445854485035,0.08900398761034012,0.6000000238418579,0.0,-5.245701789855957,23.718219757080078,0
55305846,0.0004386180662550032,0.08334749937057495,-23.512998580932617,-0.00013159617083147168,-0.00010704151645768434,8.390501898247749e-05,-0.0002437632210785523,0.004072946961969137,0.08887059986591339,0.6000000238418579,0.0,-4.258947849273682,22.826200485229492,0
55315063,-0.0017962857382372022,0.09087337553501129,-23.502761840820312,-0.00032706258934922516,-3.662201561382972e-05,4.112586975679733e-05,-0.00022835143317934126,0.003943912219256163,0.0889170840382576,0.6000000238418579,0.0,-3.816429615020752,23.080949783325195,0
55325373,0.00041157237137667835,0.08549324423074722,-23.499055862426758,-0.00043364844168536365,-0.0001510239380877465,2.6160038032685407e-05,-0.0002444147248752415,0.00387341040186584,0.08884140849113464,0.6000000238418579,0.0,-3.7515952587127686,22.686492919921875,0
55335021,0.005046663340181112,0.08137517422437668,-23.501895904541016,-0.00038190194754861295,-0.000390032771974802,2.924593172792811e-05,-0.00025866797659546137,0.003907716367393732,0.08868295699357986,0.6000000238418579,0.0,-3.767773389816284,22.254770278930664,0
55345001,0.0013748124474659562,0.08043467998504639,-23.519258499145508,-0.0004499431815929711,-0.0006405930034816265,3.0313532988657244e-05,-0.0002547365438658744,0.003862462705001235,0.08851630985736847,0.6000000238418579,0.0,-3.758613109588623,22.04766082763672,0
55355416,0.003482361091300845,0.08546391874551773,-23.513139724731445,-0.00044828688260167837,-0.0007178930100053549,3.012871093233116e-05,-0.0002461108670104295,0.0038635667879134417,0.08846478164196014,0.6000000238418579,0.0,-3.758450508117676,21.99944305419922,0
55365114,0.00630080234259367,0.0916522964835167,-23.50214958190918,-0.0003636283800005913,-0.00060666335048154,1.2961295396962669e-05,-0.00026866651023738086,0.0039201779291033745,0.08853916078805923,0.6000000238418579,0.0,-3.7269721031188965,22.086074829101562,0
55375393,0.005413456819951534,0.07795382291078568,-23.504154205322266,-0.0003113561833743006,-0.0008960488485172391,-2.666755108293728e-06,-0.0001821476180339232,0.003955259453505278,0.08834494650363922,0.6000000238418579,0.0,-3.6827778816223145,21.869720458984375,0
55385102,0.0029600635170936584,0.0783749595284462,-23.501842498779297,-0.0003310547035653144,-0.0011502442648634315,5.233835054241354e-06,-8.019604865694419e-05,0.003941984381526709,0.08817364275455475,0.6000000238418579,0.0,-3.707151412963867,21.73878288269043,0
55395157,-0.0005244289641268551,0.08805887401103973,-23.50275230407715,-0.000441234209574759,-0.0011274704011157155,6.147473322926089e-05,-9.182091162074357e-05,0.0038673761300742626,0.08818906545639038,0.6000000238418579,0.0,-3.8297765254974365,21.75043487548828,0
55405362,0.0006920737214386463,0.08723588287830353,-23.506994247436523,-0.0005110708298161626,-0.0011281121987849474,0.00010536127956584096,-9.141761984210461e-05,0.003819820238277316,0.08818862587213516,0.6000000238418579,0.0,-3.8946526050567627,21.75003433227539,0
55415128,0.005509847775101662,0.08971568197011948,-23.499330520629883,-0.0004586067225318402,-0.0010695643723011017,6.564403884112835e-05,-0.00013574048352893442,0.0038557846564799547,0.08822876214981079,0.6000000238418579,0.0,-3.8335154056549072,21.795412063598633,0
55425785,0.0034596568439155817,0.08071938902139664,-23.50506591796875,-0.0004581774410326034,-0.0012227955739945173,6.52582966722548e-05,1.9547123883967288e-06,0.0038560812827199697,0.08812287449836731,0.6000000238418579,0.0,-3.832821846008301,21.66757583618164,0
55435094,0.0041582235135138035,0.08623722195625305,-23.513639450073242,-0.000442902761278674,-0.0012422947911545634,4.912223812425509e-05,2.255353501823265e-05,0.0038667398039251566,0.08810926973819733,0.6000000238418579,0.0,-3.8018014430999756,21.65102195739746,0
55445104,0.004568522796034813,0.09168729186058044,-23.506731033325195,-0.0004211183695588261,-0.0011501091066747904,2.223067349405028e-05,-9.124429925577715e-05,0.0038821245543658733,0.08817437291145325,0.6000000238418579,0.0,-3.744083881378174,21.74834442138672,0
55455356,-0.000573370314668864,0.0884714126586914,-23.502676010131836,-0.0004987422144040465,-0.0011293143033981323,0.0001338692964054644,-0.00012115143908886239,0.003826477564871311,0.08818928152322769,0.6000000238418579,0.0,-3.95357608795166,21.776044845581055,0
55465109,0.0024803094565868378,0.08647123724222183,-23.500118255615234,-0.0005142279551364481,-0.0011463086120784283,0.00015981521573849022,-9.267789573641494e-05,0.003815164789557457,0.08817686885595322,0.6000000238418579,0.0,-3.992666482925415,21.749847412109375,0
55475344,0.001089337281882763,0.08502630889415741,-23.5151424407959,-0.0005499879480339587,-0.0011846148408949375,0.0002297921309946105,-1.7718293747748248e-05,0.0037884069606661797,0.08814820647239685,0.6000000238418579,0.0,-4.08711051940918,21.68412971496582,0
55485100,0.0030767139978706837,0.08896920084953308,-23.514610290527344,-0.0005524384905584157,-0.001161545398645103,0.00023542500275652856,-7.074591121636331e-05,0.003786515910178423,0.0881660059094429,0.6000000238418579,0.0,-4.0941925048828125,21.730005264282227,0
55495224,0.008290745317935944,0.09647253155708313,-23.498821258544922,-0.00048808439169079065,-0.0010466012172400951,6.0097685491200536e-05,-0.0003839014971163124,0.0038382140919566154,0.08825834840536118,0.6000000238418579,0.0,-3.8138561248779297,22.020742416381836,0
55505949,0.005868806969374418,0.08688242733478546,-23.497148513793945,-0.00046156684402376413,-0.0010580930393189192,-2.6719102606875822e-05,-0.00034627807326614857,0.003860678756609559,0.088248610496521,0.6000000238418579,0.0,-3.6335196495056152,21.98545265197754,0
55515043,0.0036911035422235727,0.0833798199892044,-23.499717712402344,-0.00046080665197223425,-0.001101054367609322,-2.977067015308421e-05,-0.00017382351506967098,0.0038613704964518547,0.08820951730012894,0.6000000238418579,0.0,-3.6268270015716553,21.82575035095215,0
55525420,0.005026375409215689,0.08987738192081451,-23.50531578063965,-0.00044990211608819664,-0.0010843751952052116,-8.508426981279626e-05,-0.0002584293542895466,0.003872329369187355,0.08822628110647202,0.6000000238418579,0.0,-3.5044331550598145,21.90312957763672,0
55535031,0.0015981660690158606,0.09453745931386948,-23.514331817626953,-0.0004627702583093196,-0.0010437597520649433,1.4230124634195818e-06,-0.0005314708687365055,0.0038574039936065674,0.08827339112758636,0.6000000238418579,0.0,-3.694417953491211,22.14014434814453,0
55545086,0.007556423544883728,0.09497677534818649,-23.515480041503906,-0.0004455931775737554,-0.0010142214596271515,-0.00016462747589685023,-0.0008170165820047259,0.0038822502829134464,0.08831612020730972,0.6000000238418579,0.0,-3.3374404907226562,22.347293853759766,0
55555390,0.010899159125983715,0.08503422886133194,-23.50128746032715,-0.00042694847797974944,-0.0010235535446554422,-0.0004719103453680873,-0.0006632149452343583,0.003921917174011469,0.08829626441001892,0.6000000238418579,0.0,-2.8559651374816895,22.24410629272461,0
55565127,0.013457276858389378,0.08326778560876846,-23.496864318847656,-0.00041861218051053584,-0.0010282131843268871,-0.0008849732112139463,-0.00043233102769590914,0.003967657685279846,0.08827069401741028,0.6000000238418579,0.0,-2.562380075454712,22.067197799682617,0
55575332,0.006558943074196577,0.09269952774047852,-23.506772994995117,-0.00042022348497994244,-0.0010318940039724112,-0.0009730198071338236,-0.0006334641366265714,0.003975968807935715,0.08828967809677124,0.6000000238418579,0.0,-2.528226375579834,22.219738006591797,0
55585099,0.007225308567285538,0.09217467904090881,-23.511470794677734,-0.00042655703146010637,-0.001041205832734704,-0.0010879100300371647,-0.0008023815462365746,0.003985144197940826,0.08830317109823227,0.6000000238418579,0.0,-2.4942140579223633,22.32574462890625,0
55595134,0.002194488188251853,0.0838826447725296,-23.51176643371582,-0.0004151780449319631,-0.001020660507492721,-0.0009623466175980866,-0.0005756709142588079,0.003976735752075911,0.08828798681497574,0.6000000238418579,0.0,-2.5278444290161133,22.182714462280273,0
55605358,-0.0013848590897396207,0.0802040621638298,-23.513137817382812,-0.00037871755193918943,-0.0009713139152154326,-0.0006708206492476165,-0.00018111176905222237,0.0039605344645679,0.08826605975627899,0.6000000238418579,0.0,-2.634498357772827,21.853515625,0
55615092,-0.0034859434235841036,0.07978544384241104,-23.50957489013672,-0.0003181946522090584,-0.0009076714632101357,-0.000289547024294734,0.0002198138099629432,0.003943158779293299,0.08824779093265533,0.6000000238418579,0.0,-2.953047513961792,21.43157196044922,0
55625814,0.0008638534345664084,0.08177661150693893,-23.50948715209961,-0.0002879249514080584,-0.0008519616676494479,-0.00013180497626308352,0.0005101299611851573,0.003937342204153538,0.08823708444833755,0.6000000238418579,0.0,-3.2620415687561035,21.129655838012695,0
55634997,0.009005357511341572,0.0804394781589508,-23.502378463745117,-0.00034081016201525927,-0.0007762506720609963,-0.000370518711861223,0.0008518748800270259,0.003944525960832834,0.0882268026471138,0.6000000238418579,0.0,-2.864203929901123,20.837358474731445,0
55645121,0.010429762303829193,0.08179645240306854,-23.503753662109375,-0.000416961353039369,-0.0007085672114044428,-0.000666046398691833,0.0011145410826429725,0.003951361868530512,0.08822073042392731,0.6000000238418579,0.0,-2.679882049560547,20.6646671295166,0
55655423,0.00910893827676773,0.08729854226112366,-23.508604049682617,-0.00047992024337872863,-0.0007121452363207936,-0.0008827089332044125,0.0011022279504686594,0.003955273889005184,0.08822095394134521,0.6000000238418579,0.0,-2.618532419204712,20.6720027923584,0
55665178,0.009789729490876198,0.08751412481069565,-23.504764556884766,-0.0005565062165260315,-0.0007188751478679478,-0.0011191749945282936,0.0010814487468451262,0.00395861966535449,0.0882212445139885,0.6000000238418579,0.0,-2.581989049911499,20.685039520263672,0
55675354,0.004180895164608955,0.08782483637332916,-23.50583839416504,-0.0005416619824245572,-0.0007306947954930365,-0.001077684573829174,0.001048412173986435,0.003958145622164011,0.08822162449359894,0.6000000238418579,0.0,-2.586284875869751,20.707054138183594,0
55685063,-0.002976609393954277,0.08165992051362991,-23.502099990844727,-0.00039546858170069754,-0.0006300157401710749,-0.0007052306900732219,0.0013049101689830422,0.0039544543251395226,0.08821908384561539,0.6000000238418579,0.0,-2.6316168308258057,20.548171997070312,0
55695154,0.0027601714245975018,0.0828072726726532,-23.49818992614746,-0.00035786282387562096,-0.0005488605820573866,-0.0006174471345730126,0.0014943515416234732,0.003953606355935335,0.08821725100278854,0.6000000238418579,0.0,-2.6458194255828857,20.45037078857422,0
55706007,0.0037842877209186554,0.09086745977401733,-23.50438690185547,-0.0003407875192351639,-0.0006344768335111439,-0.0005807796842418611,0.0013104992685839534,0.003953212406486273,0.08821922540664673,0.6000000238418579,0.0,-2.6511855125427246,20.54926300048828,0
55715063,0.003837024560198188,0.08975978195667267,-23.506351470947266,-0.0003244557592552155,-0.0006958221201784909,-0.0005484233261086047,0.001188962603919208,0.003952783066779375,0.08822083473205566,0.6000000238418579,0.0,-2.654778003692627,20.62786865234375,0
55725386,0.006576729938387871,0.08514369279146194,-23.503005981445312,-0.00037208152934908867,-0.0006484980112873018,-0.0006356548401527107,0.0012756414944306016,0.003954296000301838,0.08821932971477509,0.6000000238418579,0.0,-2.65012526512146,20.56869888305664,0
55735090,0.006630872841924429,0.08836914598941803,-23.501256942749023,-0.0004208936297800392,-0.0006798216491006315,-0.0007184143760241568,0.0012225331738591194,0.003956212196499109,0.08822055906057358,0.6000000238418579,0.0,-2.6505074501037598,20.605873107910156,0
55745032,0.008513063192367554,0.09300453960895538,-23.498525619506836,-0.0005179364234209061,-0.0008298294269479811,-0.0008708092500455678,0.0009869628120213747,0.003960920497775078,0.08822783827781677,0.6000000238418579,0.0,-2.6571156978607178,20.797500610351562,0
55755459,0.0032699964940547943,0.09233684837818146,-23.49881362915039,-0.0004729715292342007,-0.0009599272161722183,-0.0008054158533923328,0.0007977588684298098,0.003958249464631081,0.08823556452989578,0.6000000238418579,0.0,-2.6515300273895264,20.97577667236328,0
55765098,-0.001913990592584014,0.08565715700387955,-23.51190185546875,-0.00028308850596658885,-0.0009006947511807084,-0.0005498683312907815,0.0008774748421274126,0.0039446186274290085,0.08823131024837494,0.6000000238418579,0.0,-2.59598708152771,20.896831512451172,0
55775424,0.004111512564122677,0.08193330466747284,-23.511547088623047,-0.0002701269113458693,-0.0007329002837650478,-0.0005337502807378769,0.0010861314367502928,0.0039435094222426414,0.08821695297956467,0.6000000238418579,0.0,-2.5890557765960693,20.691974639892578,0
55785069,0.005993056111037731,0.0912599116563797,-23.506860733032227,-0.00031369016505777836,-0.000845896196551621,-0.0005836936761625111,0.0009565864456817508,0.003947897348552942,0.08822833746671677,0.6000000238418579,0.0,-2.6136820316314697,20.82244110107422,0
55795123,0.007629512809216976,0.09963849931955338,-23.504838943481445,-0.0004070198629051447,-0.001214536838233471,-0.0006820425624027848,0.0005681206239387393,0.00395883247256279,0.08827152848243713,0.6000000238418579,0.0,-2.6585845947265625,21.23164176940918,0
55805358,0.007500139530748129,0.09722785651683807,-23.49922752380371,-0.0004943694802932441,-0.001497938297688961,-0.0007663068827241659,0.00029472928144969046,0.003970616031438112,0.08830975741147995,0.6000000238418579,0.0,-2.6934921741485596,21.474897384643555,0
55815037,0.006942602340131998,0.08369884639978409,-23.502817153930664,-0.0005615898407995701,-0.001332542859017849,-0.000825366354547441,0.0004400448524393141,0.003980961162596941,0.08828430622816086,0.6000000238418579,0.0,-2.718005418777466,21.350217819213867,0
55825802,0.0018976530991494656,0.08245345950126648,-23.505701065063477,-0.0004588261363096535,-0.0011277137091383338,-0.000743682321626693,0.0006028579082340002,0.0039630611427128315,0.08824862539768219,0.6000000238418579,0.0,-2.673346996307373,21.178241729736328,0
55835093,0.0031127543188631535,0.08969704806804657,-23.507823944091797,-0.0004000790067948401,-0.0011732815764844418,-0.0007017864263616502,0.0005703608621843159,0.00395156117156148,0.08825754374265671,0.6000000238418579,0.0,-2.6386802196502686,21.216686248779297,0
55845155,-0.0019193253247067332,0.09235942363739014,-23.510587692260742,-0.0001682228612480685,-0.0013083966914564371,-0.0005550442147068679,0.00048484624130651355,0.003900864627212286,0.08828708529472351,0.6000000238418579,0.0,-2.4148263931274414,21.314294815063477,0
55855379,0.0006179214105941355,0.0875052735209465,-23.496604919433594,-3.304683923488483e-05,-0.0012662713415920734,-0.0004801877948921174,0.0005081739509478211,0.003868028987199068,0.08827685564756393,0.6000000238418579,0.0,-2.189258575439453,21.287532806396484,0
55865141,0.0075111063197255135,0.08877696841955185,-23.494321823120117,-0.00014968012692406774,-0.0012693015160039067,-0.000535625615157187,0.0005067336605861783,0.0038993561174720526,0.088277667760849,0.6000000238418579,0.0,-2.3930439949035645,21.289337158203125,0
55875354,0.011715510860085487,0.09112491458654404,-23.504968643188477,-0.00041550921741873026,-0.0013557628262788057,-0.0006412169896066189,0.00047238991828635335,0.0039779795333743095,0.08830323815345764,0.6000000238418579,0.0,-2.695514678955078,21.33389663696289,0
55885054,0.006055487785488367,0.09393990784883499,-23.503646850585938,-0.0004642586864065379,-0.0015407282626256347,-0.000656775024253875,0.0004133594629820436,0.003993798512965441,0.08836326003074646,0.6000000238418579,0.0,-2.735872268676758,21.40705680847168,0
55895069,0.00442353542894125,0.0884464904665947,-23.510957717895508,-0.00045091353240422904,-0.001513320137746632,-0.0006535630091093481,0.0004199563118163496,0.003989062272012234,0.08835352957248688,0.6000000238418579,0.0,-2.724482536315918,21.39847755432129,0
55905921,0.005234004929661751,0.08289259672164917,-23.5125789642334,-0.00046856055269017816,-0.0012780519900843501,-0.0006564141367562115,0.00045796719496138394,0.003995893057435751,0.08826246112585068,0.6000000238418579,0.0,-2.7404861450195312,21.32509422302246,0
55915099,0.004460497293621302,0.0879775658249855,-23.49805450439453,-0.00045677291927859187,-0.0012414436787366867,-0.0006554557476192713,0.00046094361459836364,0.0039909277111291885,0.08824703842401505,0.6000000238418579,0.0,-2.7291741371154785,21.31365203857422,0
55925413,0.0018486020853742957,0.09261593967676163,-23.495399475097656,-0.00034787337062880397,-0.0013788461219519377,-0.0006554932915605605,0.00046099096653051674,0.003941114991903305,0.0883098915219307,0.6000000238418579,0.0,-2.608454704284668,21.34652328491211,0
55935020,0.0042961067520082,0.09304491430521011,-23.503734588623047,-0.00033634548890404403,-0.0015241018263623118,-0.0006564600626006722,0.0004731726658064872,0.003935398533940315,0.08838192373514175,0.6000000238418579,0.0,-2.5940346717834473,21.368146896362305,0
55945104,0.00805698987096548,0.08762010186910629,-23.504762649536133,-0.0004663785803131759,-0.001457622041925788,-0.0006343880668282509,0.00046188829583115876,0.004005213733762503,0.08834622800350189,0.6000000238418579,0.0,-2.754483699798584,21.3623046875,0
55955404,0.007285400293767452,0.08637664467096329,-23.50615882873535,-0.0005611866363324225,-0.0013469245750457048,-0.0006098885787650943,0.00043328283936716616,0.00406026653945446,0.08828195184469223,0.6000000238418579,0.0,-2.8643808364868164,21.35794448852539,0
55965032,0.004988522734493017,0.09588605910539627,-23.501474380493164,-0.0005664350464940071,-0.0015909046633169055,-0.0006080487510189414,0.0005188104114495218,0.004063560161739588,0.08843506872653961,0.6000000238418579,0.0,-2.870527744293213,21.35393714904785,0
55975394,0.0022361946757882833,0.09402643144130707,-23.493152618408203,-0.0004717331030406058,-0.0017508527962490916,-0.0006503487238660455,0.0005902535049244761,0.003999356646090746,0.08854350447654724,0.6000000238418579,0.0,-2.748086452484131,21.34401512145996,0
55985107,-0.0025528569240123034,0.08832163363695145,-23.494140625,-0.00021235823805909604,-0.0016946648247539997,-0.0007923873490653932,0.0005594839458353817,0.003809419460594654,0.08850236237049103,0.6000000238418579,0.0,-2.3823909759521484,21.350296020507812,0
55995200,0.005245574750006199,0.08610033243894577,-23.498703002929688,-0.00024529779329895973,-0.001562831923365593,-0.0007708375924266875,0.00047323614126071334,0.003835477866232395,0.08839806914329529,0.6000000238418579,0.0,-2.428635597229004,21.37514305114746,0
56005325,0.010856712237000465,0.09035026282072067,-23.50863265991211,-0.00046901238965801895,-0.0015850546769797802,-0.0005991120706312358,0.000490294536575675,0.004026778507977724,0.08841707557439804,0.6000000238418579,0.0,-2.7847394943237305,21.369184494018555,0
56015100,0.0030066592153161764,0.09401171654462814,-23.514135360717773,-0.00041392596904188395,-0.0017264534253627062,-0.0006480845622718334,0.0006159997428767383,0.003975817002356052,0.08854788541793823,0.6000000238418579,0.0,-2.6889305114746094,21.326452255249023,0
56025845,0.003643799340352416,0.08714485913515091,-23.502565383911133,-0.0003846141917165369,-0.0016328811179846525,-0.0006779803079552948,0.0005205631605349481,0.00394644308835268,0.08845411241054535,0.6000000238418579,0.0,-2.6365699768066406,21.360557556152344,0
56035031,0.0032708770595490932,0.08278927952051163,-23.49372673034668,-0.0003469392249826342,-0.0014108587056398392,-0.0007217721431516111,0.00026249344227835536,0.0039054742082953453,0.08821267634630203,0.6000000238418579,0.0,-2.5686161518096924,21.4852237701416,0
56045099,0.007216745987534523,0.08684683591127396,-23.495542526245117,-0.0004313642857596278,-0.0013303551822900772,-0.0006104491767473519,0.0001563414407428354,0.004005315247923136,0.08811747282743454,0.6000000238418579,0.0,-2.735710859298706,21.55219078063965,0
56055396,0.008782103657722473,0.10065705329179764,-23.49678611755371,-0.0005523830186575651,-0.0016506233951076865,-0.00042991049122065306,0.0006341253756545484,0.004161398857831955,0.0885305404663086,0.6000000238418579,0.0,-3.029984474182129,21.302383422851562,0
56065007,0.00473680580034852,0.09957517683506012,-23.507055282592773,-0.0005516313249245286,-0.0019068721449002624,-0.0004311628290452063,0.001061032060533762,0.004160347394645214,0.08888901770114899,0.6000000238418579,0.0,-3.0279135704040527,21.161409378051758,0
56075411,-0.00226223049685359,0.08909177035093307,-23.512048721313477,-0.0003740014508366585,-0.0018662383081391454,-0.0007699693087488413,0.0009835280943661928,0.003884619800373912,0.08882594108581543,0.6000000238418579,0.0,-2.5727171897888184,21.18415069580078,0
56085105,-0.005524877458810806,0.08302953839302063,-23.50198745727539,-0.00014193981769494712,-0.0016864127246662974,-0.0012713553151115775,0.0005950018530711532,0.0034866156056523323,0.08851752430200577,0.6000000238418579,0.0,-2.2317302227020264,21.329986572265625,0
56095162,-0.006457011215388775,0.08503773808479309,-23.494792938232422,7.852464477764443e-05,-0.001573826652020216,-0.0018129630479961634,0.00031841546297073364,0.0030660759657621384,0.08830276131629944,0.6000000238418579,0.0,-2.0772604942321777,21.469547271728516,0
56105957,0.0028895046561956406,0.09508844465017319,-23.502792358398438,7.95708765508607e-05,-0.0016776063712313771,-0.0018159023020416498,0.0006099697784520686,0.003063838230445981,0.08852473646402359,0.6000000238418579,0.0,-2.0767555236816406,21.320436477661133,0
56115042,0.006318781524896622,0.09281334280967712,-23.51032829284668,1.754985896695871e-05,-0.0017239368753507733,-0.001615028944797814,0.0007600245880894363,0.0032141227275133133,0.08863700181245804,0.6000000238418579,0.0,-2.10968017578125,21.253938674926758,0
56125442,0.006733681540936232,0.08651642501354218,-23.51215934753418,-4.151475877733901e-05,-0.001661471906118095,-0.001391966943629086,0.000524120987392962,0.0033784217666834593,0.08846324682235718,0.6000000238418579,0.0,-2.150362014770508,21.36359405517578,0
56135111,0.002367716981098056,0.08442177623510361,-23.50851058959961,-2.956301068479661e-05,-0.0015814333455637097,-0.001445425907149911,0.00016611668979749084,0.0033395905047655106,0.08820319920778275,0.6000000238418579,0.0,-2.1409964561462402,21.564512252807617,0
56145012,0.005678296554833651,0.08888531476259232,-23.50238609313965,-6.00853563810233e-05,-0.0015706387348473072,-0.0012833400396630168,0.0001087927957996726,0.0034560044296085835,0.08816202729940414,0.6000000238418579,0.0,-2.1673316955566406,21.600013732910156,0
56155366,0.0033276574686169624,0.08882211148738861,-23.499128341674805,-6.090450915507972e-05,-0.0015619893092662096,-0.0012777828378602862,5.01141621498391e-05,0.003459947183728218,0.08812039345502853,0.6000000238418579,0.0,-2.1681745052337646,21.637096405029297,0
56165019,0.007775775622576475,0.08894241601228714,-23.49570655822754,-9.506523929303512e-05,-0.0015567371156066656,-0.0009729960584081709,3.253299837524537e-06,0.003674074774608016,0.08808746933937073,0.6000000238418579,0.0,-2.2179408073425293,21.66707992553711,0
56175358,0.005842965561896563,0.09100911021232605,-23.501739501953125,-0.0001075262189260684,-0.0015642954967916012,-0.0008135457755997777,9.997205052059144e-05,0.003785132197663188,0.08815483748912811,0.6000000238418579,-10012556.0,-10012558.0,-10012534.0,0
56185058,0.004991488065570593,0.0934448391199112,-23.505157470703125,-0.00011074007488787174,-0.0016049620462581515,-0.0008357430342584848,-0.0001809015666367486,0.003781976643949747,0.0881149098277092,0.6000000238418579,-10012556.0,-8.0,10.0,0
56195143,0.006697580683976412,0.08937457948923111,-23.5025634765625,-0.00012727096327580512,-0.0016102308873087168,-0.0009499175939708948,-0.00021729216678068042,0.0037657450884580612,0.08810973912477493,0.6000000238418579,-10012556.0,-8.001450538635254,10.021894454956055,0
56205362,0.005948880687355995,0.0869721919298172,-23.505813598632812,-0.0001368111406918615,-0.0015965324128046632,-0.0010158091317862272,-0.00012268024147488177,0.003756377613171935,0.08812318742275238,0.6000000238418579,-10012556.0,-8.0021390914917,9.96445083618164,0
56215057,0.00593025516718626,0.0832580178976059,-23.504369735717773,-0.00014554157678503543,-0.0015557892620563507,-0.0010761079611256719,0.0001587220176588744,0.003747805254533887,0.08816318958997726,0.6000000238418579,-10012556.0,-8.002695083618164,9.786090850830078,0
56225773,0.0041328794322907925,0.08644341677427292,-23.500137329101562,-0.00014045437274035066,-0.0015412518987432122,-0.0010409719543531537,0.0002591279917396605,0.003752800403162837,0.08817746490240097,0.6000000238418579,-10012556.0,-8.002378463745117,9.721189498901367,0
56235078,0.003810680704191327,0.09482923895120621,-23.51270866394043,-0.00013338684220798314,-0.0015879413112998009,-0.000992158311419189,-6.334338831948116e-05,0.0037597399204969406,0.0881316214799881,0.6000000238418579,-10012556.0,-8.001901626586914,9.927629470825195,0
56245134,0.005911173298954964,0.08949746936559677,-23.517736434936523,-0.00014153232041280717,-0.0015941751189529896,-0.0010484170634299517,-0.00010639835090842098,0.0037517419550567865,0.08812549710273743,0.6000000238418579,-10012556.0,-8.002447128295898,9.954402923583984,0
56255372,0.008553294464945793,0.0842663049697876,-23.511207580566406,-0.00026732220430858433,-0.0014377526240423322,-0.0010355046251788735,-0.00012245523976162076,0.003792595351114869,0.088074691593647,0.6000000238418579,-10012556.0,-8.120903015136719,9.972725868225098,0
56265001,0.0051803081296384335,0.08804336190223694,-23.503986358642578,-0.00029070780146867037,-0.0013968008570373058,-0.0010331040248274803,-0.00012665896792896092,0.0038001902867108583,0.0880613923072815,0.6000000238418579,-10012556.0,-8.142561912536621,9.978190422058105,0
56275329,0.007831419818103313,0.09236808866262436,-23.49468421936035,-0.00038718260475434363,-0.0014790510758757591,-0.0010232008062303066,-0.00011821592488558963,0.003831522772088647,0.08808810263872147,0.6000000238418579,-10012556.0,-8.230012893676758,9.967516899108887,0
56285093,0.006802489049732685,0.08922749012708664,-23.4984073638916,-0.0004505149263422936,-0.001470577553845942,-0.0010166997089982033,-0.00011908572923857719,0.003852091496810317,0.0880853533744812,0.6000000238418579,-10012556.0,-8.285375595092773,9.968562126159668,0
56295162,0.0037228239234536886,0.08520243316888809,-23.504060745239258,-0.0004270083736628294,-0.0013530045980587602,-0.0010191126493737102,-0.00013115472393110394,0.0038444572128355503,0.08804716914892197,0.6000000238418579,-10012556.0,-8.265039443969727,9.984394073486328,0
56305874,0.002237327629700303,0.08346492052078247,-23.509010314941406,-0.0003647533303592354,-0.0011943652061745524,-0.001025503152050078,-0.00014743917563464493,0.003824238432571292,0.08799564838409424,0.6000000238418579,-10012556.0,-8.209989547729492,10.010583877563477,0
56315133,0.007764756213873625,0.08740326762199402,-23.510461807250977,-0.0004517229099292308,-0.00114734610542655,-0.0010165756102651358,-0.00015226572577375919,0.003852483816444874,0.08798037469387054,0.6000000238418579,-10012556.0,-8.286413192749023,10.019700050354004,0
56325412,0.008047746494412422,0.08883007615804672,-23.50421142578125,-0.0005421324167400599,-0.0011397545458748937,-0.0010072949808090925,-0.0001530450099380687,0.0038818465545773506,0.08797790855169296,0.6000000238418579,-10012556.0,-8.362005233764648,10.021240234375,0
56335128,0.007170409429818392,0.08715696632862091,-23.50060272216797,-0.0006058607832528651,-0.0010893209837377071,-0.0010007532546296716,-0.0001582220575073734,0.0039025438018143177,0.08796153217554092,0.6000000238418579,-10012556.0,-8.412646293640137,10.031999588012695,0
56345132,0.0002303109795320779,0.08201466500759125,-23.50977897644043,-0.0004898373153991997,-0.0009099842864088714,-0.0010126631241291761,-0.00017663108883425593,0.003864862257614732,0.08790329098701477,0.6000000238418579,-10012556.0,-8.318794250488281,10.079479217529297,0
56355344,0.00711423484608531,0.08397684246301651,-23.506561279296875,-0.0005522906430996954,-0.0007878284668549895,-0.0010062522487714887,-0.0001891704450827092,0.0038851455319672823,0.08786361664533615,0.6000000238418579,-10012556.0,-8.370227813720703,10.123414993286133,0
56365104,0.007872150279581547,0.09159714728593826,-23.511011123657227,-0.0006309783784672618,-0.0008607093477621675,-0.0009981748880818486,-0.00018168917449656874,0.003910701256245375,0.08788728713989258,0.6000000238418579,-10012556.0,-8.43197250366211,10.09579849243164,0
56375374,0.0008229197119362652,0.09028314054012299,-23.513044357299805,-0.0005326818791218102,-0.0008981707505881786,-0.0010082650696858764,-0.00017784374358598143,0.0038787771482020617,0.08789945393800735,0.6000000238418579,-10012556.0,-8.354303359985352,10.08323860168457,0
56385056,-0.0018608665559440851,0.0836983174085617,-23.502769470214844,-0.00037299314863048494,-0.0007735621184110641,-0.0010246571619063616,-0.0001906348770717159,0.003826914355158806,0.08785898238420486,0.6000000238418579,-10012556.0,-8.217368125915527,10.129383087158203,0
56395114,0.0006476068519987166,0.08793942630290985,-23.49706268310547,-0.0002802833914756775,-0.0007563185645267367,-0.0010341738816350698,-0.00019240494293626398,0.0037968046963214874,0.08785337954759598,0.6000000238418579,-10012556.0,-8.13292407989502,10.136872291564941,0
56405347,0.0031930957920849323,0.09256619215011597,-23.498428344726562,-0.0002520668786019087,-0.0008502771379426122,-0.001037070294842124,-0.0001827600208343938,0.0037876407150179148,0.08788389712572098,0.6000000238418579,-10012556.0,-8.106693267822266,10.099479675292969,0
56415099,0.005183545406907797,0.09418893605470657,-23.499849319458008,-0.0002720396441873163,-0.0009789339965209365,-0.0010350201046094298,-0.00016955325554590672,0.0037941273767501116,0.08792567998170853,0.6000000238418579,-10012556.0,-8.125282287597656,10.059259414672852,0
56425715,0.0015796065563336015,0.09018927067518234,-23.511178970336914,-0.00020679594308603555,-0.0010088994167745113,-0.0010417174780741334,-0.00016647727170493454,0.00377293792553246,0.08793541043996811,0.6000000238418579,-10012556.0,-8.064227104187012,10.051294326782227,0
56435019,0.0007878753822296858,0.08468642085790634,-23.510271072387695,-0.00012565866927616298,-0.0009099653107114136,-0.0010500462958589196,-0.00017663298058323562,0.0037465866189450026,0.08790327608585358,0.6000000238418579,-10012556.0,-7.987363815307617,10.079484939575195,0
56445007,0.002701403107494116,0.08650752902030945,-23.502037048339844,-9.160319314105436e-05,-0.0008566557080484927,-0.0010535421315580606,-0.0001821052865125239,0.003735526232048869,0.08788596093654633,0.6000000238418579,-10012556.0,-7.954990386962891,10.09721851348877,0
56455343,0.004374390002340078,0.09207252413034439,-23.499095916748047,-9.697434143163264e-05,-0.0009322689147666097,-0.0010529907885938883,-0.00017434346955269575,0.003737270599231124,0.08791051805019379,0.6000000238418579,-10012556.0,-7.9600958824157715,10.072633743286133,0
56465021,0.008165916427969933,0.08946140110492706,-23.496170043945312,-0.00018791211186908185,-0.0009460499859414995,-0.0010436559095978737,-0.0001729288196656853,0.00376680470071733,0.08791499584913254,0.6000000238418579,-10012556.0,-8.046403884887695,10.068553924560547,0
56475424,0.002607300179079175,0.08694518357515335,-23.495065689086914,-0.00015085338964127004,-0.0009028809145092964,-0.0010474600130692124,-0.00017736019799485803,0.0037547689862549305,0.08790097385644913,0.6000000238418579,-10012556.0,-8.011295318603516,10.081727981567383,0
56485096,0.001713089062832296,0.09169008582830429,-23.50596046447754,-9.521542233414948e-05,-0.0009668614366091788,-0.0010531713487580419,-0.00017079249664675444,0.0037366992328315973,0.08792175352573395,0.6000000238418579,-10012556.0,-7.958423614501953,10.062602043151855,0
56495147,0.003272928996011615,0.09478051960468292,-23.507606506347656,-7.59898975957185e-05,-0.0010968385031446815,-0.0010551449377089739,-0.00015745012206025422,0.003730455180630088,0.08796396851539612,0.6000000238418579,-10012556.0,-7.940155029296875,10.03033447265625,0
56505987,0.008865292184054852,0.09319083392620087,-23.50375747680664,-0.00018001734861172736,-0.0011874391930177808,-0.0010444663930684328,-0.00014814981841482222,0.00376424053683877,0.08799339085817337,0.6000000238418579,-10012556.0,-8.03893756866455,10.011882781982422,0
56515022,0.00826698075979948,0.08668100833892822,-23.500017166137695,-0.00026744147180579603,-0.0011332667199894786,-0.001035492168739438,-0.00015371068730019033,0.0037926335353404284,0.08797580003738403,0.6000000238418579,-10012556.0,-8.121012687683105,10.02257251739502,0
56525386,0.014661029912531376,0.08111581206321716,-23.497962951660156,0.0003085580829065293,-0.001521370722912252,0.0008940944098867476,-0.0014538508839905262,0.0051567163318395615,0.08705668896436691,0.6000000238418579,-10012556.0,-5.0589776039123535,10.650467872619629,0
56535389,0.009470310062170029,0.08440928906202316,-23.51017951965332,0.00048137226258404553,-0.001646673888899386,0.0014730182010680437,-0.0018736139172688127,0.005565974861383438,0.08675994724035263,0.6000000238418579,-10012556.0,-5.0425214767456055,10.73753547668457,0
56545134,0.0007828347734175622,0.09234727919101715,-23.52061653137207,0.00027770226006396115,-0.0014366897521540523,0.0007907279650680721,-0.0011701715411618352,0.005083643365651369,0.08725722879171371,0.6000000238418579,-10012556.0,-5.064410209655762,10.571274757385254,0
56555344,0.0015906746266409755,0.09155985713005066,-23.511192321777344,0.00014945633301977068,-0.0013029280817136168,0.0003611068532336503,-0.0007220726693049073,0.004779931157827377,0.08757400512695312,0.6000000238418579,-10012556.0,-5.119086265563965,10.393815994262695,0
56565129,-4.930150680593215e-05,0.08912284672260284,-23.50600814819336,-1.8844996247935342e-06,-0.001271991292014718,-0.00014588165504392236,-0.0006184351514093578,0.00442152563482523,0.08764726668596268,0.6000000238418579,-10012556.0,-7.881178379058838,10.340302467346191,0
56575017,0.00406196853145957,0.08973035961389542,-23.501466751098633,-9.363448043586686e-06,-0.0012299867812544107,-0.00017093597853090614,-0.00047772101243026555,0.00440381420776248,0.08774673938751221,0.6000000238418579,-10012556.0,-7.9229841232299805,10.258222579956055,0
56585314,0.01233635377138853,0.08685915172100067,-23.497135162353516,0.000197698813281022,-0.0012693112948909402,0.0005227182991802692,-0.0006094574928283691,0.004894179292023182,0.08765361458063126,0.6000000238418579,-10012556.0,-5.088253021240234,10.335400581359863,0
56595145,0.00972555298358202,0.08469187468290329,-23.510807037353516,0.00030896966927684844,-0.0013541931984946132,0.0008954732911661267,-0.0008938100072555244,0.0051576909609138966,0.08745259791612625,0.6000000238418579,-10012556.0,-5.058913230895996,10.471155166625977,0
56605391,0.007760230451822281,0.08478935807943344,-23.51799964904785,0.0003596814058255404,-0.0014242471661418676,0.0010653565404936671,-0.0011284893844276667,0.0052777864038944244,0.08728669583797455,0.6000000238418579,-10012556.0,-5.0522685050964355,10.55781364440918,0
56615122,0.004678788129240274,0.08428317308425903,-23.510305404663086,0.00033853325294330716,-0.0014952239580452442,0.000994510599412024,-0.001366260345093906,0.005227703135460615,0.08711861073970795,0.6000000238418579,-10012556.0,-5.05476713180542,10.628120422363281,0
56625111,0.0033237820025533438,0.08608105033636093,-23.502071380615234,0.0002932137285824865,-0.0015212566358968616,0.0008426911081187427,-0.0014534691581502557,0.005120377521961927,0.0870569571852684,0.6000000238418579,-10012556.0,-5.0615153312683105,10.650375366210938,0
56635494,0.004242930561304092,0.08452314883470535,-23.504179000854492,0.00027075110119767487,-0.0015734609914943576,0.0007674418156966567,-0.0016283525619655848,0.005067181307822466,0.08693332970142365,0.6000000238418579,-10012556.0,-5.06583309173584,10.690301895141602,0
56645111,0.004321747925132513,0.08259855210781097,-23.50930404663086,0.0002522930153645575,-0.001654159976169467,0.0007056075846776366,-0.0018986925715580583,0.005023468751460314,0.08674221485853195,0.6000000238418579,-10012556.0,-5.070057392120361,10.741878509521484,0
56655403,0.003727319184690714,0.0906456708908081,-23.510305404663086,0.00022567085397895426,-0.0015882288571447134,0.0006164239021018147,-0.0016778248827904463,0.004960421938449144,0.08689834922552109,0.6000000238418579,-10012556.0,-5.077610969543457,10.70058536529541,0
56665035,0.006758298724889755,0.09541671723127365,-23.50473976135254,0.0002515238302294165,-0.001450884505175054,0.0007030307897366583,-0.0012177242897450924,0.005021647084504366,0.0872236117720604,0.6000000238418579,-10012556.0,-5.070249080657959,10.586009979248047,0
56675089,0.012099540792405605,0.09372883290052414,-23.501296997070312,0.00035894112079404294,-0.001353692845441401,0.001062876544892788,-0.0008921341504901648,0.0052760327234864235,0.08745378255844116,0.6000000238418579,-10012556.0,-5.0523505210876465,10.470463752746582,0
56685395,0.0067323483526706696,0.08698458224534988,-23.503440856933594,0.0003748715971596539,-0.0013678964460268617,0.001116243307478726,-0.0009397157118655741,0.005313759204000235,0.08742014318704605,0.6000000238418579,-10012556.0,-5.0506672859191895,10.489694595336914,0
56695141,0.0025378696154803038,0.08398956805467606,-23.500722885131836,0.00032804161310195923,-0.0014246046775951982,0.0009593638824298978,-0.0011296870652586222,0.005202856380492449,0.0872858464717865,0.6000000238418579,-10012556.0,-5.0561418533325195,10.558208465576172,0
56706030,-0.0050986409187316895,0.08351623266935349,-23.509735107421875,0.0001773715193849057,-0.0014830930158495903,0.00045462229172699153,-0.0013256216188892722,0.004846039228141308,0.08714733272790909,0.6000000238418579,-10012556.0,-5.098655700683594,10.617152214050293,0
56715006,-0.003233392257243395,0.08788783848285675,-23.51462173461914,6.473941903095692e-05,-0.0014769240515306592,7.7307406172622e-05,-0.0013049555709585547,0.004579303786158562,0.08716194331645966,0.6000000238418579,-10012556.0,-5.423818588256836,10.611419677734375,0
56725092,0.0058101145550608635,0.09190187603235245,-23.511720657348633,8.10668570920825e-05,-0.001418007886968553,0.0001320039591519162,-0.0011075875954702497,0.004617970436811447,0.08730147033929825,0.6000000238418579,-10012556.0,-5.277408599853516,10.550862312316895,0
56735341,0.0012136572040617466,0.09067408740520477,-23.510311126708984,3.692775862873532e-05,-0.001379449269734323,-1.5860969142522663e-05,-0.000978416996076703,0.004513440188020468,0.08739278465509415,0.6000000238418579,-10012556.0,-5.277408599853516,10.504688262939453,0
56745092,-5.367569247027859e-05,0.08818022161722183,-23.501354217529297,-1.980276829272043e-05,-0.0013750010402873158,-0.00020590669009834528,-0.0009635155438445508,0.004379091318696737,0.0874033197760582,0.6000000238418579,-10012556.0,-7.964139461517334,10.498981475830078,0
56755344,0.005528707522898912,0.09255821257829666,-23.497371673583984,-4.35534275311511e-06,-0.0013174673076719046,-0.00015415824600495398,-0.0007707793265581131,0.004415673669427633,0.08753956854343414,0.6000000238418579,-10012556.0,-7.896505832672119,10.417112350463867,0
56765104,0.0035327738150954247,0.0929529070854187,-23.507261276245117,-1.3720802598982118e-05,-0.0012592448620125651,-0.00018553229165263474,-0.0005757356411777437,0.004393494222313166,0.08767744898796082,0.6000000238418579,-10012556.0,-7.942080497741699,10.3165922164917,0
56775054,0.0016986021073535085,0.09066829830408096,-23.51392364501953,-4.374529089545831e-05,-0.0012314694467931986,-0.00028611355810426176,-0.00048268859973177314,0.00432239007204771,0.08774323016405106,0.6000000238418579,-10012556.0,-8.019981384277344,10.26131820678711,0
56785303,-0.001467648078687489,0.0917159765958786,-23.516681671142578,-0.0007161794346757233,-0.0006685698172077537,-0.0007085902616381645,-0.00012903017341159284,0.0037704329006373882,0.08820527791976929,0.6000000238418579,-10012556.0,-8.65898609161377,10.078411102294922,0
56795138,0.0006794031360186636,0.09008920937776566,-23.506919860839844,-0.0009560245671309531,-0.0004500006907619536,-0.0008592800586484373,8.292353413708042e-06,0.0035735596902668476,0.08838468790054321,0.6000000238418579,-10012556.0,-8.706903457641602,9.869335174560547,0
56805381,0.0050484975799918175,0.08865907043218613,-23.495027542114258,-0.0007328587234951556,-0.0004206209850963205,-0.000719069445040077,2.675103496585507e-05,0.0037567419931292534,0.08840880542993546,0.6000000238418579,-10012556.0,-8.663156509399414,9.824247360229492,0
56815031,0.004585032816976309,0.08089768886566162,-23.495079040527344,-0.0006002284935675561,-0.0010286375181749463,-0.0006357405800372362,-0.00035525343264453113,0.003865609411150217,0.08790972083806992,0.6000000238418579,-10012556.0,-8.624935150146484,10.220298767089844,0
56825090,0.0062986924313008785,0.08257336169481277,-23.503063201904297,-0.00037098699249327183,-0.001383336610160768,-0.00048510346096009016,-0.0005883301491849124,0.004060336854308844,0.08760842680931091,0.6000000238418579,-10012556.0,-8.521141052246094,10.289883613586426,0
56835489,0.012720552273094654,0.08385946601629257,-23.508190155029297,0.00023610769130755216,-0.0015811276389285922,-5.825757762067951e-05,-0.0007273962837643921,0.004603730048984289,0.08743138611316681,0.6000000238418579,-10012556.0,-6.539374351501465,10.318940162658691,0
56845063,0.013768184930086136,0.08509429544210434,-23.517271041870117,0.0008098605321720243,-0.0016696847742423415,0.00035837016184814274,-0.0007917016628198326,0.005123442970216274,0.08735117316246033,0.6000000238418579,-10012556.0,-5.880858421325684,10.330525398254395,0
56855417,0.009102318435907364,0.0859636515378952,-23.510229110717773,0.0010205806465819478,-0.0016932844882830977,0.0005145170143805444,-0.000809189397841692,0.00531431008130312,0.08732979744672775,0.6000000238418579,-10012556.0,-5.830509662628174,10.33355712890625,0
56865085,0.00371811562217772,0.08226713538169861,-23.50525665283203,0.0008922107517719269,-0.0019260197877883911,0.00041762134060263634,-0.0009848617482930422,0.005198038648813963,0.08711899816989899,0.6000000238418579,-10012556.0,-5.859682083129883,10.360443115234375,0
56875083,-0.0020382902584969997,0.08281795680522919,-23.507625579833984,0.00046263690455816686,-0.002096737502142787,8.785822137724608e-05,-0.0011159133864566684,0.00480896420776844,0.08696437627077103,0.6000000238418579,-10012556.0,-6.109792232513428,10.376846313476562,0
56885363,0.0022147323470562696,0.08798907697200775,-23.50592041015625,0.0003163641085848212,-0.0019689660985022783,-2.6178136977250688e-05,-0.001016300986520946,0.004676486365497112,0.08708009868860245,0.6000000238418579,-10012556.0,-6.38002347946167,10.364252090454102,0
56895099,0.004445572383701801,0.09011343121528625,-23.507549285888672,0.0003037539718206972,-0.0017476619686931372,-3.615003515733406e-05,-0.0008412970346398652,0.00466506602242589,0.0872805267572403,0.6000000238418579,-10012556.0,-6.415918350219727,10.336404800415039,0
56905987,0.002895822748541832,0.08384386450052261,-23.515094757080078,0.00021520232257898897,-0.001866895123384893,-0.00010710067726904526,-0.0009368307655677199,0.004584872163832188,0.08717254549264908,0.6000000238418579,-10012556.0,-6.759249687194824,10.352856636047363,0
56915033,0.0023911858443170786,0.08011694252490997,-23.50582504272461,0.00011267954687355086,-0.0021527213975787163,-0.0001902494695968926,-0.0011686437064781785,0.004492029547691345,0.08691370487213135,0.6000000238418579,-10012556.0,-7.333542346954346,10.385110855102539,0
56925127,0.0013842827174812555,0.0887124314904213,-23.505563735961914,-2.5471554181422107e-05,-0.0020007791463285685,-0.0003035637200810015,-0.00104401761200279,0.0043669273145496845,0.08705129474401474,0.6000000238418579,-10012556.0,-7.951972961425781,10.368699073791504,0
56935319,-0.006109361536800861,0.09308721125125885,-23.50912857055664,-0.0004914803430438042,-0.001665406976826489,-0.0006898202700540423,-0.0007660406990908086,0.003944953437894583,0.08735497295856476,0.6000000238418579,-10012556.0,-8.487310409545898,10.318875312805176,0
56945102,0.0023303001653403044,0.093205526471138,-23.505779266357422,-0.000530255667399615,-0.001361244823783636,-0.0007222751155495644,-0.0005114579107612371,0.003909843508154154,0.08763038367033005,0.6000000238418579,-10012556.0,-8.501537322998047,10.24716854095459,0
56955362,0.006347713526338339,0.08571509271860123,-23.50803565979004,-0.00039017529343254864,-0.0014151243958622217,-0.0006039537838660181,-0.0005569682107307017,0.004036675672978163,0.08758159726858139,0.6000000238418579,-10012556.0,-8.441843032836914,10.26272201538086,0
56965107,0.0074245077557861805,0.08522848784923553,-23.509550094604492,-0.00021884801390115172,-0.0014840976800769567,-0.0004579985688906163,-0.0006157271564006805,0.004191792104393244,0.08751914650201797,0.6000000238418579,-10012556.0,-8.314020156860352,10.281030654907227,0
56975102,0.007766011171042919,0.08911825716495514,-23.502614974975586,-5.0620161346159875e-05,-0.0013847814407199621,-0.0003135323349852115,-0.0005304390215314925,0.004344095475971699,0.08760906010866165,0.6000000238418579,-10012556.0,-8.02833080291748,10.253568649291992,0
56985409,0.0067151989787817,0.09248756617307663,-23.50567054748535,5.843078179168515e-05,-0.0011585720349103212,-0.00021917809499427676,-0.0003347156452946365,0.004442818462848663,0.0878138467669487,0.6000000238418579,-10012556.0,-7.607729911804199,10.16900634765625,0
56995169,0.010376457124948502,0.09152816236019135,-23.503570556640625,0.00030235297163017094,-0.0009922068566083908,-6.632133136008633e-06,-0.00018975036800839007,0.004663628526031971,0.08796444535255432,0.6000000238418579,-10012556.0,-6.319396495819092,10.076719284057617,0
57005337,0.005605960730463266,0.09022229164838791,-23.504417419433594,0.0003377973334863782,-0.0008922776905819774,2.4459261112497188e-05,-0.00010209363972535357,0.0046957130543887615,0.08805490285158157,0.6000000238418579,-10012556.0,-6.225183010101318,10.001684188842773,0
57015100,0.004241190850734711,0.09116742014884949,-23.51445770263672,0.0003179413906764239,-0.0007655115332454443,6.93213314661989e-06,9.80473942036042e-06,0.004677740391343832,0.0881696492433548,0.6000000238418579,-10012556.0,-6.275665283203125,9.87495231628418,0
57025118,0.00930956844240427,0.08793394267559052,-23.511159896850586,0.0004894754965789616,-0.0007711351499892771,0.00015924878243822604,4.811158760276157e-06,0.004832996986806393,0.0881645604968071,0.6000000238418579,-10012556.0,-5.982920169830322,9.88152027130127,0
57035500,0.008293588645756245,0.08402195572853088,-23.506397247314453,0.000608536065556109,-0.0009199377964250743,0.0002655654971022159,-0.0001280641445191577,0.00494075333699584,0.0880298838019371,0.6000000238418579,-10012556.0,-5.885977745056152,10.026080131530762,0
57045092,0.004293923266232014,0.08297746628522873,-23.50076675415039,0.0005729614058509469,-0.0010935303289443254,0.00023362938372883946,-0.0002839017834048718,0.00490855798125267,0.08787278085947037,0.6000000238418579,-10012556.0,-5.9102888107299805,10.14177131652832,0
57055419,0.00436361925676465,0.08629683405160904,-23.500713348388672,0.0004726742045022547,-0.0011338110780343413,0.0002170926018152386,-0.0002905438595917076,0.004853017162531614,0.08785047382116318,0.6000000238418579,-10012556.0,-5.866915702819824,10.138616561889648,0
57065084,0.0005574461538344622,0.0935039222240448,-23.513090133666992,9.700935333967209e-05,-0.0006032218807376921,0.0001468466070946306,-0.0001913283922476694,0.004644984379410744,0.08814430236816406,0.6000000238418579,-10012556.0,-5.310471057891846,10.194900512695312,0
57075098,-0.00025359835126437247,0.08751292526721954,-23.519207000732422,-0.00026313011767342687,-0.0006035534897819161,7.152351463446394e-05,-0.0001913977466756478,0.004445567261427641,0.08814411610364914,0.6000000238418579,-10012556.0,-3.4212777614593506,10.194847106933594,0
57085390,-0.0011094135697931051,0.08236755430698395,-23.51168441772461,-0.0006150270928628743,-0.0009423588635399938,-9.894021786749363e-06,-0.00026978630921803415,0.004250733647495508,0.08795653283596039,0.6000000238418579,-10012556.0,-3.1397860050201416,10.166590690612793,0
57095165,-0.0017740677576512098,0.08089921623468399,-23.513835906982422,-0.0009492422686889768,-0.0013147956924512982,-9.466500341659412e-05,-0.0003642519295681268,0.0040657096542418,0.08775034546852112,0.6000000238418579,-10012556.0,-3.05647349357605,10.1580228805542,0
57105998,0.004171646200120449,0.08459457755088806,-23.51099395751953,-0.0008918778039515018,-0.001418450498022139,-7.883409853093326e-05,-0.00039285761886276305,0.004097463563084602,0.08769296854734421,0.6000000238418579,-10012556.0,-3.0677096843719482,10.157950401306152,0
57115018,0.012762543745338917,0.08587764203548431,-23.503429412841797,-0.0003808181791100651,-0.0014381443616002798,7.364105840679258e-05,-0.00039873330388218164,0.004380322527140379,0.08768206834793091,0.6000000238418579,-10012556.0,-3.3468902111053467,10.158222198486328,0
57125131,0.012662173248827457,0.08958118408918381,-23.508098602294922,5.575958493864164e-05,-0.001267014886252582,0.00021368700254242867,-0.00034383818274363875,0.004621926229447126,0.08777677267789841,0.6000000238418579,-10012556.0,-4.981916904449463,10.152754783630371,0
57135394,0.005379224196076393,0.09272829443216324,-23.507234573364258,8.538643305655569e-05,-0.00096616375958547,0.000223856681259349,-0.00024056834809016436,0.004638319369405508,0.08794324100017548,0.6000000238418579,-10012556.0,-5.091067314147949,10.131791114807129,0
57145077,0.004269026685506105,0.09570404142141342,-23.509742736816406,6.047725037205964e-05,-0.0005653546540997922,0.00021474534878507257,-9.39596357056871e-05,0.004624538589268923,0.08816498517990112,0.6000000238418579,-10012556.0,-5.001181602478027,10.052450180053711,0
57155413,0.0036823616828769445,0.09351440519094467,-23.501773834228516,1.2741134014504496e-05,-0.0003068283258471638,0.0001962071401067078,6.438484888349194e-06,0.00459813280031085,0.08830799162387848,0.6000000238418579,-10012556.0,-4.7915143966674805,9.866778373718262,0
57165111,0.004825343377888203,0.09138192236423492,-23.49749183654785,1.8240807548863813e-05,-0.00016631584730930626,0.00019846725626848638,6.41827064100653e-05,0.004601174499839544,0.08838570863008499,0.6000000238418579,-10012556.0,-4.818319320678711,9.51945972442627,0
57175089,0.006672409828752279,0.09133780747652054,-23.507583618164062,9.760281682247296e-05,-4.2406620195833966e-05,0.00023287860676646233,0.0001179097089334391,0.004645059816539288,0.0884542241692543,0.6000000238418579,-10012556.0,-5.123543739318848,8.662212371826172,0
57185387,0.001616629771888256,0.0847216472029686,-23.515552520751953,-2.719272015383467e-05,-0.0001876937603810802,0.0001759367878548801,5.161796434549615e-05,0.0045760627835989,0.08837389945983887,0.6000000238418579,-10012556.0,-4.573322296142578,9.619382858276367,0
57195144,0.0039052905049175024,0.08785753697156906,-23.508106231689453,-5.421494643087499e-05,-0.0002015131467487663,0.00016299325216095895,4.499853093875572e-05,0.004561125300824642,0.08836626261472702,0.6000000238418579,-10012556.0,-4.405559539794922,9.668061256408691,0
57205378,0.0016179587692022324,0.08668120950460434,-23.512006759643555,-0.00016318359121214598,-0.00025748199550434947,0.0001092660240828991,1.7402973753632978e-05,0.004500241484493017,0.08833499252796173,0.6000000238418579,-10012556.0,-3.7458958625793457,9.820273399353027,0
57215085,0.0028586359694600105,0.0832352489233017,-23.50298309326172,-0.0002190659288316965,-0.0004342030733823776,8.102659921860322e-05,-7.190076576080173e-05,0.00446862680837512,0.08823501318693161,0.6000000238418579,-10012556.0,-3.5101406574249268,10.051862716674805,0
57225095,-0.0019055405864492059,0.08438241481781006,-23.502370834350586,-0.0004412348207551986,-0.0005568804335780442,-3.398048283997923e-05,-0.0001354054402327165,0.004341415595263243,0.08816476911306381,0.6000000238418579,-10012556.0,-3.0790116786956787,10.126280784606934,0
57235475,0.0033626588992774487,0.08554627746343613,-23.50931167602539,-0.0004612197808455676,-0.0006295280763879418,-4.457266550161876e-05,-0.00017390924040228128,0.004329838789999485,0.08812268823385239,0.6000000238418579,-10012556.0,-3.05953049659729,10.1572904586792,0
57245087,0.006187474820762873,0.08648832142353058,-23.508634567260742,-0.0003812815120909363,-0.0006640921346843243,-1.2149633903391077e-06,-0.00019265644368715584,0.004376668483018875,0.08810243755578995,0.6000000238418579,-10012556.0,-3.1526856422424316,10.170113563537598,0
57255344,0.007224449887871742,0.0845164954662323,-23.50352668762207,-0.0002713418798521161,-0.0007640955154784024,5.9779758885269985e-05,-0.0002481385017745197,0.004441776312887669,0.088043212890625,0.6000000238418579,-10012556.0,-3.3727197647094727,10.201763153076172,0
57265010,0.008621984161436558,0.08408457785844803,-23.50812530517578,-0.00012162145867478102,-0.0008717193850316107,0.00014470750465989113,-0.0003091873077210039,0.0045313783921301365,0.0879788026213646,0.6000000238418579,-10012556.0,-4.027736663818359,10.22860336303711,0
57275116,0.017437856644392014,0.08424172550439835,-23.501737594604492,0.0003142008208669722,-0.000966505438555032,0.00039735762402415276,-0.0003641356306616217,0.004794863983988762,0.08792150020599365,0.6000000238418579,-10012556.0,-5.395728588104248,10.248067855834961,0
57285429,0.01155187375843525,0.08266574144363403,-23.504831314086914,0.0005238774465397,-0.001107133342884481,0.0005215283017605543,-0.00044741560122929513,0.004922880325466394,0.0878356397151947,0.6000000238418579,-10012556.0,-5.514313697814941,10.27181339263916,0
57295209,0.0025682318955659866,0.08112535625696182,-23.50503921508789,0.00042341926018707454,-0.0012887587072327733,0.00046077961451373994,-0.0005572473164647818,0.004860959947109222,0.08772368729114532,0.6000000238418579,-10012556.0,-5.4698381423950195,10.295873641967773,0
57305940,0.003224438289180398,0.08128508925437927,-23.500064849853516,0.0003512061375658959,-0.0014527535531669855,0.0004162058176007122,-0.0006584736402146518,0.0048160371370613575,0.08762166649103165,0.6000000238418579,-10012556.0,-5.427568435668945,10.31332015991211,0
57315101,0.004084030166268349,0.08586304634809494,-23.510948181152344,0.00032714681583456695,-0.0014785142848268151,0.0004330844967626035,-0.0006404013838618994,0.0048003545962274075,0.08760487288236618,0.6000000238418579,-10012556.0,-5.3736090660095215,10.296503067016602,0
57325098,0.009517163038253784,0.1087988018989563,-23.518321990966797,0.00046320687397383153,-0.0008336941245943308,0.00033948218333534896,-0.0010840044124051929,0.0048895664513111115,0.08802767097949982,0.6000000238418579,-10012556.0,-5.665000915527344,10.802949905395508,0
57335361,-0.005374070256948471,0.004731146153062582,-23.544448852539062,0.00016235456860158592,-0.0032211269717663527,0.0005424903938546777,0.0005269803223200142,0.004691181238740683,0.08645337074995041,0.6000000238418579,-10012556.0,-5.01746129989624,9.725593566894531,0
57345068,0.04463116452097893,0.1795511096715927,-23.48853874206543,0.001296350033953786,-0.0005022144760005176,-0.00020822124497499317,-0.0012729555601254106,0.005443052854388952,0.08825609087944031,0.6000000238418579,-10012556.0,-6.456725597381592,11.082776069641113,0
57355384,-0.01355371717363596,0.2369573563337326,-23.47652816772461,0.0007326994091272354,0.0036384889390319586,0.00015793353668414056,-0.003962810151278973,0.005067357327789068,0.09101603180170059,0.6000000238418579,-10012556.0,-6.08516263961792,12.201312065124512,0
57365127,-0.016081560403108597,-0.2536926865577698,-23.549612045288086,0.00013588476576842368,-0.005989310331642628,0.0005384497344493866,0.002175668254494667,0.004667522385716438,0.0845659002661705,0.6000000238418579,-10012556.0,-4.973869800567627,9.539320945739746,0
57375035,0.0284411683678627,0.5468292832374573,-23.45844841003418,0.0007862101192586124,0.006736791227012873,0.0001314217079197988,-0.005789391230791807,0.0051053608767688274,0.09313388913869858,0.6000000238418579,-10012556.0,-6.131837844848633,12.319442749023438,0
57385425,0.007526393514126539,-0.25739091634750366,-23.52998924255371,0.0008350779535248876,-0.002902974607422948,0.00010139186633750796,0.0001343561161775142,0.0051384191028773785,0.0866127610206604,0.6000000238418579,-10012556.0,-6.176640510559082,9.841508865356445,0
