TimeUS,PLX,PLY,PLZ,AX,AY,BX,BY,CX,CY,F,P,X,Y
321246210,0.3526148200035095,0.1782638132572174,-23.478946685791016,0.0006614208105020225,0.0003343801654409617,0.17544646561145782,0.08869665861129761,0.1754477173089981,0.08869728446006775,0.0,0.0,-1.5670263767242432,-1.5670263767242432
321256737,0.356820672750473,0.17012181878089905,-23.472856521606445,0.0009085523779504001,3.9870796172181144e-05,0.17843769490718842,0.08513197302818298,0.17844147980213165,0.08512958139181137,0.0,0.0,-1.5657047033309937,-1.5703279972076416
321267438,0.350531667470932,0.1668580025434494,-23.474382400512695,-1.1047545740439091e-05,-0.0004530960286501795,0.17562104761600494,0.08362206071615219,0.17561987042427063,0.08361700922250748,0.0,0.0,-1.5708591938018799,-1.5762146711349487
321276732,0.3507559299468994,0.16728803515434265,-23.47283172607422,0.00027916402905248106,-0.00017997068061958998,0.17595067620277405,0.0839322879910469,0.1759495884180069,0.08392731845378876,0.0,0.0,-1.5692096948623657,-1.572940468788147
321287007,0.3495379686355591,0.17491763830184937,-23.47502899169922,1.9251130652264692e-05,0.006651662290096283,0.17582419514656067,0.08725681155920029,0.1758231818675995,0.08724970370531082,0.0,0.0,-1.5706868171691895,-1.4947125911712646
321296711,0.3456614315509796,0.17428278923034668,-23.480703353881836,-0.003532744012773037,0.006797695532441139,0.17487987875938416,0.08729563653469086,0.17488063871860504,0.08728845417499542,0.0,0.0,-1.5909944772720337,-1.4930833578109741
321306786,0.34507834911346436,0.1709972769021988,-23.480886459350586,-0.0024534151889383793,0.002583312103524804,0.17508989572525024,0.08647557348012924,0.17509014904499054,0.08647036552429199,0.0,0.0,-1.5848077535629272,-1.5409319400787354
321317070,0.34583809971809387,0.1700652539730072,-23.477619171142578,0.001469366136007011,0.001997388433665037,0.17578749358654022,0.08637137711048126,0.17578671872615814,0.08636632561683655,0.0,0.0,-1.5624377727508545,-1.5476748943328857
321326793,0.34818223118782043,0.17269191145896912,-23.473648071289062,0.006929390132427216,0.006251832004636526,0.17683914303779602,0.08719082176685333,0.17683477699756622,0.08718297630548477,0.0,0.0,-1.5316317081451416,-1.4992159605026245
321337444,0.35488370060920715,0.17193390429019928,-23.471778869628906,0.01736559346318245,0.006948907859623432,0.17901363968849182,0.08733606338500977,0.17900235950946808,0.0873277559876442,0.0,0.0,-1.4740917682647705,-1.4913984537124634
321346787,0.35083258152008057,0.170222207903862,-23.472787857055664,0.016588479280471802,0.006216689478605986,0.17882978916168213,0.08716282993555069,0.17881982028484344,0.08715575933456421,0.0,0.0,-1.4782997369766235,-1.4995942115783691
321356733,0.3570777177810669,0.1685962826013565,-23.470787048339844,0.023276425898075104,0.005617144051939249,0.1805730164051056,0.08700655400753021,0.18054606020450592,0.0870010107755661,0.0,0.0,-1.442600131034851,-1.5063258409500122
321367005,0.3629225492477417,0.17336522042751312,-23.479265213012695,0.030421249568462372,0.009740984998643398,0.1826128363609314,0.08818389475345612,0.1825597733259201,0.08816327899694443,0.0,0.0,-1.4057234525680542,-1.460780143737793
321376794,0.36096933484077454,0.18062487244606018,-23.47372055053711,0.032401811331510544,0.016059106215834618,0.18322709202766418,0.09014340490102768,0.18316419422626495,0.09009144455194473,0.0,0.0,-1.395766258239746,-1.3944952487945557
321387394,0.35495442152023315,0.1740879863500595,-23.466577529907227,0.03113749250769615,0.01512245275080204,0.18280832469463348,0.08983316272497177,0.18275249004364014,0.08978644013404846,0.0,0.0,-1.4020867347717285,-1.4040206670761108
321396738,0.3507113754749298,0.16949531435966492,-23.467493057250977,0.02981523424386978,0.013185002841055393,0.1823338121175766,0.08913787454366684,0.18228861689567566,0.08910675346851349,0.0,0.0,-1.4087107181549072,-1.4239442348480225
321406830,0.3455919027328491,0.1784224957227707,-23.476484298706055,0.028373993933200836,0.016748830676078796,0.18178565800189972,0.09049331396818161,0.18175388872623444,0.09042900800704956,0.0,0.0,-1.4159607887268066,-1.3877837657928467
321417017,0.3471650183200836,0.18226055800914764,-23.481735229492188,0.02949909120798111,0.02022010274231434,0.18223656713962555,0.09188453108072281,0.18219317495822906,0.09178432077169418,0.0,0.0,-1.410315752029419,-1.3541889190673828
321426712,0.349172443151474,0.1754092574119568,-23.480159759521484,0.03177428990602493,0.02007693238556385,0.18319247663021088,0.09182438254356384,0.18312397599220276,0.09172575175762177,0.0,0.0,-1.399057388305664,-1.3555389642715454
321437086,0.3514924645423889,0.16872303187847137,-23.47732162475586,0.034736089408397675,0.01857568696141243,0.18448108434677124,0.09117122739553452,0.1843835860490799,0.09108729660511017,0.0,0.0,-1.3846845626831055,-1.3698023557662964
321446749,0.3495481610298157,0.16699036955833435,-23.475879669189453,0.03665756806731224,0.017761144787073135,0.185358464717865,0.09079929441213608,0.18523934483528137,0.09072452783584595,0.0,0.0,-1.3755499124526978,-1.3776265382766724
321456729,0.34552183747291565,0.16843217611312866,-23.475698471069336,0.037697941064834595,0.018111297860741615,0.18584978580474854,0.0909646600484848,0.1857200711965561,0.09088632464408875,0.0,0.0,-1.3706705570220947,-1.3742637634277344
321467456,0.34673964977264404,0.17132100462913513,-23.47607421875,0.039560385048389435,0.01943136192858219,0.18674930930137634,0.09160222113132477,0.1866079866886139,0.09151566028594971,0.0,0.0,-1.3620455265045166,-1.361767292022705
321476827,0.34672024846076965,0.1723269373178482,-23.47942352294922,0.04145439341664314,0.020807314664125443,0.18769723176956177,0.09229087084531784,0.1875453144311905,0.09219661355018616,0.0,0.0,-1.3534280061721802,-1.3490501642227173
321487121,0.3463318943977356,0.17621800303459167,-23.47747230529785,0.043488115072250366,0.02283109351992607,0.18873009085655212,0.09331867843866348,0.18858027458190918,0.09322650730609894,0.0,0.0,-1.3443243503570557,-1.3308523893356323
321496724,0.3508390784263611,0.1727457493543625,-23.467369079589844,0.04627484828233719,0.023909280076622963,0.19018512964248657,0.09388163685798645,0.19004632532596588,0.09379372745752335,0.0,0.0,-1.3321194648742676,-1.321422815322876
321506801,0.3539610803127289,0.1686929315328598,-23.468996047973633,0.04938822239637375,0.024375323206186295,0.1918342113494873,0.09412848949432373,0.1917305737733841,0.09404584765434265,0.0,0.0,-1.31881582736969,-1.3174045085906982
321517039,0.357787549495697,0.1641499102115631,-23.46672821044922,0.05281705781817436,0.02440141886472702,0.19366870820522308,0.09414245188236237,0.19363580644130707,0.09406034648418427,0.0,0.0,-1.3045523166656494,-1.3171807527542114
321526727,0.3555464744567871,0.16732963919639587,-23.466367721557617,0.055644288659095764,0.025195125490427017,0.19518932700157166,0.09456934779882431,0.19524767994880676,0.09451285749673843,0.0,0.0,-1.2930845022201538,-1.3104246854782104
321537459,0.3538931608200073,0.1767464131116867,-23.476551055908203,0.05823828652501106,0.02732454612851143,0.19657175242900848,0.09570418298244476,0.19676080346107483,0.09575498104095459,0.0,0.0,-1.2827651500701904,-1.2926851511001587
321546920,0.34916797280311584,0.182365283370018,-23.4735050201416,0.060188282281160355,0.029841803014278412,0.1976148784160614,0.0970507562160492,0.1979285478591919,0.0972624346613884,0.0,0.0,-1.275148868560791,-1.272485375404358
321556812,0.3432784080505371,0.17522135376930237,-23.47748565673828,0.061648085713386536,0.03125615417957306,0.19838528335094452,0.09779717028141022,0.19882312417030334,0.09812915325164795,0.0,0.0,-1.2695071697235107,-1.2614545822143555
321567008,0.34827324748039246,0.15942929685115814,-23.469459533691406,0.06391173601150513,0.031000614166259766,0.19955377280712128,0.09766525775194168,0.2002415806055069,0.09796902537345886,0.0,0.0,-1.2608455419540405,-1.2634382247924805
321576724,0.3471553921699524,0.16118042171001434,-23.47031593322754,0.06616804003715515,0.03127731382846832,0.2006811648607254,0.0978035181760788,0.2016863375902176,0.09814620018005371,0.0,0.0,-1.2523038387298584,-1.2612770795822144
321587345,0.35211455821990967,0.17285971343517303,-23.473974227905273,0.06906288117170334,0.03290518745779991,0.20204472541809082,0.09857030212879181,0.20357723534107208,0.09920951724052429,0.0,0.0,-1.2414275407791138,-1.2486037015914917
321596718,0.3521626889705658,0.17708119750022888,-23.483333587646484,0.07189135253429413,0.03482633829116821,0.20331448316574097,0.09943274408578873,0.20546531677246094,0.10049194097518921,0.0,0.0,-1.2309207916259766,-1.233898639678955
321606735,0.3487516939640045,0.16708819568157196,-23.480186462402344,0.07445169240236282,0.035814765840768814,0.20437125861644745,0.09984071552753448,0.20720866322517395,0.10116496682167053,0.0,0.0,-1.2214425802230835,-1.2263752222061157
321617102,0.3493068814277649,0.1635202020406723,-23.476871490478516,0.07719359546899796,0.036635734140872955,0.20535968244075775,0.1001366674900055,0.20911084115505219,0.10173451155424118,0.0,0.0,-1.211241602897644,-1.2200651168823242
321626740,0.3514982759952545,0.17131808400154114,-23.473262786865234,0.08009974658489227,0.03813987970352173,0.20627321302890778,0.10060948878526688,0.21116693317890167,0.10279868543148041,0.0,0.0,-1.200400471687317,-1.2084462642669678
321637018,0.34930482506752014,0.17243832349777222,-23.47445297241211,0.08288072794675827,0.0397266261279583,0.20696799457073212,0.1010059118270874,0.21317104995250702,0.10394217818975449,0.0,0.0,-1.1899003982543945,-1.1960705518722534
321646733,0.3519413471221924,0.16423989832401276,-23.477182388305664,0.08590458333492279,0.04073958098888397,0.20749309659004211,0.10118181258440018,0.21538984775543213,0.10468544811010361,0.0,0.0,-1.1782695055007935,-1.1880184412002563
321656721,0.3501596748828888,0.1591396927833557,-23.479692459106445,0.08883741497993469,0.041502442210912704,0.2077413946390152,0.10124640166759491,0.21758021414279938,0.10525518655776978,0.0,0.0,-1.166696310043335,-1.1817716360092163
321667465,0.3435136675834656,0.16690155863761902,-23.477575302124023,0.09144400805234909,0.0429031178355217,0.20766568183898926,0.10120571404695511,0.2195611149072647,0.10631963610649109,0.0,0.0,-1.1560026407241821,-1.1698408126831055
321676795,0.34550586342811584,0.17966555058956146,-23.474931716918945,0.09421622008085251,0.04507804289460182,0.2073001116514206,0.10091891139745712,0.22170400619506836,0.10800082981586456,0.0,0.0,-1.1442131996154785,-1.1507102251052856
321687032,0.3479636609554291,0.1786990612745285,-23.465410232543945,0.09723974764347076,0.04712972790002823,0.2065083384513855,0.10038164258003235,0.2240815907716751,0.10961420089006424,0.0,0.0,-1.130718469619751,-1.1318405866622925
321696850,0.34854161739349365,0.1713818609714508,-23.459043502807617,0.10027071088552475,0.04868093132972717,0.20538969337940216,0.09980913251638412,0.2265041321516037,0.11085402220487595,0.0,0.0,-1.1166353225708008,-1.1170045137405396
321706717,0.3506741523742676,0.17248308658599854,-23.46578025817871,0.10342082381248474,0.05028237774968147,0.20383089780807495,0.09901667386293411,0.22906388342380524,0.11215534061193466,0.0,0.0,-1.1012578010559082,-1.100914478302002
321717027,0.3485771715641022,0.17761516571044922,-23.477760314941406,0.10647647827863693,0.05213824659585953,0.2018684595823288,0.09782477468252182,0.2315901666879654,0.11368968337774277,0.0,0.0,-1.085426926612854,-1.0811172723770142
321726757,0.34733712673187256,0.1731688380241394,-23.480989456176758,0.10940305143594742,0.05369417369365692,0.1996309906244278,0.09663521498441696,0.23404809832572937,0.11499645560979843,0.0,0.0,-1.069469690322876,-1.063634991645813
321737393,0.3537742495536804,0.16871358454227448,-23.473573684692383,0.11261751502752304,0.055025193840265274,0.19663392007350922,0.09539420902729034,0.2367968112230301,0.11613462120294571,0.0,0.0,-1.0506720542907715,-1.0475960969924927
321746726,0.3496551215648651,0.16598652303218842,-23.470008850097656,0.11551842093467712,0.056205522269010544,0.19351905584335327,0.09412682801485062,0.2393176555633545,0.11716030538082123,0.0,0.0,-1.0326330661773682,-1.0324931144714355
321756737,0.34717950224876404,0.17373131215572357,-23.472536087036133,0.11822953820228577,0.0576898455619812,0.19012707471847534,0.09226973354816437,0.2417166382074356,0.11847373843193054,0.0,0.0,-1.0144691467285156,-1.0120313167572021
321767057,0.34724900126457214,0.18242226541042328,-23.474754333496094,0.12087184935808182,0.059441715478897095,0.18623310327529907,0.0896880030632019,0.24410463869571686,0.12005700170993805,0.0,0.0,-0.9950996041297913,-0.9855024814605713
321776727,0.3490239977836609,0.1785438507795334,-23.473529815673828,0.12343654781579971,0.060917459428310394,0.1819525808095932,0.08722496777772903,0.24646680057048798,0.12141620367765427,0.0,0.0,-0.9747148752212524,-0.9611485004425049
321787317,0.351022869348526,0.17319388687610626,-23.476131439208984,0.12593623995780945,0.06211907044053078,0.17705921828746796,0.08487270772457123,0.2488294243812561,0.12255192548036575,0.0,0.0,-0.9525490999221802,-0.9389745593070984
321796723,0.3485063910484314,0.16968469321727753,-23.468204498291016,0.12817202508449554,0.06312619894742966,0.17209288477897644,0.08263558149337769,0.2509934902191162,0.12352673709392548,0.0,0.0,-0.9306418299674988,-0.918451726436615
321806731,0.3440728783607483,0.17013393342494965,-23.462812423706055,0.13011515140533447,0.06407425552606583,0.16708239912986755,0.08019094169139862,0.25293365120887756,0.12447334825992584,0.0,0.0,-0.909148633480072,-0.8966525197029114
321816987,0.3474615216255188,0.16843655705451965,-23.465612411499023,0.13197244703769684,0.06489955633878708,0.16148127615451813,0.07770205289125443,0.2548586428165436,0.12532871961593628,0.0,0.0,-0.885618269443512,-0.8749361634254456
321826734,0.3529335558414459,0.16995449364185333,-23.475175857543945,0.1337459236383438,0.06567509472370148,0.15515656769275665,0.07493625581264496,0.25678330659866333,0.12617038190364838,0.0,0.0,-0.8593732118606567,-0.8511667251586914
321837034,0.3574836850166321,0.16906507313251495,-23.480920791625977,0.13536687195301056,0.06633865088224411,0.1482112556695938,0.07209309190511703,0.2586482763290405,0.12693382799625397,0.0,0.0,-0.8306611776351929,-0.826943039894104
321846767,0.360566109418869,0.1706220507621765,-23.485111236572266,0.13677449524402618,0.06692835688591003,0.14079834520816803,0.06898756325244904,0.2603966295719147,0.12766627967357635,0.0,0.0,-0.7998936772346497,-0.8005475997924805
321856720,0.3578997850418091,0.16919004917144775,-23.480266571044922,0.13787592947483063,0.06739232689142227,0.1334255486726761,0.06588182598352432,0.26191505789756775,0.12830591201782227,0.0,0.0,-0.7689958214759827,-0.774064838886261
321867462,0.3555488884449005,0.16653916239738464,-23.47066307067871,0.13867968320846558,0.06772086024284363,0.1259704977273941,0.06283460557460785,0.26322656869888306,0.12884198129177094,0.0,0.0,-0.7374124526977539,-0.7479889988899231
321876727,0.3492124080657959,0.1669028401374817,-23.4716739654541,0.13920675218105316,0.06795894354581833,0.11904191225767136,0.05970485508441925,0.26429054141044617,0.1293225884437561,0.0,0.0,-0.7074732184410095,-0.7208331227302551
321887029,0.34782037138938904,0.17240802943706512,-23.479148864746094,0.1395016759634018,0.06811576336622238,0.11208460479974747,0.056005388498306274,0.26519832015037537,0.1298052817583084,0.0,0.0,-0.6768497228622437,-0.6881370544433594
321896771,0.34557437896728516,0.1771712303161621,-23.47587013244629,0.13957379758358002,0.06815934181213379,0.10519881546497345,0.051844291388988495,0.2659510672092438,0.130260169506073,0.0,0.0,-0.6458742618560791,-0.650272011756897
321906742,0.34849339723587036,0.16907986998558044,-23.469327926635742,0.1394304782152176,0.06809130311012268,0.0979476198554039,0.048401858657598495,0.2666037976741791,0.13057003915309906,0.0,0.0,-0.6123908758163452,-0.6179625391960144
321917067,0.3495005965232849,0.16323509812355042,-23.471540451049805,0.13904795050621033,0.06793812662363052,0.09045063704252243,0.045399829745292664,0.26713553071022034,0.13078296184539795,0.0,0.0,-0.5767263174057007,-0.5890997648239136
321926733,0.34561803936958313,0.16940277814865112,-23.471050262451172,0.13851608335971832,0.0676695853471756,0.083397276699543,0.04183859005570412,0.26753565669059753,0.13098499178886414,0.0,0.0,-0.5419449210166931,-0.5537506341934204
321937446,0.34604567289352417,0.17551641166210175,-23.470823287963867,0.13776759803295135,0.06723728775978088,0.07620106637477875,0.037682339549064636,0.26783016324043274,0.1311550885438919,0.0,0.0,-0.505230188369751,-0.5108217597007751
321946781,0.349175363779068,0.16943863034248352,-23.46793556213379,0.13683658838272095,0.06679403781890869,0.06884874403476715,0.03418194130063057,0.26804450154304504,0.13125713169574738,0.0,0.0,-0.46616098284721375,-0.4730044901371002
321956759,0.34923768043518066,0.16661858558654785,-23.475309371948242,0.13573485612869263,0.06630675494670868,0.06156197562813759,0.030959056690335274,0.2681693732738495,0.13131237030029297,0.0,0.0,-0.4257987141609192,-0.43682408332824707
321967096,0.354065477848053,0.16841883957386017,-23.479795455932617,0.1343679279088974,0.06570270657539368,0.05386151373386383,0.027556201443076134,0.26820966601371765,0.13133017718791962,0.0,0.0,-0.38123974204063416,-0.39712414145469666
321976858,0.3611535429954529,0.17502939701080322,-23.47175407409668,0.1327635645866394,0.06492896378040314,0.04578845202922821,0.02366277389228344,0.26818063855171204,0.1313161849975586,0.0,0.0,-0.33211272954940796,-0.3494814336299896
321987343,0.3548760712146759,0.1744370013475418,-23.466978073120117,0.13110724091529846,0.06408156454563141,0.038408804684877396,0.019887244328856468,0.26808229088783264,0.13126586377620697,0.0,0.0,-0.2849830090999603,-0.30091825127601624
321996708,0.3573977053165436,0.1712748110294342,-23.46601676940918,0.12930993735790253,0.06325721740722656,0.031085941940546036,0.016528548672795296,0.2679325044155121,0.13119715452194214,0.0,0.0,-0.2359219342470169,-0.255577027797699
322006826,0.3529428541660309,0.16751952469348907,-23.473560333251953,0.12750022113323212,0.06246206909418106,0.024356605485081673,0.013571832329034805,0.2677471339702606,0.13111570477485657,0.0,0.0,-0.18875767290592194,-0.21395552158355713
322017007,0.3499409854412079,0.1731860339641571,-23.480825424194336,0.12566007673740387,0.06147851422429085,0.018068600445985794,0.010210908018052578,0.2675349712371826,0.1310022920370102,0.0,0.0,-0.1428106427192688,-0.1645866185426712
322026714,0.35175395011901855,0.17583726346492767,-23.476797103881836,0.12367864698171616,0.06038157641887665,0.011812638491392136,0.006747559178620577,0.26729071140289307,0.13086706399917603,0.0,0.0,-0.09522189199924469,-0.11128693073987961
322037025,0.35122841596603394,0.1746845245361328,-23.46628189086914,0.12159295380115509,0.059259410947561264,0.005744838621467352,0.0034829091746360064,0.26702484488487244,0.13072402775287628,0.0,0.0,-0.04721136763691902,-0.05870640650391579
322046757,0.34894227981567383,0.16799813508987427,-23.46790313720703,0.11952896416187286,0.05830936133861542,0.00011258058657404035,0.0008903975831344724,0.26676079630851746,0.13060249388217926,0.0,0.0,-0.0009418688714504242,-0.015269048511981964
322056746,0.35478919744491577,0.16958093643188477,-23.472604751586914,0.11721774190664291,0.05727457255125046,-0.005773888435214758,-0.001745110028423369,0.26647013425827026,0.1304723620414734,0.0,0.0,0.04921802133321762,0.030459769070148468
322067409,0.35440826416015625,0.17562605440616608,-23.475109100341797,0.11482357978820801,0.05600357428193092,-0.011443124152719975,-0.004754764959216118,0.26618143916130066,0.13031910359859467,0.0,0.0,0.09933033585548401,0.08469798415899277
322076751,0.3504096269607544,0.17363208532333374,-23.480419158935547,0.11254211515188217,0.05479361116886139,-0.01655193790793419,-0.007464198861271143,0.26591983437538147,0.13018037378787994,0.0,0.0,0.14602641761302948,0.1353905200958252
322087034,0.3460565507411957,0.16584008932113647,-23.47397804260254,0.11032090336084366,0.05380338057875633,-0.021196439862251282,-0.009534750133752823,0.26568588614463806,0.1300760805606842,0.0,0.0,0.18982116878032684,0.175393745303154
322096737,0.3505861163139343,0.16568556427955627,-23.463565826416016,0.10792594403028488,0.0528036430478096,-0.02593385986983776,-0.011512312106788158,0.2654554843902588,0.1299799084663391,0.0,0.0,0.23582209646701813,0.21466204524040222
322106835,0.34990444779396057,0.17113685607910156,-23.471660614013672,0.10550851374864578,0.05158598721027374,-0.030424967408180237,-0.013774475082755089,0.265251487493515,0.12987715005874634,0.0,0.0,0.2807486355304718,0.26093196868896484
322117085,0.3536190390586853,0.17655648291110992,-23.471960067749023,0.10288175195455551,0.05013880506157875,-0.03497449308633804,-0.01628098450601101,0.26506882905960083,0.12977652251720428,0.0,0.0,0.32769230008125305,0.31397703289985657
322126722,0.35161375999450684,0.17267867922782898,-23.47454833984375,0.10032354295253754,0.04883852228522301,-0.03915421664714813,-0.018405448645353317,0.2649255096912384,0.12970368564128876,0.0,0.0,0.3720985949039459,0.36040326952934265
322137421,0.354157954454422,0.17125838994979858,-23.469867706298828,0.09759730100631714,0.04755784198641777,-0.043291203677654266,-0.020348843187093735,0.2648228108882904,0.12965543568134308,0.0,0.0,0.41749364137649536,0.4043038487434387
322146707,0.35443684458732605,0.17357346415519714,-23.464508056640625,0.09485694766044617,0.04618567228317261,-0.04719726741313934,-0.022304721176624298,0.26476454734802246,0.12962625920772552,0.0,0.0,0.4616957902908325,0.4499033987522125
322156719,0.3520158529281616,0.1817312091588974,-23.466064453125,0.09217227250337601,0.044481486082077026,-0.05075497925281525,-0.02456309273838997,0.2647607922554016,0.1296238750219345,0.0,0.0,0.5033447742462158,0.5045378804206848
322167081,0.3535214364528656,0.18042156100273132,-23.464847564697266,0.08935566991567612,0.042809173464775085,-0.05418715626001358,-0.026600895449519157,0.26482316851615906,0.12966090440750122,0.0,0.0,0.5451274514198303,0.5559941530227661
322176746,0.3520645797252655,0.17220567166805267,-23.46812629699707,0.08659356832504272,0.04147982969880104,-0.057318560779094696,-0.02810797654092312,0.26494112610816956,0.12971767783164978,0.0,0.0,0.5847136378288269,0.5955542325973511
322187335,0.35308271646499634,0.16861388087272644,-23.474403381347656,0.08372068405151367,0.04026452824473381,-0.06028459966182709,-0.02936268411576748,0.265140563249588,0.12980204820632935,0.0,0.0,0.6240679621696472,0.6300846934318542
322196819,0.3572380244731903,0.17428331077098846,-23.473012924194336,0.08067355304956436,0.03880507871508598,-0.06318289041519165,-0.03075084649026394,0.2654227316379547,0.12993720173835754,0.0,0.0,0.6644078493118286,0.6701165437698364
322206802,0.353339821100235,0.17140302062034607,-23.476335525512695,0.077764593064785,0.0374537855386734,-0.06569023430347443,-0.0319155789911747,0.26577138900756836,0.13009916245937347,0.0,0.0,0.701427698135376,0.705730676651001
322217047,0.3504237234592438,0.1661440134048462,-23.474531173706055,0.07494892179965973,0.036308981478214264,-0.06786899268627167,-0.03280142322182655,0.2661898732185364,0.13026931881904602,0.0,0.0,0.735865592956543,0.7346886992454529
322226716,0.35710784792900085,0.16452229022979736,-23.468774795532227,0.07181187719106674,0.03520779311656952,-0.07002221047878265,-0.033557262271642685,0.26675131916999817,0.13046640157699585,0.0,0.0,0.7727807760238647,0.7614002823829651
322237067,0.3557305932044983,0.1728183925151825,-23.466270446777344,0.06871777027845383,0.0337182953953743,-0.07187671214342117,-0.03445001691579819,0.26740404963493347,0.13078062236309052,0.3709511160850525,0.0,0.8078628778457642,0.7961317896842957
322246753,0.35329872369766235,0.1794367879629135,-23.474987030029297,0.06571432948112488,0.03193023428320885,-0.07341571897268295,-0.0353662446141243,0.2681388556957245,0.1312180757522583,0.3784269094467163,0.0,0.8406956195831299,0.836411714553833
322256754,0.34876155853271484,0.18294665217399597,-23.475954055786133,0.06289462000131607,0.0299952682107687,-0.07461466640233994,-0.0361889973282814,0.26892876625061035,0.1317601352930069,0.3857366740703583,0.0,0.8704236149787903,0.8787094950675964
322267475,0.3460444509983063,0.17586512863636017,-23.47554588317871,0.060147885233163834,0.028379235416650772,-0.07551789283752441,-0.036720406264066696,0.2698112428188324,0.13227933645248413,0.3927941918373108,0.0,0.8982102870941162,0.9128330945968628
322276733,0.3446540832519531,0.1728130578994751,-23.472156524658203,0.057470232248306274,0.026918992400169373,-0.07618490606546402,-0.03708415850996971,0.27076658606529236,0.13280032575130463,0.3996445834636688,0.0,0.9245157837867737,0.9429054856300354
322287091,0.3431887924671173,0.17272384464740753,-23.46533203125,0.05481576919555664,0.025451282039284706,-0.07658355683088303,-0.0373045839369297,0.2718352675437927,0.13339123129844666,0.4062413275241852,0.0,0.949568510055542,0.9720785021781921
322296737,0.3465910255908966,0.16951076686382294,-23.475536346435547,0.05202348530292511,0.024145031347870827,-0.0767725259065628,-0.037392985075712204,0.2730701267719269,0.13396890461444855,0.4124034345149994,0.0,0.9752410054206848,0.9974427223205566
322306838,0.3478145897388458,0.1686505526304245,-23.479881286621094,0.04918167367577553,0.02287767082452774,-0.07669778913259506,-0.037359654903411865,0.2744594216346741,0.13458849489688873,0.41837501525878906,0.0,1.0006040334701538,1.0213359594345093
322317062,0.34883561730384827,0.17351481318473816,-23.47736930847168,0.04628978297114372,0.021386858075857162,-0.07631483674049377,-0.037162236869335175,0.27603068947792053,0.1353985071182251,0.4243044853210449,0.0,1.0255647897720337,1.0485866069793701
322326747,0.3465418219566345,0.1743009239435196,-23.47332000732422,0.043555278331041336,0.01989562064409256,-0.07570741325616837,-0.03683098405599594,0.27764609456062317,0.13627944886684418,0.4302558898925781,0.0,1.0487287044525146,1.075518250465393
322337356,0.35203713178634644,0.17556554079055786,-23.46953773498535,0.040597714483737946,0.018368693068623543,-0.07471374422311783,-0.03631797432899475,0.2795761823654175,0.13727590441703796,0.43649938702583313,0.0,1.0730522871017456,1.1025400161743164
322346779,0.3534347712993622,0.17006608843803406,-23.464824676513672,0.03766854107379913,0.017127547413110733,-0.07344479858875275,-0.035780299454927444,0.2816464602947235,0.13815312087535858,0.44244110584259033,0.0,1.0968960523605347,1.1243444681167603
322356733,0.35585227608680725,0.16744984686374664,-23.471235275268555,0.034719739109277725,0.01602400466799736,-0.0718327984213829,-0.03517703339457512,0.28392136096954346,0.13900446891784668,0.44845911860466003,0.0,1.1205644607543945,1.1433576345443726
322367067,0.3516608774662018,0.16780516505241394,-23.471233367919922,0.03203011676669121,0.014923106878995895,-0.07000809907913208,-0.03443015739321709,0.2862030863761902,0.13993841409683228,0.45454317331314087,0.0,1.1417062282562256,1.1618061065673828
322376735,0.3465651869773865,0.17091113328933716,-23.473506927490234,0.02966424450278282,0.013737892732024193,-0.06813184171915054,-0.033490221947431564,0.2883716821670532,0.14102481305599213,0.46041107177734375,0.0,1.1601543426513672,1.1815226078033447
322387340,0.34656721353530884,0.1753663271665573,-23.4748592376709,0.027380365878343582,0.012421426363289356,-0.06597795337438583,-0.032248686999082565,0.2906731367111206,0.1423514187335968,0.46589332818984985,0.0,1.1774324178695679,1.2031340599060059
322396764,0.3478740155696869,0.17413091659545898,-23.475337982177734,0.025167981162667274,0.011229682713747025,-0.0635983869433403,-0.03096688538789749,0.29308363795280457,0.1436498910188675,0.4709751605987549,0.0,1.1939737796783447,1.2229098081588745
322406725,0.3445420563220978,0.1699233055114746,-23.463998794555664,0.0231985654681921,0.010261683724820614,-0.061164967715740204,-0.02977082133293152,0.29542720317840576,0.1448017954826355,0.4756253659725189,0.0,1.2082798480987549,1.2388604879379272
322417035,0.34243592619895935,0.1733233481645584,-23.46709632873535,0.02141338773071766,0.00923135969787836,-0.05861343815922737,-0.028298193588852882,0.2977719306945801,0.14615507423877716,0.47994452714920044,0.0,1.2205281257629395,1.2554638385772705
322426722,0.3450312912464142,0.17854595184326172,-23.472557067871094,0.019670797511935234,0.008109771646559238,-0.05581621453166008,-0.02649780735373497,0.3002588748931885,0.14775575697422028,0.4839780032634735,0.0,1.231966495513916,1.2737942934036255
322437055,0.35488930344581604,0.1757466197013855,-23.478151321411133,0.017754388973116875,0.00717339338734746,-0.05227700620889664,-0.024768508970737457,0.30329692363739014,0.149240180850029,0.4877556264400482,0.0,1.2433972358703613,1.2888917922973633
322446716,0.35184961557388306,0.17640410363674164,-23.482746124267578,0.016112564131617546,0.00630985340103507,-0.048875633627176285,-0.022979510948061943,0.30614417791366577,0.1507377326488495,0.49120384454727173,0.0,1.2523512840270996,1.3028149604797363
322456757,0.34862127900123596,0.17226754128932953,-23.47295570373535,0.01472801435738802,0.005650606472045183,-0.04560902714729309,-0.021424131467938423,0.30881157517433167,0.1520078033208847,0.494255006313324,0.0,1.2584478855133057,1.31291925907135
322467525,0.3438672721385956,0.17336921393871307,-23.46879005432129,0.01361833605915308,0.005039534065872431,-0.0425763800740242,-0.01975412853062153,0.3112294375896454,0.15333925187587738,0.496913343667984,0.0,1.2612234354019165,1.3210113048553467
322476737,0.34396106004714966,0.16933785378932953,-23.47005271911621,0.012643666937947273,0.004597759339958429,-0.03955549746751785,-0.018384896218776703,0.3135964572429657,0.15441210567951202,0.4991557002067566,0.0,1.2614165544509888,1.3257390260696411
322487021,0.35282132029533386,0.17213432490825653,-23.480375289916992,0.011625126004219055,0.004160385578870773,-0.03589204326272011,-0.016811763867735863,0.3164175748825073,0.15562352538108826,0.5009498596191406,0.0,1.2575674057006836,1.3282015323638916
322496824,0.36048492789268494,0.17040830850601196,-23.483613967895508,0.01063511148095131,0.003823299892246723,-0.031707968562841415,-0.015387145802378654,0.31959012150764465,0.15670372545719147,0.5022667646408081,0.0,1.2471795082092285,1.3272547721862793
322506729,0.35651421546936035,0.17699244618415833,-23.47245216369629,0.009889611043035984,0.0034457535948604345,-0.02794031798839569,-0.01347908191382885,0.32240766286849976,0.15813061594963074,0.50306236743927,0.0,1.2306026220321655,1.320519208908081
322517046,0.3495032787322998,0.17943497002124786,-23.45987319946289,0.009390480816364288,0.0031168744899332523,-0.024846917018294334,-0.011440824717283249,0.3246925473213196,0.15963615477085114,0.5033088326454163,0.0,1.209456443786621,1.3048168420791626
322526839,0.34576547145843506,0.17382150888442993,-23.451007843017578,0.009050468914210796,0.002926785033196211,-0.022163454443216324,-0.009940589778125286,0.3266528844833374,0.16073212027549744,0.5029365420341492,0.0,1.183111548423767,1.2844595909118652
322537493,0.3448859453201294,0.1715822070837021,-23.462356567382812,0.008821418508887291,0.0028124453965574503,-0.019633514806628227,-0.008677668869495392,0.3284813463687897,0.16164487600326538,0.5018638968467712,0.0,1.1485213041305542,1.2573773860931396
322547031,0.34686440229415894,0.1703164428472519,-23.47258949279785,0.008662876673042774,0.002745049074292183,-0.017079893499612808,-0.007592123467475176,0.330312579870224,0.16242334246635437,0.4999547004699707,0.0,1.1014074087142944,1.2238556146621704
322556743,0.344570517539978,0.1757563203573227,-23.473119735717773,0.008593030273914337,0.0026984524447470903,-0.014853429049253464,-0.006106780841946602,0.33189690113067627,0.16348028182983398,0.4971253573894501,0.0,1.0463194847106934,1.1547170877456665
322567119,0.3542938232421875,0.1733490228652954,-23.47021484375,0.008596675470471382,0.002699936041608453,-0.011912587098777294,-0.004909857641905546,0.333974152803421,0.16432571411132812,0.49298566579818726,0.0,0.945689857006073,1.0680290460586548
322576757,0.3613533079624176,0.16973558068275452,-23.46711540222168,0.00868704728782177,0.002721769968047738,-0.008600245229899883,-0.004109591245651245,0.3363015353679657,0.16488800942897797,0.4869440197944641,0.0,0.7803770303726196,0.9858250021934509
322587355,0.3585013449192047,0.17036288976669312,-23.46658706665039,0.008852948434650898,0.0027687677647918463,-0.005763201508671045,-0.0033058898989111185,0.33828404545783997,0.16544963419437408,0.47869673371315,0.0,0.5770725011825562,0.8735889792442322
322596829,0.35345032811164856,0.17004598677158356,-23.468557357788086,0.009033402428030968,0.002828116063028574,-0.003604756435379386,-0.0025960137136280537,0.33978667855262756,0.16594383120536804,0.4683372378349304,0.0,0.3796849548816681,0.742633581161499
322606738,0.34750860929489136,0.16873489320278168,-23.474477767944336,0.009197034873068333,0.002888444112613797,-0.002134784357622266,-0.0020540626719594,0.3408064842224121,0.1663198173046112,0.4563280940055847,0.0,0.2280777096748352,0.6181575059890747
322617103,0.3487805426120758,0.1629023253917694,-23.47608757019043,0.009401585906744003,0.0028894280549138784,-0.000688086380250752,-0.0020471028983592987,0.3418072462081909,0.16632463037967682,0.4426746666431427,0.0,0.07305806875228882,0.6163948178291321
322626735,0.3436298370361328,0.1633850336074829,-23.468862533569336,0.009545424021780491,0.0028973594307899475,0.00017897988436743617,-0.0019992913585156202,0.3424060344696045,0.16635765135288239,0.42801278829574585,0.0,-0.01874813437461853,0.6040095090866089
322637031,0.34233522415161133,0.17083235085010529,-23.472576141357422,0.00967383198440075,0.003024476347491145,0.0008436711505055428,-0.0013412856496870518,0.3428645431995392,0.16681154072284698,0.4125811755657196,0.0,-0.0869915783405304,0.41741615533828735
322646717,0.34263065457344055,0.1715242564678192,-23.46836280822754,0.00980790238827467,0.0031679559033364058,0.0014516649534925818,-0.0006906200433149934,0.3432837426662445,0.16726016998291016,0.3964841961860657,0.0,-0.14694291353225708,0.21464353799819946
322656821,0.3512330949306488,0.16966833174228668,-23.47072410583496,0.010110803879797459,0.003275809111073613,0.002673259936273098,-0.00025565060786902905,0.34412631392478943,0.16756018996238708,0.37924724817276,0.0,-0.25848162174224854,0.07788410782814026
322667449,0.3523823916912079,0.16800335049629211,-23.479358673095703,0.010436935350298882,0.0033469905611127615,0.0038453610613942146,1.72355029803839e-07,0.3449357748031616,0.16773685812950134,0.36104655265808105,0.0,-0.3530051112174988,-5.14984130859375e-05
322676823,0.35145747661590576,0.1747758388519287,-23.474531173706055,0.010725768283009529,0.003575193230062723,0.004797667730599642,0.0007525744149461389,0.3455945551395416,0.16825735569000244,0.3421667218208313,0.0,-0.420608788728714,-0.20747001469135284
322687043,0.3503015339374542,0.17753738164901733,-23.469985961914062,0.010970324277877808,0.0038672236260026693,0.0055351597256958485,0.0016332322265952826,0.3461061120033264,0.16886821389198303,0.32283762097358704,0.0,-0.46728700399398804,-0.39960426092147827
322696738,0.349109947681427,0.17529404163360596,-23.469741821289062,0.011165039613842964,0.004087585955858231,0.0060755107551813126,0.002244755858555436,0.34648221731185913,0.1692938655614853,0.30322402715682983,0.0,-0.4983445107936859,-0.5022012591362
322706849,0.34693586826324463,0.1660815179347992,-23.469863891601562,0.011278225108981133,0.004031296819448471,0.006366015411913395,0.002100282348692417,0.3466852903366089,0.1691928654909134,0.28349384665489197,0.0,-0.5138709545135498,-0.4803015887737274
322717055,0.3483639359474182,0.16651931405067444,-23.474828720092773,0.011416505090892315,0.003985230810940266,0.006695652846246958,0.001990468008443713,0.34691691398620605,0.16911570727825165,0.2636476755142212,0.0,-0.5304256081581116,-0.4632164537906647
322726731,0.34620463848114014,0.17505456507205963,-23.481517791748047,0.011464983224868774,0.004207868594676256,0.0068033672869205475,0.0024851523339748383,0.3469930589199066,0.16946542263031006,0.24380086362361908,0.0,-0.5355554223060608,-0.5334764719009399
322737459,0.34733083844184875,0.1697181910276413,-23.478527069091797,0.011531369760632515,0.004236883018165827,0.006940400693565607,0.002545043360441923,0.3470906913280487,0.16950808465480804,0.22397446632385254,0.0,-0.5417943000793457,-0.5409250259399414
322746771,0.3511080741882324,0.16744466125965118,-23.466968536376953,0.011709203012287617,0.004179663024842739,0.007286774925887585,0.002433593152090907,0.3473392128944397,0.16942812502384186,0.20408420264720917,0.0,-0.5566638708114624,-0.5272629857063293
322756720,0.34572234749794006,0.16884645819664001,-23.462970733642578,0.011665992438793182,0.00416909484192729,0.007207733578979969,0.002414262155070901,0.3472819924354553,0.16941413283348083,0.18430884182453156,0.0,-0.5534350275993347,-0.5248991847038269
322767058,0.34237176179885864,0.17329448461532593,-23.465444564819336,0.011480878107249737,0.0043180049397051334,0.006889155134558678,0.0026705339550971985,0.3470490574836731,0.16960151493549347,0.16475503146648407,0.0,-0.5404597520828247,-0.5538859963417053
322776811,0.34103652834892273,0.1738799810409546,-23.472606658935547,0.011234691366553307,0.004474276676774025,0.006489942315965891,0.002923942171037197,0.34675392508506775,0.16978886723518372,0.14546789228916168,0.0,-0.523838460445404,-0.5788321495056152
322787340,0.34868118166923523,0.17535914480686188,-23.479970932006836,0.011283785104751587,0.004673618823289871,0.006564634386450052,0.0032272236421704292,0.34680989384651184,0.1700161248445511,0.12627926468849182,0.0,-0.5269116163253784,-0.6043346524238586
322796757,0.3530988097190857,0.17141951620578766,-23.4750919342041,0.01149140764027834,0.004692009184509516,0.006864709313958883,0.0032538031227886677,0.3470374643802643,0.17003628611564636,0.10711164027452469,0.0,-0.538489043712616,-0.6063350439071655
322806712,0.3530845642089844,0.17185205221176147,-23.4721622467041,0.011665706522762775,0.004718577954918146,0.007102773990482092,0.0032900916412472725,0.34722068905830383,0.17006421089172363,0.08799669146537781,0.0,-0.5469082593917847,-0.6088869571685791
322817015,0.3523906469345093,0.17195436358451843,-23.467378616333008,0.011778528802096844,0.004738950170576572,0.007248484063893557,0.0033164024353027344,0.3473346531391144,0.17008478939533234,0.0689944177865982,0.0,-0.5516647696495056,-0.6106037497520447
322826725,0.34943071007728577,0.1670941710472107,-23.473867416381836,0.011733131483197212,0.004536684136837721,0.007193021941930056,0.003069296246394515,0.3472905158996582,0.16988813877105713,0.05019770562648773,0.0,-0.5499614477157593,-0.594814121723175
322837060,0.34962335228919983,0.16595607995986938,-23.478260040283203,0.011676625348627567,0.004287051502615213,0.0071277073584496975,0.0027807503938674927,0.34723755717277527,0.16965411603450775,0.031636931002140045,0.0,-0.5480499267578125,-0.5754181146621704
322846802,0.3501816987991333,0.16339191794395447,-23.47450828552246,0.011626427061855793,0.0039278436452150345,0.007072808686643839,0.0023879047948867083,0.34719210863113403,0.16932889819145203,0.013333221897482872,0.0,-0.5465285181999207,-0.54623943567276
322856733,0.35454806685447693,0.1690799742937088,-23.47057342529297,0.011758668348193169,0.003846188774332404,0.0072096255607903,0.002303424756973982,0.3473079204559326,0.16925738751888275,-0.004753768909722567,0.0,-0.5500200986862183,-0.5395992398262024
322867469,0.348393052816391,0.17589087784290314,-23.467824935913086,0.011566934175789356,0.004083133302628994,0.007023034151643515,0.0025340132415294647,0.3471457362174988,0.16945780813694,-0.02253679744899273,0.0,-0.5456709861755371,-0.5554326772689819
322876800,0.34707871079444885,0.17422270774841309,-23.468881607055664,0.0113058565184474,0.004216679837554693,0.006781491916626692,0.002657567383721471,0.3469308316707611,0.16956773400306702,-0.0400167740881443,0.0,-0.540287971496582,-0.5623665452003479
322887084,0.34502318501472473,0.1681232899427414,-23.47134017944336,0.010936147533357143,0.004036976024508476,0.006453074049204588,0.0024979340378195047,0.34662890434265137,0.16942098736763,-0.057165149599313736,0.0,-0.5330847501754761,-0.5541021823883057
322896763,0.3483896851539612,0.16916385293006897,-23.4735050201416,0.010739953257143497,0.0039148288778960705,0.0062807463109493256,0.002390646142885089,0.3464657962322235,0.16931945085525513,-0.0740053728222847,0.0,-0.5291695594787598,-0.5482239723205566
322906734,0.34970664978027344,0.17231188714504242,-23.478891372680664,0.01060275174677372,0.003948332741856575,0.0061624180525541306,0.0024195415899157524,0.34635016322135925,0.16934768855571747,-0.090519480407238,0.0,-0.526488184928894,-0.5497787594795227
322917071,0.3480243384838104,0.17335844039916992,-23.48209571838379,0.010374713689088821,0.0040230476297438145,0.005969531834125519,0.002482739510014653,0.3461555540561676,0.16941145062446594,-0.10666470229625702,0.0,-0.5221291184425354,-0.5529192686080933
322926740,0.35040438175201416,0.1727525293827057,-23.47650718688965,0.010263592004776001,0.004054573830217123,0.005877489689737558,0.002508852630853653,0.3460596799850464,0.1694386601448059,-0.12246541678905487,0.0,-0.5200695991516113,-0.5541074275970459
322937463,0.34971585869789124,0.16830138862133026,-23.46920394897461,0.010107810609042645,0.003857159288600087,0.005752203986048698,0.0023500840179622173,0.3459244668483734,0.16926729679107666,-0.13789089024066925,0.0,-0.5173776745796204,-0.5472139716148376
322946785,0.3548613488674164,0.17042893171310425,-23.462682723999023,0.01020148117095232,0.0037761926651000977,0.005826198495924473,0.0022861247416585684,0.3460066616535187,0.1691962629556656,-0.15295128524303436,0.0,-0.5189082026481628,-0.5443840622901917
322956758,0.35525596141815186,0.17164525389671326,-23.465055465698242,0.010291866958141327,0.0037545128725469112,0.0058938185684382915,0.002269905526190996,0.3460836708545685,0.16917778551578522,-0.16762356460094452,0.0,-0.5200796723365784,-0.5437807440757751
322967045,0.35419633984565735,0.17137092351913452,-23.47652816772461,0.010304656811058521,0.0037137276958674192,0.005902894772589207,0.00224096211604774,0.3460942208766937,0.16914412379264832,-0.18184931576251984,0.0,-0.5202076435089111,-0.5429352521896362
322976763,0.35553449392318726,0.17172127962112427,-23.479724884033203,0.010369689203798771,0.003687927033752203,0.005946873687207699,0.0022235140204429626,0.34614628553390503,0.16912347078323364,-0.19557902216911316,0.0,-0.5206958651542664,-0.5425615906715393
322987331,0.3549039661884308,0.17211368680000305,-23.47014617919922,0.010377424769103527,0.0036783525720238686,0.005951848346740007,0.0022173563484102488,0.34615227580070496,0.1691160500049591,-0.20881877839565277,0.0,-0.5207349061965942,-0.5424848198890686
322996739,0.3539401590824127,0.1685211956501007,-23.468460083007812,0.010317039676010609,0.0034687998704612255,0.005914272740483284,0.0020869579166173935,0.346106618642807,0.1689576357603073,-0.22153805196285248,0.0,-0.5205202698707581,-0.5416222214698792
323006813,0.35286745429039,0.17040841281414032,-23.476242065429688,0.01018634345382452,0.003374535357579589,0.005835837684571743,0.002030386356636882,0.3460105061531067,0.16888831555843353,-0.23374566435813904,0.0,-0.5202606320381165,-0.5416529774665833
323017055,0.3512996733188629,0.17260874807834625,-23.477046966552734,0.00996434222906828,0.0034051183611154556,0.005706908646970987,0.0020481476094573736,0.3458516001701355,0.1689102053642273,-0.24544553458690643,0.0,-0.5201289653778076,-0.5415149927139282
323026729,0.356839656829834,0.16935747861862183,-23.4780330657959,0.010055629536509514,0.0032472426537424326,0.005758371204137802,0.0019591462332755327,0.3459152579307556,0.16880013048648834,-0.2566137909889221,0.0,-0.5200675129890442,-0.5428615808486938
323036997,0.3520592153072357,0.1687191277742386,-23.478139877319336,0.009858555160462856,0.0030635553412139416,0.005650227423757315,0.0018583483761176467,0.3457813560962677,0.16867533326148987,-0.26724106073379517,0.0,-0.5204272866249084,-0.5452573299407959
323046812,0.35029786825180054,0.16820959746837616,-23.47412109375,0.009568804875016212,0.002864497248083353,0.005495076067745686,0.0017517597880214453,0.34558942914009094,0.1685434877872467,-0.2773398160934448,0.0,-0.521285355091095,-0.5488629341125488
323056723,0.35179489850997925,0.169566810131073,-23.472545623779297,0.009377588517963886,0.002755942055955529,0.005394950043410063,0.0016949173295870423,0.34546592831611633,0.16847336292266846,-0.2868626117706299,0.0,-0.5220615863800049,-0.551379382610321
323067449,0.35256901383399963,0.17177759110927582,-23.465639114379883,0.00923516508191824,0.0027763177640736103,0.00532233202829957,0.0017053063493221998,0.3453764021396637,0.16848617792129517,-0.29580020904541016,0.0,-0.5228193402290344,-0.5508193969726562
323076737,0.3543160855770111,0.17433172464370728,-23.472108840942383,0.009193879552185535,0.0029317152220755816,0.0053015402518212795,0.0017835658509284258,0.3453510105609894,0.16858172416687012,-0.3041708171367645,0.0,-0.523064374923706,-0.5465507507324219
323087063,0.35239049792289734,0.17238233983516693,-23.475637435913086,0.009043850935995579,0.0029640274588018656,0.005227318964898586,0.0017995511880144477,0.34526097774505615,0.1686011105775833,-0.3120006322860718,0.0,-0.5240837335586548,-0.5456459522247314
323096742,0.3484957814216614,0.16576054692268372,-23.470579147338867,0.008692608214914799,0.002636868506669998,0.005056469701230526,0.00164041668176651,0.3450552523136139,0.16840948164463043,-0.3192768394947052,0.0,-0.5268531441688538,-0.5565168857574463
323106763,0.3440498113632202,0.16564351320266724,-23.473039627075195,0.00813453458249569,0.0023335677105933428,0.004789413884282112,0.0014952777419239283,0.34473612904548645,0.16823604702949524,-0.32602375745773315,0.0,-0.5321252346038818,-0.5698584914207458
323117049,0.34678369760513306,0.1733933985233307,-23.471769332885742,0.007767685689032078,0.00246145436540246,0.004616663791239262,0.001555499853566289,0.3445312976837158,0.16830745339393616,-0.33220162987709045,0.0,-0.5362489819526672,-0.5635767579078674
323126805,0.35007143020629883,0.1776830106973648,-23.463642120361328,0.0076005058363080025,0.002795364009216428,0.004539198242127895,0.0017102223355323076,0.34444013237953186,0.1684895157814026,-0.3378062844276428,0.0,-0.538375198841095,-0.5490556955337524
323137447,0.3505503237247467,0.17260655760765076,-23.4733943939209,0.007469473406672478,0.002840230707079172,0.004479872994124889,0.0017305357614532113,0.3443705141544342,0.16851335763931274,-0.34281668066978455,0.0,-0.5402411818504333,-0.5472253561019897
323146719,0.35422050952911377,0.16955332458019257,-23.481733322143555,0.007530537899583578,0.0027287432458251715,0.004507238976657391,0.0016805727500468493,0.3444022834300995,0.1684553474187851,-0.3472093641757965,0.0,-0.5393365621566772,-0.5520126819610596
323156776,0.35986533761024475,0.17106033861637115,-23.477209091186523,0.007857995107769966,0.002700346987694502,0.004651307128369808,0.00166807952336967,0.34456872940063477,0.16844090819358826,-0.35096290707588196,0.0,-0.5344573855400085,-0.5533527731895447
323167155,0.35312843322753906,0.17404580116271973,-23.473403930664062,0.00783186499029398,0.0028167259879410267,0.0046401191502809525,0.001717907958664,0.3445557653903961,0.16849860548973083,-0.35411912202835083,0.0,-0.5348619222640991,-0.547663688659668
323176757,0.35240262746810913,0.17614507675170898,-23.468887329101562,0.007773475721478462,0.0030199603643268347,0.0046154772862792015,0.0018036782275885344,0.34452739357948303,0.16859731078147888,-0.3566960394382477,0.0,-0.5358089208602905,-0.5383967161178589
323187360,0.3562210202217102,0.17292268574237823,-23.463302612304688,0.007895262911915779,0.00305704097263515,0.004665242042392492,0.0018188301473855972,0.344585120677948,0.16861487925052643,-0.3586593568325043,0.0,-0.5336949825286865,-0.5367085337638855
323196823,0.35477739572525024,0.17378197610378265,-23.47425079345703,0.007942041382193565,0.003130466677248478,0.0046836864203214645,0.0018477811245247722,0.3446071743965149,0.16864947974681854,-0.36000436544418335,0.0,-0.5328362584114075,-0.5332250595092773
323206737,0.3538975417613983,0.17245511710643768,-23.47554588317871,0.007946301251649857,0.0031386404298245907,0.004685281775891781,0.0018508417997509241,0.34460917115211487,0.16865332424640656,-0.36076271533966064,0.0,-0.53275066614151,-0.5328081250190735
323217053,0.34429430961608887,0.17359241843223572,-23.475341796875,0.007517550140619278,0.00319818127900362,0.004533207044005394,0.0018719604704529047,0.3444068133831024,0.16868142783641815,-0.3610466420650482,0.0,-0.5426346063613892,-0.5295556783676147
323226795,0.34454959630966187,0.17016561329364777,-23.474224090576172,0.007134696003049612,0.003100163768976927,0.004405065439641476,0.0018391539342701435,0.34422537684440613,0.16863498091697693,-0.36082953214645386,0.0,-0.5531260371208191,-0.5354371666908264
323237078,0.35127517580986023,0.16572149097919464,-23.471485137939453,0.007083321455866098,0.002812678925693035,0.004389088600873947,0.0017497491789981723,0.34420090913772583,0.16849808394908905,-0.3600359261035919,0.0,-0.5547335147857666,-0.5565064549446106
323246769,0.3493500053882599,0.168525829911232,-23.472978591918945,0.006954042240977287,0.002672452013939619,0.004351221024990082,0.001708674943074584,0.3441387712955475,0.16843068599700928,-0.3587067723274231,0.0,-0.5591104626655579,-0.5688632726669312
323256815,0.3521266579627991,0.17555472254753113,-23.47817039489746,0.006959214806556702,0.0028503669891506433,0.004352619871497154,0.0017567977774888277,0.34414127469062805,0.16851702332496643,-0.3568217158317566,0.0,-0.558920681476593,-0.5523483157157898
323267447,0.35278335213661194,0.1729474812746048,-23.47519874572754,0.006996605545282364,0.0029041972011327744,0.004361717030405998,0.0017698949668556452,0.3441596031188965,0.16854341328144073,-0.35438182950019836,0.0,-0.5574513673782349,-0.5473219752311707
323276727,0.3480483591556549,0.16818276047706604,-23.473831176757812,0.006834783125668764,0.002753861714154482,0.004325916524976492,0.0017366359243169427,0.34407922625541687,0.16846872866153717,-0.3514745533466339,0.0,-0.5642790794372559,-0.5626293420791626
323287049,0.34531253576278687,0.16750343143939972,-23.4732666015625,0.006576675921678543,0.0025890551041811705,0.0042758905328810215,0.0017046933062374592,0.3439492881298065,0.16838575899600983,-0.3481566309928894,0.0,-0.5764875411987305,-0.5822736620903015
323296744,0.3436911404132843,0.17571070790290833,-23.46925163269043,0.006277733016759157,0.002775142202153802,0.004226808901876211,0.0017352458089590073,0.34379658102989197,0.16848081350326538,-0.3444519639015198,0.0,-0.592582106590271,-0.5588018894195557
323306739,0.3442162275314331,0.17667225003242493,-23.471019744873047,0.006028881762176752,0.0029873724561184645,0.004193948116153479,0.001763270585797727,0.34366750717163086,0.16859090328216553,-0.34034693241119385,0.0,-0.6077956557273865,-0.5332130789756775
323317049,0.34336403012275696,0.1648183912038803,-23.470243453979492,0.005772203207015991,0.0027178137097507715,0.004170025233179331,0.0017381473444402218,0.3435322046279907,0.1684488207101822,-0.335862398147583,0.0,-0.6256229877471924,-0.5689859390258789
323326775,0.35012659430503845,0.16586579382419586,-23.474578857421875,0.005802602507174015,0.0025121443904936314,0.004171824082732201,0.001725976006127894,0.3435485064983368,0.16833853721618652,-0.3308175802230835,0.0,-0.6233360767364502,-0.6019836664199829
323337442,0.35127556324005127,0.17500516772270203,-23.479310989379883,0.005880840588361025,0.002671825001016259,0.004172890912741423,0.0017281532054767013,0.34359121322631836,0.16842569410800934,-0.3251599073410034,0.0,-0.6171225309371948,-0.5741268396377563
323346720,0.3516519367694855,0.171969935297966,-23.474227905273438,0.005972590297460556,0.002708714222535491,0.004170441068708897,0.0017271683318540454,0.3436422049999237,0.16844619810581207,-0.3188779056072235,0.0,-0.6095594763755798,-0.5676329135894775
323356761,0.34770020842552185,0.1666363775730133,-23.466243743896484,0.005919966381043196,0.0025515637826174498,0.0041742646135389805,0.0017385870451107621,0.343612402677536,0.16835720837116241,-0.31208518147468567,0.0,-0.6141514778137207,-0.598120391368866
323367056,0.3520716726779938,0.16490472853183746,-23.467634201049805,0.006033909972757101,0.0023482665419578552,0.004160046111792326,0.0017639558063820004,0.34367820620536804,0.1682398021221161,-0.3046574592590332,0.0,-0.6036065220832825,-0.644251823425293
323376745,0.3542110025882721,0.1676153540611267,-23.472190856933594,0.006219260394573212,0.002257332904264331,0.004128854256123304,0.0017792587168514729,0.3437873125076294,0.1681862771511078,-0.2965525984764099,0.0,-0.5860722064971924,-0.6675121784210205
323387348,0.3538610637187958,0.16938859224319458,-23.470476150512695,0.006385437678545713,0.002236704807728529,0.004091611132025719,0.001783881802111864,0.34388718008995056,0.1681738793849945,-0.28779420256614685,0.0,-0.5698608160018921,-0.6732446551322937
323396765,0.3290400505065918,0.18314780294895172,-23.47454833984375,0.005725701805204153,0.002674244809895754,0.004270222969353199,0.0016654256032779813,0.34348276257514954,0.16844210028648376,-0.2792135179042816,0.0,-0.6408070921897888,-0.556990385055542
323406739,0.3489534854888916,0.03288422152400017,-23.49883460998535,0.005764905828982592,-0.0017441625241190195,0.004257466644048691,0.0031031020916998386,0.343507319688797,0.165676087141037,-0.2700996398925781,0.0,-0.6361098289489746,-2.082859516143799
323417032,0.3910585939884186,0.4592748284339905,-23.419940948486328,0.007120510097593069,0.007492398843169212,0.003738697385415435,-0.0004315903061069548,0.3443743884563446,0.17158402502536774,-0.2590726315975189,0.0,-0.4834943115711212,0.057540178298950195
323426851,0.32470637559890747,0.02681204117834568,-23.549606323242188,0.006365964189171791,0.002900931518524885,0.004073014482855797,0.0016027525998651981,0.3438809812068939,0.16858164966106415,-0.24841977655887604,0.0,-0.5691791772842407,-0.5047574043273926
323437069,0.3536956310272217,-0.0733121708035469,-23.489748001098633,0.0065292855724692345,-0.004215645138174295,0.003988988231867552,0.00526411272585392,0.34399041533470154,0.1638137549161911,-0.23711654543876648,0.0,-0.5484232902526855,-2.2460415363311768
323446727,0.31757694482803345,0.3035496771335602,-23.452180862426758,0.00566583126783371,-0.00010129580914508551,0.004485355690121651,0.0028989287093281746,0.3433991074562073,0.1666312962770462,-0.2265305519104004,0.0,-0.6696287393569946,-1.605724573135376
323456753,0.3503527343273163,0.2941091060638428,-23.511226654052734,0.005774698220193386,0.0034003390464931726,0.00441480940207839,0.0006298539228737354,0.3434755206108093,0.16908873617649078,-0.21535895764827728,0.0,-0.6527224779129028,-0.18315672874450684
323467458,0.36985984444618225,0.10732908546924591,-23.458383560180664,0.006387791596353054,0.0017264876514673233,0.003963325172662735,0.0018624841468408704,0.34391793608665466,0.1678808480501175,-0.2028745859861374,0.0,-0.5553229451179504,-0.8232729434967041
323476738,0.36905592679977417,0.46956413984298706,-23.42152214050293,0.006931825075298548,0.009240129962563515,0.003521303180605173,-0.004242277238518,0.3443203568458557,0.17343884706497192,-0.18923482298851013,0.0,-0.47001978754997253,0.43040764331817627
323487074,0.3593229651451111,-0.30100587010383606,-23.49793815612793,0.007198902312666178,-0.0022802522871643305,0.0032791239209473133,0.006204134784638882,0.34452369809150696,0.16466759145259857,-0.17489871382713318,0.0,-0.42742103338241577,-1.9230085611343384
323496743,0.35859495401382446,0.2781737744808197,-23.436246871948242,0.007429172284901142,0.0004063282976858318,0.0030462881550192833,0.0034876198042184114,0.3447045385837555,0.16677746176719666,-0.15997914969921112,0.0,-0.3891349732875824,-1.4548132419586182
323506827,0.33942389488220215,0.3647324740886688,-23.487462997436523,0.007232643198221922,0.004668182693421841,0.003267937107011676,-0.001318970462307334,0.344544917345047,0.17023900151252747,-0.14523981511592865,0.0,-0.42437607049942017,0.2753669023513794
323517104,0.2991248667240143,0.08159197866916656,-23.497678756713867,0.006260079797357321,0.0028125476092100143,0.004508564248681068,0.0010481260251253843,0.34372201561927795,0.16866889595985413,-0.13227760791778564,0.0,-0.6241605281829834,-0.35671818256378174
323526776,0.3417545557022095,0.29871535301208496,-23.438425064086914,0.006194320507347584,0.005222806707024574,0.0046012792736291885,-0.0023501247633248568,0.343664288520813,0.17078478634357452,-0.11935827881097794,0.0,-0.6388915181159973,0.4228319525718689
323537478,0.360015332698822,-0.0413517989218235,-23.485397338867188,0.006457187235355377,0.0014700258616358042,0.004179071169346571,0.003677471773698926,0.3439071774482727,0.16731715202331543,-0.10581472516059875,0.0,-0.5744020938873291,-1.1905155181884766
323547037,0.401013046503067,0.17575299739837646,-23.452539443969727,0.007348006125539541,0.0016317619010806084,0.0025838918518275023,0.003387852804735303,0.3447699248790741,0.16747379302978516,-0.09016310423612595,0.0,-0.3381398022174835,-1.121935486793518
323556842,0.38934043049812317,0.3374618589878082,-23.44109344482422,0.007954753004014492,0.004125595558434725,0.0013467413373291492,-0.0016970456345006824,0.34539416432380676,0.17003953456878662,-0.07315647602081299,0.0,-0.16770994663238525,0.39024877548217773
323567022,0.35821425914764404,0.14603663980960846,-23.48138427734375,0.008071140386164188,0.003760748775675893,0.0010738729033619165,-0.0008416663040407002,0.3455227017402649,0.16963663697242737,-0.05655354633927345,0.0,-0.1322740763425827,0.22017480432987213
323576732,0.35471993684768677,0.16484127938747406,-23.44997215270996,0.008132003247737885,0.003671532729640603,0.000907649053260684,-0.0005980058340355754,0.3455958366394043,0.16952945291996002,-0.04113944247364998,0.0,-0.11115439236164093,0.16145867109298706
323587363,0.3297378420829773,0.10756685584783554,-23.46571922302246,0.007937253452837467,0.0030327229760587215,0.0015504318289458752,0.0015104198828339577,0.3453335464000702,0.16866905987262726,-0.028289122506976128,0.0,-0.19290700554847717,-0.46207892894744873
323596755,0.320512980222702,0.08611803501844406,-23.482994079589844,0.007701992057263851,0.0023296542931348085,0.0024755755439400673,0.004275172483175993,0.34497806429862976,0.16760669648647308,-0.018312102183699608,0.0,-0.31099066138267517,-1.0718566179275513
323606766,0.3296333849430084,0.33089855313301086,-23.45528793334961,0.00758441723883152,0.003472844371572137,0.003058056812733412,-0.0013883380452170968,0.344768762588501,0.16964173316955566,-0.010348894633352757,0.0,-0.3832642138004303,0.38030803203582764
323617053,0.34332263469696045,0.14829781651496887,-23.474855422973633,0.0075728376396000385,0.0033487477339804173,0.0031371477525681257,-0.0005407215212471783,0.3447423577308655,0.16935865581035614,-0.003853763220831752,0.0,-0.3927414119243622,0.1600881963968277
323626749,0.3625841736793518,0.13621413707733154,-23.47406005859375,0.007636375725269318,0.003220516489818692,0.0025189463049173355,0.0007069226703606546,0.3449369966983795,0.16896584630012512,0.002545541152358055,0.0,-0.3186226487159729,-0.21607886254787445
323637109,0.39013588428497314,0.14470355212688446,-23.461742401123047,0.007718588691204786,0.003174522891640663,0.0009032246889546514,0.001610826118849218,0.34541067481040955,0.16870085895061493,0.010254811495542526,0.0,-0.11648961901664734,-0.4695681929588318
