TimeUS,PLX,PLY,PLZ,AX,AY,BX,BY,CX,CY,F,P,X,Y
237905969,0.30387958884239197,0.1190788671374321,-23.512094497680664,0.0,0.0,0.15119890868663788,0.05924911051988602,0.15119890868663788,0.05924911051988602,0.0,0.0,-1.5707963705062866,-1.5707963705062866
237915841,0.31025224924087524,0.11344463378190994,-23.5062255859375,0.00029574264772236347,-0.00018615122826304287,0.1551366150379181,0.056770578026771545,0.15513940155506134,0.05676881596446037,0.0,0.0,-1.5688899755477905,-1.5740753412246704
237925744,0.30361518263816833,0.10737570375204086,-23.495084762573242,-0.0006048133363947272,-0.0010500663192942739,0.15210357308387756,0.053860943764448166,0.15210194885730743,0.05385494604706764,0.0,0.0,-1.574772596359253,-1.5902897119522095
237935620,0.297826886177063,0.11427214741706848,-23.491819381713867,-0.002719755517318845,0.001730509800836444,0.14963437616825104,0.057107266038656235,0.1496303826570511,0.057104386389255524,0.0,0.0,-1.5889703035354614,-1.5405027866363525
237945704,0.3010075092315674,0.11772137880325317,-23.489839553833008,0.0004996400093659759,0.004990395624190569,0.15122392773628235,0.05871680751442909,0.15121938288211823,0.05871336907148361,0.0,0.0,-1.5674923658370972,-1.486009120941162
237955897,0.29965656995773315,0.113310307264328,-23.495967864990234,0.00023825699463486671,-0.00021097197895869613,0.15115435421466827,0.057332299649715424,0.1511499136686325,0.05733107030391693,0.0,0.0,-1.5692200660705566,-1.5744761228561401
237966033,0.29763564467430115,0.11110949516296387,-23.513076782226562,-0.0008843238465487957,-0.003224508836865425,0.15094172954559326,0.056761495769023895,0.1509375423192978,0.05676097050309181,0.0,0.0,-1.5766549110412598,-1.627543330192566
237975638,0.2988882064819336,0.11102680116891861,-23.50613784790039,0.0026633667293936014,-0.002777744783088565,0.1515822857618332,0.05684215947985649,0.15157638490200043,0.0568414181470871,0.0,0.0,-1.5532276630401611,-1.6196250915527344
237985714,0.3065395951271057,0.11073172092437744,-23.49740982055664,0.014850660227239132,-0.002210673876106739,0.15387478470802307,0.05694882944226265,0.15386228263378143,0.05694777891039848,0.0,0.0,-1.4745830297470093,-1.6095954179763794
237995697,0.30938786268234253,0.10896741598844528,-23.494417190551758,0.021014131605625153,-0.0032754710409790277,0.15514840185642242,0.056728802621364594,0.155130997300148,0.05672859773039818,0.0,0.0,-1.436170220375061,-1.6284713745117188
238006395,0.307407945394516,0.10480474680662155,-23.49737548828125,0.021433144807815552,-0.006557676941156387,0.1552436798810959,0.055982451885938644,0.15522587299346924,0.05598539486527443,0.0,0.0,-1.4336023330688477,-1.6874029636383057
238016791,0.30096951127052307,0.11111479252576828,-23.50788116455078,0.017416877672076225,-0.0010167350992560387,0.1542203724384308,0.05739424005150795,0.15421000123023987,0.05738691985607147,0.0,0.0,-1.4583377838134766,-1.5885093212127686
238026209,0.2938949167728424,0.1180165484547615,-23.509275436401367,0.012788642197847366,0.005849156994372606,0.15291728079319,0.05932734161615372,0.1529209017753601,0.059299271553754807,0.0,0.0,-1.4873594045639038,-1.4725226163864136
238036223,0.29553839564323425,0.119245246052742,-23.5001163482666,0.013977536000311375,0.008920872583985329,0.15328268706798553,0.06027141958475113,0.1532810926437378,0.06022987514734268,0.0,0.0,-1.4798598289489746,-1.423851490020752
238046282,0.2973155379295349,0.11043860763311386,-23.497730255126953,0.01658690720796585,0.005525426939129829,0.15414899587631226,0.05914413183927536,0.1541321575641632,0.05912243202328682,0.0,0.0,-1.4636056423187256,-1.477643609046936
238056550,0.30254074931144714,0.11041970551013947,-23.49350357055664,0.021149901673197746,0.004815406631678343,0.15577085316181183,0.058891765773296356,0.1557207554578781,0.05887524038553238,0.0,0.0,-1.4358458518981934,-1.4892107248306274
238066896,0.30872654914855957,0.11862017959356308,-23.49933624267578,0.02656751498579979,0.008411547169089317,0.15781670808792114,0.060249779373407364,0.15771999955177307,0.060202307999134064,0.0,0.0,-1.4040160179138184,-1.432081699371338
238076180,0.3047668933868408,0.12017668038606644,-23.508331298828125,0.02838900499045849,0.010905800387263298,0.15854273736476898,0.06124395877122879,0.1584283709526062,0.06117232143878937,0.0,0.0,-1.3936119079589844,-1.3945720195770264
238086199,0.3045493960380554,0.11163685470819473,-23.508808135986328,0.03008773736655712,0.009611189365386963,0.1592533439397812,0.060702402144670486,0.15912127494812012,0.06064426153898239,0.0,0.0,-1.3840672969818115,-1.4137669801712036
238096177,0.3007919490337372,0.1115986630320549,-23.508575439453125,0.03070708177983761,0.009312178939580917,0.1595238894224167,0.06057178974151611,0.15938518941402435,0.0605168491601944,0.0,0.0,-1.3806302547454834,-1.41825270652771
238106606,0.3015238046646118,0.1087535098195076,-23.498409271240234,0.03207104280591011,0.008740579709410667,0.16014321148395538,0.06031224504113197,0.1599903553724289,0.060263242572546005,0.0,0.0,-1.3731461763381958,-1.426876187324524
238116534,0.30085164308547974,0.10951417684555054,-23.496036529541016,0.03347351774573326,0.008930113166570663,0.16080242395401,0.06040133163332939,0.16063643991947174,0.060350555926561356,0.0,0.0,-1.3655617237091064,-1.424013376235962
238126297,0.2993986904621124,0.1107669472694397,-23.4993953704834,0.03474452346563339,0.009622929617762566,0.16141840815544128,0.06073709949851036,0.16124293208122253,0.06068114936351776,0.0,0.0,-1.35878586769104,-1.4136666059494019
238136208,0.30318886041641235,0.10697546601295471,-23.504352569580078,0.03700802102684975,0.009584872983396053,0.16254515945911407,0.06071815639734268,0.16235940158367157,0.06066237762570381,0.0,0.0,-1.3469340801239014,-1.4142298698425293
238146201,0.30072787404060364,0.11247462779283524,-23.508888244628906,0.03869261220097542,0.010846764780580997,0.1634031981229782,0.06136089563369751,0.16321678459644318,0.06130462512373924,0.0,0.0,-1.3382866382598877,-1.3958337306976318
238156427,0.2990512549877167,0.11452999711036682,-23.503585815429688,0.04018836095929146,0.012283269315958023,0.1641796976327896,0.06210663542151451,0.16400106251239777,0.06205784156918526,0.0,0.0,-1.3307340145111084,-1.3755390644073486
238166518,0.30575576424598694,0.11560878902673721,-23.49913787841797,0.04289029538631439,0.013672048225998878,0.16560345888137817,0.06283844262361526,0.1654585897922516,0.06280700117349625,0.0,0.0,-1.317370891571045,-1.3565607070922852
238176179,0.30741286277770996,0.11243633925914764,-23.4985294342041,0.04562307149171829,0.014418086037039757,0.16705870628356934,0.06323571503162384,0.16697333753108978,0.06322052329778671,0.0,0.0,-1.3042011260986328,-1.346623182296753
238186285,0.2997146546840668,0.1095922514796257,-23.50156593322754,0.047127772122621536,0.014801078476011753,0.16786453127861023,0.06344082206487656,0.16782937943935394,0.06343840807676315,0.0,0.0,-1.297093391418457,-1.3415910005569458
238196312,0.3069118857383728,0.11187070608139038,-23.50734519958496,0.04971090704202652,0.015594820491969585,0.16924822330474854,0.06386599689722061,0.169336199760437,0.06390142440795898,0.0,0.0,-1.2851146459579468,-1.3313024044036865
238206918,0.3054857850074768,0.11426397413015366,-23.505369186401367,0.05201897770166397,0.0166840311139822,0.17047718167304993,0.06444595754146576,0.17071543633937836,0.06455229967832565,0.0,0.0,-1.2746329307556152,-1.3174738883972168
238216837,0.3093608617782593,0.11142279952764511,-23.5047550201416,0.0547366589307785,0.01740231178700924,0.17190520465373993,0.06482338160276413,0.17237767577171326,0.06499163061380386,0.0,0.0,-1.2625346183776855,-1.3085229396820068
238226222,0.3041720390319824,0.10792847722768784,-23.502626419067383,0.05681135132908821,0.017795953899621964,0.17297177016735077,0.06502574682235718,0.1736755222082138,0.06523787975311279,0.0,0.0,-1.2534536123275757,-1.3036619424819946
238236173,0.3026670515537262,0.11234206706285477,-23.49721908569336,0.05879982188344002,0.01873910054564476,0.17396149039268494,0.06549517810344696,0.1749468445777893,0.06584087759256363,0.0,0.0,-1.244847297668457,-1.292127013206482
238246193,0.3030523955821991,0.11712966859340668,-23.49586296081543,0.060914117842912674,0.020122960209846497,0.1749671846628189,0.06615342944860458,0.17632748186588287,0.06674454361200333,0.0,0.0,-1.2357741594314575,-1.275503396987915
238256459,0.3038082718849182,0.11299046128988266,-23.5025634765625,0.06316687911748886,0.02105106972157955,0.17597438395023346,0.06656838208436966,0.1778290569782257,0.06736317276954651,0.0,0.0,-1.2261662483215332,-1.2645149230957031
238266979,0.30739420652389526,0.11023575067520142,-23.506122589111328,0.06577258557081223,0.02175561711192131,0.17704568803310394,0.06685804575681686,0.17960090935230255,0.0678422600030899,0.0,0.0,-1.2150970697402954,-1.2562025785446167
238276259,0.30900150537490845,0.11014489829540253,-23.50185203552246,0.06850124895572662,0.02250526286661625,0.17804662883281708,0.06713303178548813,0.18149280548095703,0.06836201995611191,0.0,0.0,-1.2035160064697266,-1.2473363876342773
238286272,0.3061555027961731,0.11578710377216339,-23.499130249023438,0.0709972009062767,0.023728029802441597,0.1788281351327896,0.06751589477062225,0.18325649201869965,0.06922604888677597,0.0,0.0,-1.1928670406341553,-1.2328360080718994
238296183,0.3042111098766327,0.11378275603055954,-23.500221252441406,0.07338511198759079,0.024770844727754593,0.17942246794700623,0.06777544319629669,0.18497537076473236,0.06997669488191605,0.0,0.0,-1.182549238204956,-1.2203943729400635
238306480,0.30500373244285583,0.11634822934865952,-23.502582550048828,0.07588420063257217,0.02598952129483223,0.17985491454601288,0.06798632442951202,0.18680717051029205,0.07086996734142303,0.0,0.0,-1.171538233757019,-1.2056622505187988
238316493,0.3034558594226837,0.1199360266327858,-23.50892448425293,0.07832343131303787,0.02741781622171402,0.18006081879138947,0.06810688972473145,0.18862710893154144,0.07193563133478165,0.0,0.0,-1.1605002880096436,-1.1880760192871094
238326290,0.30324578285217285,0.11777357757091522,-23.508834838867188,0.0808032974600792,0.028652239590883255,0.18001604080200195,0.06808460503816605,0.1905098706483841,0.0728728249669075,0.0,0.0,-1.148884892463684,-1.1724605560302734
238336230,0.3055313527584076,0.11187466979026794,-23.50164222717285,0.08346922695636749,0.029503511264920235,0.17966262996196747,0.06797175854444504,0.1925688534975052,0.07353028655052185,0.0,0.0,-1.1358768939971924,-1.1612807512283325
238346193,0.3086358606815338,0.10942522436380386,-23.498844146728516,0.08633235096931458,0.030241915956139565,0.17894800007343292,0.06778745353221893,0.19481776654720306,0.07411028444766998,0.0,0.0,-1.1212921142578125,-1.151166558265686
238356460,0.30744272470474243,0.10712187737226486,-23.503921508789062,0.08911176770925522,0.030894847586750984,0.17791925370693207,0.06754578649997711,0.1970376819372177,0.07463178038597107,0.0,0.0,-1.1064648628234863,-1.1418129205703735
238366502,0.3061735928058624,0.11318141222000122,-23.50628089904785,0.09180831164121628,0.0319191999733448,0.1765836626291275,0.06703842431306839,0.19922739267349243,0.07546360045671463,0.0,0.0,-1.0913447141647339,-1.1264240741729736
238376194,0.30616551637649536,0.12243117392063141,-23.51154899597168,0.09448707848787308,0.03340363875031471,0.17490549385547638,0.06610846519470215,0.20143894851207733,0.07668913155794144,0.0,0.0,-1.075494408607483,-1.1029293537139893
238386186,0.2988041043281555,0.11913002282381058,-23.50937843322754,0.09677997976541519,0.034649558365345,0.17315071821212769,0.06515494734048843,0.20336367189884186,0.07773499190807343,0.0,0.0,-1.0611191987991333,-1.0820316076278687
238396200,0.2979271709918976,0.11451509594917297,-23.50142478942871,0.09903665632009506,0.03563087061047554,0.17108838260173798,0.0642581433057785,0.20529024302959442,0.07857275754213333,0.0,0.0,-1.0460641384124756,-1.0645079612731934
238406907,0.29601308703422546,0.11250018328428268,-23.495506286621094,0.10119791328907013,0.03650040179491043,0.1687655746936798,0.06332361698150635,0.2071676403284073,0.07932808250188828,0.0,0.0,-1.0306445360183716,-1.0479025840759277
238416748,0.2989541292190552,0.11477196216583252,-23.49243927001953,0.10345502197742462,0.037443894892930984,0.1659415066242218,0.062143128365278244,0.20916414260864258,0.08016263693571091,0.0,0.0,-1.0133177042007446,-1.028509259223938
238426231,0.30320653319358826,0.11609328538179398,-23.49700164794922,0.10580848157405853,0.03839773312211037,0.16253504157066345,0.060762517154216766,0.21128636598587036,0.08102275431156158,0.0,0.0,-0.9937263131141663,-1.0072282552719116
238436191,0.3031347990036011,0.1125454232096672,-23.508174896240234,0.10804935544729233,0.03917340561747551,0.15879499912261963,0.05946791172027588,0.21334978938102722,0.08173700422048569,0.0,0.0,-0.97332364320755,-0.9883071780204773
238446196,0.305357962846756,0.11688923835754395,-23.51192283630371,0.1102367416024208,0.04005255922675133,0.1545877903699875,0.057776954025030136,0.21541135013103485,0.08256559073925018,0.0,0.0,-0.951331615447998,-0.9646303057670593
238456521,0.306222140789032,0.11852717399597168,-23.507169723510742,0.11229679733514786,0.040912315249443054,0.15001268684864044,0.05586755648255348,0.2174050658941269,0.08339765667915344,0.0,0.0,-0.9282033443450928,-0.9387139081954956
238466949,0.29851871728897095,0.11534207314252853,-23.49890899658203,0.11397998034954071,0.04160666465759277,0.14567677676677704,0.054078906774520874,0.21908530592918396,0.08409078419208527,0.0,0.0,-0.906869113445282,-0.9150134921073914
238476213,0.29886290431022644,0.10585715621709824,-23.5054874420166,0.11552885174751282,0.042007606476545334,0.14101417362689972,0.0528719387948513,0.22069001197814941,0.08450617641210556,0.0,0.0,-0.8844146132469177,-0.899408221244812
238486191,0.29944607615470886,0.11036063730716705,-23.51384162902832,0.11693160980939865,0.042478591203689575,0.13602471351623535,0.05119669437408447,0.22221145033836365,0.08501701056957245,0.0,0.0,-0.8607351779937744,-0.8781981468200684
238496252,0.3058342933654785,0.11312754452228546,-23.512075424194336,0.11827734112739563,0.042946066707372665,0.13027924299240112,0.04920085519552231,0.22375832498073578,0.08555435389280319,0.0,0.0,-0.8336470723152161,-0.8531726598739624
238786302,0.30355963110923767,0.11380445212125778,-23.50431251525879,0.08717918395996094,0.03245474770665169,-0.03412988781929016,-0.009365536272525787,0.22920317947864532,0.08776155859231949,0.0,0.0,0.3731498122215271,0.28093984723091125
238796225,0.30151376128196716,0.11252091825008392,-23.51244354248047,0.08503307402133942,0.03161489591002464,-0.037406858056783676,-0.010647933930158615,0.22911949455738068,0.08772881329059601,0.0,0.0,0.41443106532096863,0.3248683512210846
239106594,0.3004467487335205,0.1136348694562912,-23.503765106201172,0.014340345747768879,0.005996248684823513,-0.041371382772922516,-0.011994615197181702,0.26523900032043457,0.10097576677799225,0.4867419898509979,0.0,1.2371315956115723,1.1072193384170532
239116470,0.3065703511238098,0.11776881664991379,-23.495100021362305,0.013001867569983006,0.005428788252174854,-0.038216181099414825,-0.010656937956809998,0.2678156793117523,0.10206817090511322,0.4898039698600769,0.0,1.2428616285324097,1.0996463298797607
239126210,0.30606722831726074,0.11288421601057053,-23.502368927001953,0.011833113618195057,0.005054595414549112,-0.03506765514612198,-0.009648893028497696,0.2703312039375305,0.1028735563158989,0.4924566447734833,0.0,1.2453572750091553,1.0882494449615479
239136261,0.3035759925842285,0.11312989145517349,-23.510787963867188,0.010872852988541126,0.004724843427538872,-0.03209340572357178,-0.008627540431916714,0.2726617455482483,0.10367386043071747,0.4947148859500885,0.0,1.2441449165344238,1.0697617530822754
239146199,0.2991551458835602,0.11378951370716095,-23.518369674682617,0.01013987511396408,0.004430913366377354,-0.02946005016565323,-0.007571542169898748,0.27468976378440857,0.1044871062040329,0.4965156614780426,0.0,1.2393062114715576,1.0413256883621216
239156541,0.29826509952545166,0.12404829263687134,-23.514535903930664,0.009538461454212666,0.004003838170319796,-0.026922529563307762,-0.0057696024887263775,0.2766140103340149,0.10585354268550873,0.4978119730949402,0.0,1.2303022146224976,0.9641396403312683
239166571,0.3009454607963562,0.11737420409917831,-23.50732421875,0.00900322012603283,0.003762670326977968,-0.024223672226071358,-0.004553557373583317,0.2786325216293335,0.10676303505897522,0.4986027777194977,0.0,1.214948058128357,0.8802146911621094
239176182,0.3108183443546295,0.10740876197814941,-23.500137329101562,0.008452249690890312,0.0037018293514847755,-0.020819464698433876,-0.004177647642791271,0.281147301197052,0.10704073309898376,0.4987552762031555,0.0,1.1851469278335571,0.8457119464874268
239186334,0.3149099349975586,0.10418736934661865,-23.50527000427246,0.007994908839464188,0.0036883882712572813,-0.01722501590847969,-0.0040720077231526375,0.2837734818458557,0.1071179136633873,0.4980383813381195,0.0,1.1362416744232178,0.8347909450531006
239196206,0.3077113628387451,0.1113736554980278,-23.50996971130371,0.007728747092187405,0.0036225831136107445,-0.014398830011487007,-0.0033732682932168245,0.2858181297779083,0.10762342810630798,0.49642324447631836,0.0,1.078173279762268,0.7497757077217102
239206937,0.30783188343048096,0.11626914143562317,-23.511938095092773,0.007561128586530685,0.0035560252144932747,-0.011713559739291668,-0.0023070010356605053,0.2877439260482788,0.10838811844587326,0.49369579553604126,0.0,0.9975894689559937,0.5755018591880798
239216775,0.307561993598938,0.11268053203821182,-23.51200294494629,0.007481697481125593,0.003533990355208516,-0.009211910888552666,-0.0016130232252180576,0.2895241975784302,0.10888198018074036,0.4896213412284851,0.0,0.8886746764183044,0.42818915843963623
239226206,0.30221521854400635,0.11225347220897675,-23.509124755859375,0.007477966137230396,0.0035327868536114693,-0.00732696196064353,-0.001005064113996923,0.2908565402030945,0.10931169986724854,0.48415088653564453,0.0,0.7751989364624023,0.2771730422973633
239236186,0.2980198860168457,0.11696049571037292,-23.502037048339844,0.007515774108469486,0.003558729076758027,-0.005929711740463972,-4.6332010242622346e-05,0.2918383479118347,0.10998537391424179,0.4773619472980499,0.0,0.6679783463478088,0.013018518686294556
239246205,0.3061683177947998,0.12045463174581528,-23.505949020385742,0.0076259286142885685,0.003623855533078313,-0.003945247735828161,0.001126942690461874,0.2932257354259491,0.11080564558506012,0.4684937596321106,0.0,0.4774283468723297,-0.30149850249290466
239256474,0.30764302611351013,0.11693820357322693,-23.508546829223633,0.007788325659930706,0.0036880560219287872,-0.002000312553718686,0.0018958360888063908,0.29457974433898926,0.11134092509746552,0.4572538435459137,0.0,0.2514009475708008,-0.47482234239578247
239266947,0.3070339858531952,0.11300043761730194,-23.512636184692383,0.00797954760491848,0.0037280104588717222,-0.00027981327730230987,0.0022553224116563797,0.29577338695526123,0.11159032583236694,0.4437929689884186,0.0,0.035051941871643066,-0.5440635085105896
239276195,0.30460190773010254,0.11171258240938187,-23.519739151000977,0.008166970685124397,0.0037568018306046724,0.0010729060741141438,0.0024631230626255274,0.2967093586921692,0.11173410713672638,0.428638756275177,0.0,-0.13062334060668945,-0.5803323984146118
239286213,0.30164334177970886,0.11328267306089401,-23.516183853149414,0.008327447809278965,0.003807762172073126,0.002040671184659004,0.0027704418171197176,0.29737767577171326,0.11194633692502975,0.41234511137008667,0.0,-0.24031785130500793,-0.6289955377578735
239296189,0.3028688132762909,0.11582563072443008,-23.502092361450195,0.008512823842465878,0.003899491159245372,0.0030009429901838303,0.0032456086482852697,0.2980400621891022,0.11227409541606903,0.3950367569923401,0.0,-0.3389182984828949,-0.6941375136375427
239306517,0.3032676577568054,0.11407046020030975,-23.500986099243164,0.008706672117114067,0.003959396854043007,0.0038808363024145365,0.0035175245720893145,0.2986467480659485,0.11246158182621002,0.37691351771354675,0.0,-0.4192984104156494,-0.7263686656951904
239316514,0.3087003231048584,0.11153185367584229,-23.50358772277832,0.009005917236208916,0.003965707961469889,0.00508895143866539,0.0035430043935775757,0.29948002099990845,0.11247915774583817,0.3578544855117798,0.0,-0.5143377184867859,-0.7291624546051025
239326256,0.30929622054100037,0.11604892462491989,-23.50894546508789,0.009311147034168243,0.004066539462655783,0.006197719369083643,0.003909281454980373,0.30024561285972595,0.11273206025362015,0.3380945920944214,0.0,-0.5872801542282104,-0.7656838893890381
239336194,0.3055240213871002,0.12068077176809311,-23.514976501464844,0.009514953009784222,0.004271368961781263,0.006869983859360218,0.004584921523928642,0.30071064829826355,0.11319944262504578,0.317992627620697,0.0,-0.6253519058227539,-0.8207879066467285
239346203,0.31047892570495605,0.11181845515966415,-23.5123348236084,0.009830649010837078,0.004240966401994228,0.007822586223483086,0.004493182525038719,0.30137136578559875,0.11313581466674805,0.29749178886413574,0.0,-0.6721345782279968,-0.8142671585083008
239356576,0.3083402216434479,0.11243636161088943,-23.50591468811035,0.010067999362945557,0.004221751354634762,0.00848173163831234,0.004439821001142263,0.30183014273643494,0.11309867352247238,0.27678367495536804,0.0,-0.7000913619995117,-0.8105695247650146
239366620,0.30609047412872314,0.11348992586135864,-23.502994537353516,0.010219254530966282,0.004226807039231062,0.008870262652635574,0.004452808294445276,0.302101731300354,0.11310774832963943,0.2560044229030609,0.0,-0.7148488163948059,-0.8114304542541504
239376183,0.3034374415874481,0.11497709900140762,-23.507966995239258,0.010269197635352612,0.004269842524081469,0.008989423513412476,0.004555488005280495,0.30218544602394104,0.11317989230155945,0.23526623845100403,0.0,-0.7190437316894531,-0.8177534341812134
239386205,0.3017732501029968,0.11296456307172775,-23.515602111816406,0.010247750207781792,0.004239585716277361,0.00894172489643097,0.004488196689635515,0.30215173959732056,0.11313232779502869,0.21461404860019684,0.0,-0.7174434661865234,-0.8138754367828369
239396226,0.3024481236934662,0.10594955086708069,-23.519102096557617,0.01023262832313776,0.003969225101172924,0.00891028344631195,0.00392606807872653,0.3021293580532074,0.11273220926523209,0.1940508931875229,0.0,-0.7164301872253418,-0.7799320220947266
239406890,0.30278754234313965,0.10515094548463821,-23.51525115966797,0.010212273336946964,0.0036762503441423178,0.008870618417859077,0.0033551522064954042,0.30210089683532715,0.1123226135969162,0.1735849827528,0.0,-0.7152069807052612,-0.7397635579109192
239416764,0.3065543472766876,0.11230236291885376,-23.506376266479492,0.010310282930731773,0.003648223588243127,0.00905000139027834,0.003303856123238802,0.30223074555397034,0.11228547990322113,0.15317708253860474,0.0,-0.7203936576843262,-0.7359041571617126
239426289,0.30996784567832947,0.11551716178655624,-23.50357437133789,0.010511491447687149,0.0037345991004258394,0.009396499954164028,0.003452601609751582,0.30248406529426575,0.11239422857761383,0.13281650841236115,0.0,-0.7294493913650513,-0.7461822032928467
239436188,0.3061048686504364,0.11189550906419754,-23.508163452148438,0.010533475317060947,0.0036699105985462666,0.0094321733340621,0.0033476308453828096,0.30251044034957886,0.11231663078069687,0.11259431391954422,0.0,-0.7302941679954529,-0.7395055294036865
239446231,0.3030816614627838,0.11407463252544403,-23.516605377197266,0.01041398011147976,0.003687871154397726,0.009249232709407806,0.0033751274459064007,0.3023735582828522,0.11233720183372498,0.09257598966360092,0.0,-0.7262324690818787,-0.7411478757858276
239456525,0.296794056892395,0.11484899371862411,-23.521007537841797,0.01002461276948452,0.003728991374373436,0.008686289191246033,0.0034345786552876234,0.3019466698169708,0.11238228529691696,0.07285384833812714,0.0,-0.7139933109283447,-0.744322657585144
239466964,0.30098557472229004,0.11021197587251663,-23.515514373779297,0.009812572970986366,0.003566602012142539,0.008396552875638008,0.003212686162441969,0.3017237186431885,0.11221153289079666,0.05335487052798271,0.0,-0.7077900171279907,-0.7332400679588318
239476223,0.30384358763694763,0.10906846821308136,-23.507835388183594,0.009715385735034943,0.003357569919899106,0.008270972408354282,0.0029425853863358498,0.301625519990921,0.11200033128261566,0.034058671444654465,0.0,-0.7052640914916992,-0.7196242809295654
239486310,0.3054845929145813,0.1126270443201065,-23.501148223876953,0.009676028043031693,0.003309596562758088,0.00822286307811737,0.0028839437291026115,0.3015872538089752,0.11195367574691772,0.014964663423597813,0.0,-0.704388439655304,-0.7167807817459106
239496213,0.3039209246635437,0.11745338141918182,-23.499725341796875,0.009549684822559357,0.0034729246981441975,0.008076734840869904,0.003072848543524742,0.30146875977516174,0.11210684478282928,-0.003875650465488434,0.0,-0.7020269632339478,-0.7243543267250061
239506698,0.30614423751831055,0.12028942257165909,-23.51245880126953,0.009512660093605518,0.0037479717284440994,0.008036215789616108,0.0033738536294549704,0.3014352321624756,0.11235596239566803,-0.022480880841612816,0.0,-0.7014625668525696,-0.7329151630401611
239516532,0.3014957904815674,0.10904701054096222,-23.513736724853516,0.009243698790669441,0.0034785321913659573,0.0077577498741447926,0.003094892483204603,0.3011995851993561,0.11211991310119629,-0.04078912362456322,0.0,-0.6982183456420898,-0.7271021008491516
239526318,0.3017164170742035,0.1060459241271019,-23.50509262084961,0.008983248844742775,0.00307783973403275,0.007502730004489422,0.002702553989365697,0.30097854137420654,0.11177986115217209,-0.0587821863591671,0.0,-0.695833683013916,-0.7205652594566345
239536216,0.3004654347896576,0.10913499444723129,-23.50668716430664,0.00866154208779335,0.002843594877049327,0.00720498152077198,0.002485753735527396,0.3007136881351471,0.11158701777458191,-0.07645682990550995,0.0,-0.6938538551330566,-0.7183533906936646
239546229,0.30081549286842346,0.11076295375823975,-23.50963592529297,0.008360584266483784,0.002697600284591317,0.006936271209269762,0.0023554025683552027,0.30046743154525757,0.11146755516529083,-0.09380415827035904,0.0,-0.6925543546676636,-0.7177797555923462
239556534,0.30305173993110657,0.11362560838460922,-23.5096492767334,0.00817335769534111,0.0026959446258842945,0.006771991029381752,0.002353949937969446,0.30031198263168335,0.111466184258461,-0.11083374172449112,0.0,-0.6919054388999939,-0.7177782654762268
239566570,0.3043636977672577,0.10975608974695206,-23.516799926757812,0.008048956282436848,0.0025000653695315123,0.006664799526333809,0.002185169141739607,0.300207257270813,0.11130128800868988,-0.12752452492713928,0.0,-0.6916019320487976,-0.7182887196540833
239576218,0.3064020872116089,0.11914390325546265,-23.515823364257812,0.008019540458917618,0.002775173867121339,0.006639937870204449,0.0024176870938390493,0.30018219351768494,0.11153583228588104,-0.1438627392053604,0.0,-0.6915645599365234,-0.7166646122932434
239586199,0.3069087564945221,0.1192147508263588,-23.503080368041992,0.0080030532553792,0.0030255354940891266,0.006626290734857321,0.002624922664836049,0.300167977809906,0.11175166070461273,-0.1598317176103592,0.0,-0.6915648579597473,-0.7146174311637878
239596205,0.30473849177360535,0.1160174310207367,-23.50200843811035,0.00786823034286499,0.0030926645267754793,0.006517205853015184,0.002679236466065049,0.30005067586898804,0.11181006580591202,-0.17542095482349396,0.0,-0.6917567253112793,-0.7138925790786743
239606921,0.30205512046813965,0.10918540507555008,-23.509519577026367,0.007601918652653694,0.0028162896633148193,0.006307076197117567,0.002461166586726904,0.29981729388237,0.11156786233186722,-0.19062179327011108,0.0,-0.6925718188285828,-0.718208909034729
239616814,0.29845261573791504,0.10600981116294861,-23.510169982910156,0.007159242406487465,0.0023933774791657925,0.005975951440632343,0.0021448256447911263,0.2994401156902313,0.1112075224518776,-0.20541150867938995,0.0,-0.6955551505088806,-0.7306840419769287
239626291,0.3014689087867737,0.10892525315284729,-23.513811111450195,0.006887692958116531,0.002142887329682708,0.00578326964750886,0.001967086922377348,0.29921597242355347,0.11100074648857117,-0.2197844237089157,0.0,-0.6984561681747437,-0.7426500916481018
239636205,0.30438941717147827,0.1159539744257927,-23.513010025024414,0.0067773982882499695,0.0022760529536753893,0.005708688870072365,0.00205713277682662,0.29912763833999634,0.11110737919807434,-0.23373275995254517,0.0,-0.7000142335891724,-0.7349193096160889
239646242,0.30304768681526184,0.11533808708190918,-23.50559425354004,0.006592802237719297,0.002363205188885331,0.005589223466813564,0.002113535301759839,0.2989840805530548,0.11117514967918396,-0.24724037945270538,0.0,-0.7032018303871155,-0.7296854257583618
239656520,0.3040657639503479,0.11372074484825134,-23.50146484375,0.006468198727816343,0.002352273790165782,0.005511735565960407,0.002106737345457077,0.2988899052143097,0.11116688698530197,-0.2602705955505371,0.0,-0.7057284116744995,-0.7303885221481323
239666936,0.303234338760376,0.11092684417963028,-23.499359130859375,0.006298945751041174,0.0021852534264326096,0.005410219542682171,0.0020065600983798504,0.2987654507160187,0.11104407161474228,-0.27280181646347046,0.0,-0.7096433639526367,-0.7427948117256165
239676187,0.30137068033218384,0.11011387407779694,-23.503494262695312,0.00603240542113781,0.0019844300113618374,0.005255504976958036,0.0018899913411587477,0.29857465624809265,0.11090031266212463,-0.28483304381370544,0.0,-0.716680645942688,-0.7610280513763428
239686241,0.301046758890152,0.10932816565036774,-23.51344871520996,0.0057637980207800865,0.0017550695920363069,0.005104151554405689,0.0017607525223866105,0.2983873784542084,0.11074039340019226,-0.2963273227214813,0.0,-0.724776029586792,-0.7870145440101624
239696205,0.3005900979042053,0.10813433676958084,-23.50855827331543,0.00548752723261714,0.0014779608463868499,0.0049526141956448555,0.0016087553231045604,0.2981996536254883,0.1105521097779274,-0.3072833716869354,0.0,-0.7342067360877991,-0.8277461528778076
239706500,0.3020488917827606,0.1106446385383606,-23.50514793395996,0.005312514025717974,0.0013648744206875563,0.004858937114477158,0.001548224943690002,0.29808372259140015,0.11047720164060593,-0.3176787495613098,0.0,-0.7408345341682434,-0.8482552766799927
239716480,0.30168020725250244,0.10987816005945206,-23.500463485717773,0.0051289149560034275,0.001219018711708486,0.0047628325410187244,0.0014718773309141397,0.2979651093482971,0.11038298159837723,-0.32755744457244873,0.0,-0.748406171798706,-0.879091203212738
239726358,0.3014042377471924,0.11261655390262604,-23.50025177001953,0.0049438211135566235,0.0012374235084280372,0.004667910281568766,0.0014813159359619021,0.2978484630584717,0.11039458215236664,-0.3368956446647644,0.0,-0.7567003965377808,-0.8748666048049927
239736243,0.29804766178131104,0.11578395962715149,-23.51405906677246,0.004590086173266172,0.001426804345101118,0.004489911254495382,0.001576612121425569,0.2976309657096863,0.11051102727651596,-0.34572744369506836,0.0,-0.7743661403656006,-0.8352360129356384
239746236,0.2981838881969452,0.11585085093975067,-23.51768684387207,0.004275924060493708,0.0016010403633117676,0.004334607627242804,0.0016627442091703415,0.2974424362182617,0.11061558127403259,-0.35404741764068604,0.0,-0.7922133803367615,-0.8043015599250793
239756453,0.2981160581111908,0.11260313540697098,-23.517410278320312,0.003987448289990425,0.0015842042630538344,0.0041943867690861225,0.0016545605612918735,0.2972734570503235,0.11060571670532227,-0.36187586188316345,0.0,-0.8106852173805237,-0.8071179389953613
239766557,0.30025714635849,0.11390774697065353,-23.50920867919922,0.0038395747542381287,0.0016376463463529944,0.004123670049011707,0.0016801179153844714,0.2971889078617096,0.11063627898693085,-0.36916717886924744,0.0,-0.8210588693618774,-0.7981987595558167
239776184,0.30804750323295593,0.11150573939085007,-23.498960494995117,0.004111445974558592,0.0015608121175318956,0.0042516193352639675,0.0016439579194411635,0.2973407208919525,0.11059337854385376,-0.3756469786167145,0.0,-0.8021576404571533,-0.8113366961479187
239786290,0.3025630712509155,0.1140969842672348,-23.506427764892578,0.0040762294083833694,0.001624301658011973,0.004235310014337301,0.0016733608208596706,0.29732152819633484,0.11062799394130707,-0.381512314081192,0.0,-0.8045355677604675,-0.8002740144729614
239796208,0.30582040548324585,0.11612937599420547,-23.51408576965332,0.004209201782941818,0.0017843153327703476,0.004295884165912867,0.001746253576129675,0.297392338514328,0.11071321368217468,-0.38666996359825134,0.0,-0.7955896258354187,-0.7746179699897766
239806983,0.30751094222068787,0.10973093658685684,-23.511619567871094,0.004414148163050413,0.0016125428956001997,0.004387649241834879,0.0016693422803655267,0.2974989712238312,0.11062384396791458,-0.39106813073158264,0.0,-0.7823875546455383,-0.8027033805847168
239816875,0.3056049346923828,0.10625916719436646,-23.511459350585938,0.0045083062723279,0.001288844272494316,0.004429040476679802,0.0015270464355126023,0.2975468337535858,0.11045929789543152,-0.3947750926017761,0.0,-0.7765293121337891,-0.8697893619537354
239826239,0.29935622215270996,0.10965228825807571,-23.510276794433594,0.0042972257360816,0.0011581829749047756,0.004338082857429981,0.0014707425143569708,0.2974419593811035,0.11039438843727112,-0.3979915678501129,0.0,-0.790129542350769,-0.9037351608276367
239836280,0.305113285779953,0.11677846312522888,-23.50365447998047,0.004377063829451799,0.0013739417772740126,0.004371739458292723,0.0015616981545463204,0.2974807322025299,0.11049917340278625,-0.40055233240127563,0.0,-0.7847895622253418,-0.8492686748504639
239846198,0.30187344551086426,0.11143360286951065,-23.50592041015625,0.004303531721234322,0.001326048164628446,0.004341490101069212,0.00154199602548033,0.29744580388069153,0.11047642678022385,-0.4025827944278717,0.0,-0.7897889018058777,-0.8605508208274841
239856556,0.3007148504257202,0.10629398375749588,-23.510122299194336,0.0041856602765619755,0.001048829173669219,0.004295056685805321,0.0014327907701954246,0.29739028215408325,0.11034584045410156,-0.4041007459163666,0.0,-0.7982969284057617,-0.9389030933380127
239866962,0.3001236021518707,0.10773760825395584,-23.508995056152344,0.004052668809890747,0.0008586347103118896,0.004245301242917776,0.0013616345822811127,0.2973276674747467,0.11025629192590714,-0.4050855040550232,0.0,-0.80860835313797,-1.0081864595413208
239876184,0.29796287417411804,0.11483711749315262,-23.514005661010742,0.003835399402305484,0.0010051006684079766,0.004168303683400154,0.0014135404489934444,0.2972251772880554,0.110325388610363,-0.40559670329093933,0.0,-0.8269680142402649,-0.9526914358139038
239886205,0.30552858114242554,0.11561672389507294,-23.51036834716797,0.003978289198130369,0.001177040976472199,0.004216089379042387,0.0014710411196574569,0.2972928583621979,0.11040683835744858,-0.4053543508052826,0.0,-0.8144099712371826,-0.8959691524505615
239896334,0.30438464879989624,0.11660387367010117,-23.505260467529297,0.0040634977631270885,0.0013813294935971498,0.004242838826030493,0.0015351736219599843,0.2973334789276123,0.11050420254468918,-0.40441805124282837,0.0,-0.8069856762886047,-0.8380988240242004
239906609,0.3020515739917755,0.1143929734826088,-23.50370216369629,0.004043801687657833,0.001474037766456604,0.004237075336277485,0.0015623025828972459,0.297324001789093,0.11054874211549759,-0.40286973118782043,0.0,-0.8087337017059326,-0.8144594430923462
239916462,0.30314210057258606,0.11614677309989929,-23.5083065032959,0.004077859688550234,0.001637573936022818,0.004246278665959835,0.0016064944211393595,0.2973405122756958,0.11062806099653244,-0.40068483352661133,0.0,-0.8056280016899109,-0.7758180499076843
239926304,0.3037872612476349,0.12044618278741837,-23.51044464111328,0.004141932353377342,0.001974685350432992,0.0042620692402124405,0.0016895747976377606,0.29737192392349243,0.11079337447881699,-0.3978356420993805,0.0,-0.7996923923492432,-0.707746148109436
239936209,0.2981383502483368,0.11598740518093109,-23.51443862915039,0.003967185504734516,0.002098491881042719,0.0042234486900269985,0.0017169371712952852,0.29728516936302185,0.11085484176874161,-0.3945437967777252,0.0,-0.8166753053665161,-0.6857264637947083
239946306,0.2969423234462738,0.11769905686378479,-23.501941680908203,0.0037618796341121197,0.0022858413867652416,0.004183695185929537,0.0017532139318063855,0.2971818745136261,0.11094911396503448,-0.39087218046188354,0.0,-0.838436484336853,-0.6542853713035583
239956464,0.30057772994041443,0.11593499779701233,-23.50067710876465,0.003727213479578495,0.0023883425164967775,0.004178008995950222,0.0017700274474918842,0.2971641719341278,0.11100144684314728,-0.3866715729236603,0.0,-0.8423614501953125,-0.637787938117981
239966545,0.3063850402832031,0.11989042907953262,-23.506521224975586,0.003934529144316912,0.0026441041845828295,0.004205361474305391,0.0018037717090919614,0.2972716689109802,0.11113405227661133,-0.3816705346107483,0.0,-0.8186581134796143,-0.5986701250076294
239976196,0.3062039911746979,0.11584575474262238,-23.509422302246094,0.0041242302395403385,0.0027225101366639137,0.004223774652928114,0.0018113822443410754,0.29737162590026855,0.11117537319660187,-0.3758738934993744,0.0,-0.7973219156265259,-0.5870803594589233
239986216,0.30736416578292847,0.1093238964676857,-23.5125732421875,0.004349935799837112,0.0025448582600802183,0.004237124230712652,0.00180087483022362,0.2974925935268402,0.11108015477657318,-0.36924001574516296,0.0,-0.7722615003585815,-0.6158432960510254
239996294,0.3048669397830963,0.10938806086778641,-23.51047706604004,0.004469372797757387,0.0023861548397690058,0.004239264409989119,0.001798031385987997,0.2975577414035797,0.11099357903003693,-0.3618916869163513,0.0,-0.7589812874794006,-0.645754337310791
240006909,0.30798500776290894,0.11737911403179169,-23.50279998779297,0.004701561760157347,0.0025393764954060316,0.004233057145029306,0.0017939351964741945,0.29768672585487366,0.11107870191335678,-0.35373207926750183,0.0,-0.7330091595649719,-0.6150398254394531
240016760,0.31210196018218994,0.1179146021604538,-23.503347396850586,0.005071680527180433,0.0027028804179280996,0.004206168465316296,0.001782056875526905,0.29789623618125916,0.11117125302553177,-0.34464892745018005,0.0,-0.692379355430603,-0.5828975439071655
240026220,0.30533620715141296,0.11680822819471359,-23.501068115234375,0.005178850144147873,0.0028171201702207327,0.00419332692399621,0.001768368179909885,0.2979580760002136,0.11123716831207275,-0.33491453528404236,0.0,-0.6806290745735168,-0.5605542659759521
240036215,0.3014006018638611,0.11105841398239136,-23.504812240600586,0.005147479474544525,0.002725641243159771,0.004198611713945866,0.0017837791237980127,0.29793962836265564,0.11118333786725998,-0.3246648907661438,0.0,-0.684219241142273,-0.5794928669929504
240046312,0.3028331398963928,0.10264334082603455,-23.509033203125,0.005173660349100828,0.002359195612370968,0.004192883148789406,0.001863958896137774,0.29795533418655396,0.11096331477165222,-0.3138335943222046,0.0,-0.6810676455497742,-0.668664276599884
240056540,0.282817006111145,0.16472038626670837,-23.495885848999023,0.004543661139905453,0.00407375767827034,0.004363683983683586,0.0013991197338327765,0.297569215297699,0.11201412230730057,-0.30327677726745605,0.0,-0.7651954293251038,-0.3308250308036804
240066929,0.3201243281364441,-0.02969026193022728,-23.509737014770508,0.005168687552213669,-0.0005888491868972778,0.0041601094417274,0.00291775562800467,0.29796040058135986,0.10909587144851685,-0.2913845479488373,0.0,-0.677702009677887,-1.76993727684021
240076190,0.2927730083465576,0.004426255822181702,-23.469013214111328,0.004896537866443396,-0.0038062913808971643,0.00426432816311717,0.004149861633777618,0.2977863550186157,0.10703834146261215,-0.2793813943862915,0.0,-0.7164953947067261,-2.3130383491516113
240086272,0.30566489696502686,0.7307332754135132,-23.48404884338379,0.005043016280978918,0.015202153474092484,0.004199399147182703,-0.004275960382074118,0.2978821098804474,0.11946558207273483,-0.2666952311992645,0.0,-0.6943736672401428,0.2741889953613281
240096213,0.30819612741470337,-0.7044249773025513,-23.556936264038086,0.005257648881524801,-0.009351283311843872,0.0040905410423874855,0.008177142590284348,0.2980256676673889,0.10304368287324905,-0.2532339096069336,0.0,-0.6611922979354858,-2.423079490661621
240106619,0.30579933524131775,0.6202070116996765,-23.47690200805664,0.005392583552747965,0.0055836341343820095,0.0040129125118255615,-0.0004149798769503832,0.29811805486679077,0.11327052116394043,-0.23913724720478058,0.0,-0.6397491693496704,0.07418441772460938
240116474,0.2955714762210846,0.17741961777210236,-23.49165153503418,0.005243989173322916,0.007186926435679197,0.004109256900846958,-0.0014545106096193194,0.2980137765407562,0.1143956333398819,-0.224862203001976,0.0,-0.6646685600280762,0.19968576729297638
240126260,0.33475935459136963,-0.274088054895401,-23.490617752075195,0.006136704236268997,-0.0031261639669537544,0.003459999104961753,0.006046036724001169,0.29865652322769165,0.10697024315595627,-0.20876848697662354,0.0,-0.5133919715881348,-2.0479984283447266
240136212,0.3065316081047058,0.6473087668418884,-23.493799209594727,0.006248814519494772,0.010501903481781483,0.0033688365947455168,-0.0050356099382042885,0.2987394630908966,0.11705189943313599,-0.19217154383659363,0.0,-0.4944486618041992,0.4471094608306885
240146202,0.3093121349811554,-0.23515722155570984,-23.49272918701172,0.006422020029276609,0.0018506067572161555,0.003211679169908166,0.0028141275979578495,0.29887133836746216,0.11046463251113892,-0.1749986708164215,0.0,-0.46373096108436584,-0.9890878200531006
240156577,0.32776620984077454,0.18596485257148743,-23.48611068725586,0.007000326178967953,0.003559247823432088,0.002626656321808696,0.001085641561076045,0.29932552576065063,0.11180657893419266,-0.15659679472446442,0.0,-0.3589627742767334,-0.29605579376220703
240166555,0.2879122197628021,0.13730378448963165,-23.530487060546875,0.00667450251057744,0.0040581198409199715,0.002994242124259472,0.0005228273803368211,0.2990608811378479,0.11221179366111755,-0.1386326551437378,0.0,-0.42169660329818726,-0.1281290054321289
240176237,0.2646026015281677,0.10397224128246307,-23.501001358032227,0.005920759867876768,0.003837843658402562,0.0039438968524336815,0.0008003575494512916,0.2984256148338318,0.1120261400938034,-0.12221202999353409,0.0,-0.587619423866272,-0.20559680461883545
240186222,0.25584670901298523,0.11702369153499603,-23.5245361328125,0.005091687198728323,0.003888791659846902,0.005113451275974512,0.0007284863968379796,0.29769763350486755,0.11207087337970734,-0.107814721763134,0.0,-0.7875308394432068,-0.18518342077732086
240196208,0.297453910112381,0.19184555113315582,-23.510639190673828,0.005087404977530241,0.0052358731627464294,0.0051202415488660336,-0.0014075043145567179,0.2976936995983124,0.11330941319465637,-0.09362035244703293,0.0,-0.7886149883270264,0.2626112103462219
240206930,0.35206061601638794,-0.0320579931139946,-23.478607177734375,0.005960515700280666,0.0028396807610988617,0.003555587027221918,0.002886582398787141,0.2985396385192871,0.1109878197312355,-0.07747555524110794,0.0,-0.5378592610359192,-0.7935885787010193
240216758,0.3621606230735779,0.1500726342201233,-23.490554809570312,0.006868371274322271,0.0034129582345485687,0.001703376299701631,0.001716979662887752,0.29947400093078613,0.1115778386592865,-0.059301674365997314,0.0,-0.2430981993675232,-0.4661058485507965
240226216,0.31607410311698914,0.24617111682891846,-23.517547607421875,0.007046741899102926,0.005162798333913088,0.0012850093189626932,-0.002387259155511856,0.2996710240840912,0.11351078748703003,-0.04141281545162201,0.0,-0.1803731918334961,0.4331148564815521
240236187,0.2697947919368744,-0.04454391077160835,-23.524839401245117,0.006664294749498367,0.0032752398401498795,0.0023297811858356,0.002769188489764929,0.29921144247055054,0.11124251037836075,-0.02585006318986416,0.0,-0.33631089329719543,-0.7018709182739258
240246201,0.25507616996765137,0.2769733965396881,-23.511049270629883,0.006202524062246084,0.004944371525198221,0.0038251655641943216,-0.0026360752526670694,0.2985967695713043,0.11346430331468582,-0.013978616334497929,0.0,-0.5526165962219238,0.48981213569641113
240256482,0.28339290618896484,-0.08136849850416183,-23.51961898803711,0.006072978023439646,0.0032502205576747656,0.00433487119153142,0.004029658157378435,0.2984009087085724,0.1109030470252037,-0.0047270553186535835,0.0,-0.6199255585670471,-0.8920590877532959
240266940,0.3149276673793793,0.1926470696926117,-23.488727569580078,0.006191874388605356,0.003826775820925832,0.0037456569261848927,0.0011724289506673813,0.29861265420913696,0.11192978918552399,0.0033215885050594807,0.0,-0.5440373420715332,-0.29729509353637695
240276188,0.3217892348766327,0.18568885326385498,-23.516563415527344,0.0063165719620883465,0.004212626721709967,0.0029219449497759342,-0.0013763810275122523,0.2988896369934082,0.11278682947158813,0.010930228978395462,0.0,-0.43326932191848755,0.3157937526702881
240286217,0.32496514916419983,0.03258604556322098,-23.515966415405273,0.006411461159586906,0.003908366430550814,0.0019977809861302376,0.0015869310591369867,0.2991805970668793,0.11185383796691895,0.01877889223396778,0.0,-0.30206042528152466,-0.3856973648071289
240296213,0.3156501054763794,0.13330258429050446,-23.507675170898438,0.00644303672015667,0.0039511811919510365,0.0014280152972787619,0.0008143635932356119,0.29934871196746826,0.11208178848028183,0.026482263579964638,0.0,-0.21811118721961975,-0.2032599300146103
240306515,0.29951727390289307,0.08462873101234436,-23.51700210571289,0.006442742887884378,0.003941467963159084,0.0014592818915843964,0.0018481167498975992,0.29934006929397583,0.11179562658071518,0.03334314003586769,0.0,-0.22274179756641388,-0.43845152854919434
240316556,0.30634647607803345,0.10810458660125732,-23.498449325561523,0.006434548646211624,0.003945712000131607,0.0012262124801054597,0.001968829659745097,0.2994007170200348,0.11176421493291855,0.039575546979904175,0.0,-0.18830910325050354,-0.4628307521343231
240326249,0.29722338914871216,0.18746323883533478,-23.501205444335938,0.006443085614591837,0.0037202073726803064,0.0013350308872759342,-0.0009055485134012997,0.2993740439414978,0.11246879398822784,0.04489053040742874,0.0,-0.20431245863437653,0.23877015709877014
240336211,0.2915332317352295,0.0671110600233078,-23.52923011779785,0.00648067332804203,0.003936310298740864,0.0016463627107441425,0.0008844000403769314,0.29930198192596436,0.11205446720123291,0.04934502765536308,0.0,-0.24877917766571045,-0.22100722789764404
240346320,0.287491112947464,0.0665157362818718,-23.504676818847656,0.006552718114107847,0.004218332935124636,0.002090464113280177,0.002622858854010701,0.29920464754104614,0.11167345196008682,0.052708595991134644,0.0,-0.30881595611572266,-0.5562775135040283
240356507,0.2825295031070709,0.1921360343694687,-23.517560958862305,0.006675930228084326,0.0035777692683041096,0.002696958603337407,-0.0005302299978211522,0.29907840490341187,0.11232971400022507,0.055022694170475006,0.0,-0.38393479585647583,0.14713054895401
240366619,0.3050568699836731,0.07430252432823181,-23.511537551879883,0.006604157388210297,0.003943505696952343,0.0024024853482842445,0.0009703325922600925,0.29913681745529175,0.11203212291002274,0.05746554583311081,0.0,-0.3489011824131012,-0.24126529693603516
240376194,0.32874277234077454,0.16364656388759613,-23.480743408203125,0.006262987852096558,0.003374604508280754,0.0012019203277304769,-0.001031614257954061,0.29936453700065613,0.11241186410188675,0.061303988099098206,0.0,-0.18960325419902802,0.29667747020721436
240386207,0.34520086646080017,0.06598905473947525,-23.513870239257812,0.005683795548975468,0.003967551048845053,-0.0005819211946800351,0.0007945892284624279,0.29968956112861633,0.11207912117242813,0.0678141862154007,0.0,0.10202701389789581,-0.19765686988830566
240396220,0.3335409164428711,0.0849096029996872,-23.499263763427734,0.005223130341619253,0.004336757119745016,-0.0018423105357214808,0.0018047450575977564,0.299911230802536,0.11190146952867508,0.07641883939504623,0.0,0.3390973210334778,-0.3943513333797455
240406978,0.2987956702709198,0.20088616013526917,-23.502126693725586,0.005268349777907133,0.0029392093420028687,-0.0017311564879491925,-0.0016305551398545504,0.29989224672317505,0.11248774826526642,0.08462944626808167,0.0,0.31748056411743164,0.5064903497695923
240416819,0.24853140115737915,0.07940559834241867,-23.527713775634766,0.006157682277262211,0.003521019360050559,0.0002499663969501853,-0.00033448488102294505,0.29956215620040894,0.11227180063724518,0.08920744806528091,0.0,-0.04057192802429199,0.09471249580383301
240426221,0.25253915786743164,0.11548174172639847,-23.510549545288086,0.007000782527029514,0.0034635525662451982,0.001963566755875945,-0.00045128585770726204,0.2992815375328064,0.11229092627763748,0.09136653691530228,0.0,-0.2734520435333252,0.12956586480140686
240436284,0.2878755033016205,0.09657600522041321,-23.50629425048828,0.0071698687970638275,0.003771980758756399,0.0022787838242948055,0.00012369744945317507,0.2992304265499115,0.11219770461320877,0.09310635179281235,0.0,-0.3077312707901001,-0.032781898975372314
240446318,0.3389832079410553,0.09477892518043518,-23.5103702545166,0.006269427016377449,0.004121140576899052,0.0007328022038564086,0.0007231747731566429,0.2994805872440338,0.11210070550441742,0.09661358594894409,0.0,-0.11635702848434448,-0.17371053993701935
240456546,0.3747517764568329,0.16103500127792358,-23.488256454467773,0.00455869035795331,0.003003418445587158,-0.00198070565238595,-0.0010497149778530002,0.29992252588272095,0.1123894527554512,0.10509828478097916,0.0,0.4098812937736511,0.3362354636192322
240466955,0.34091901779174805,0.11751416325569153,-23.504011154174805,0.003620386589318514,0.0028914210852235556,-0.003358816960826516,-0.001214208547025919,0.3001505136489868,0.11241666227579117,0.11662432551383972,0.0,0.7479373216629028,0.397572785615921
240476191,0.28335973620414734,0.07870937138795853,-23.517362594604492,0.004089222755283117,0.003729994408786297,-0.0027202090714126825,-7.197726517915726e-05,0.30004218220710754,0.11222289502620697,0.12637469172477722,0.0,0.5869964361190796,0.019294649362564087
240486211,0.2519710659980774,0.15073154866695404,-23.516109466552734,0.005360827781260014,0.002712388290092349,-0.0011124180164188147,-0.0013586170971393585,0.29975971579551697,0.11244893074035645,0.13227152824401855,0.0,0.20460492372512817,0.46436214447021484
240496209,0.26723212003707886,0.08385920524597168,-23.512798309326172,0.006212782114744186,0.003488855203613639,-0.00011223431647522375,-0.00044705477193929255,0.29957589507102966,0.11228140443563461,0.13625383377075195,0.0,0.018063172698020935,0.1274436116218567
240506668,0.3110819160938263,0.12926822900772095,-23.508567810058594,0.005830834154039621,0.002991083776578307,-0.0005284456419758499,-0.0009894793620333076,0.2996567487716675,0.11238676309585571,0.14078782498836517,0.0,0.0903826653957367,0.3194776773452759
240516517,0.34221217036247253,0.1163836270570755,-23.49883460998535,0.004548682365566492,0.0028667920269072056,-0.0018240936333313584,-0.0011150793870911002,0.29992547631263733,0.11241281777620316,0.147953063249588,0.0,0.3813818395137787,0.3709568381309509
240526267,0.32807937264442444,0.09306566417217255,-23.509340286254883,0.0036990640219300985,0.003435350488871336,-0.0026190069038420916,-0.0005831292946822941,0.3001033663749695,0.11229376494884491,0.15715423226356506,0.0,0.6160874962806702,0.16814126074314117
240536311,0.3122169077396393,0.16555219888687134,-23.516935348510742,0.0033444096334278584,0.0017673404654487967,-0.0029255240224301815,-0.002024740446358919,0.3001781702041626,0.11264553666114807,0.16709396243095398,0.0,0.7186887264251709,0.8531726002693176
240546209,0.3074890375137329,0.08840953558683395,-23.500720977783203,0.0031401007436215878,0.0025577524211257696,-0.003088134340941906,-0.00139564776327461,0.30022189021110535,0.1124764010310173,0.17732827365398407,0.0,0.7770547270774841,0.4995005428791046
240556494,0.31587618589401245,0.09365255385637283,-23.50119972229004,0.002664050320163369,0.003158906241878867,-0.003435653168708086,-0.0009568029781803489,0.3003259599208832,0.11234500259160995,0.1885567307472229,0.0,0.9112282991409302,0.29410672187805176
240566547,0.3047555387020111,0.12636548280715942,-23.504358291625977,0.002560852561146021,0.002662685699760914,-0.0035043959505856037,-0.00128734833560884,0.3003491461277008,0.11245646327733994,0.1997513473033905,0.0,0.939726710319519,0.45034247636795044
240576200,0.27908045053482056,0.11348805576562881,-23.527620315551758,0.0033192276023328304,0.0026087407022714615,-0.0030464341398328543,-0.001319924253039062,0.30017316341400146,0.11246898025274277,0.2087707221508026,0.0,0.7425705194473267,0.46840614080429077
240586202,0.26411765813827515,0.1436886340379715,-23.531579971313477,0.004563625436276197,0.0015180227346718311,-0.0023708604276180267,-0.0019120664801448584,0.299873411655426,0.11273172497749329,0.21502532064914703,0.0,0.47913551330566406,0.8997754454612732
240596200,0.2970232665538788,0.09901165217161179,-23.51543426513672,0.0046200924552977085,0.002010513097047806,-0.0023435947950929403,-0.0016742630396038294,0.2998592257499695,0.11260807514190674,0.22096282243728638,0.0,0.46943995356559753,0.6943964958190918
240606944,0.34528106451034546,0.06280075758695602,-23.495019912719727,0.0029667143244296312,0.003760735969990492,-0.0030437512323260307,-0.0009330958127975464,0.3002934455871582,0.11214842647314072,0.22977930307388306,0.0,0.7982146739959717,0.2432040572166443
240616795,0.35828855633735657,0.14617404341697693,-23.490619659423828,0.0008991506183519959,0.0024749725125730038,-0.0037972615100443363,-0.0014016840141266584,0.3008631765842438,0.11250273138284683,0.24338838458061218,0.0,1.338289499282837,0.5153042674064636
240626315,0.310859739780426,0.14312699437141418,-23.5017147064209,0.0006073465337976813,0.0013408437371253967,-0.003886408405378461,-0.0017481630202382803,0.30094778537750244,0.11283154040575027,0.25731372833251953,0.0,1.4157756567001343,0.916502833366394
240636194,0.2634417712688446,0.12812629342079163,-23.53447151184082,0.002040783641859889,0.0007900802884250879,-0.0035332455299794674,-0.0018838573014363647,0.300509512424469,0.11299993842840195,0.26733362674713135,0.0,1.0470142364501953,1.1736828088760376
240646217,0.256816565990448,0.09600125998258591,-23.527193069458008,0.0036531665828078985,0.0014288956299424171,-0.0032320639584213495,-0.0017645311309024692,0.2999885380268097,0.11279353499412537,0.2739379405975342,0.0,0.7243139743804932,0.8901157975196838
240656471,0.29541513323783875,0.05648311600089073,-23.512868881225586,0.003781049745157361,0.003481863299384713,-0.0032158896792680025,-0.001504876185208559,0.29994478821754456,0.11209126561880112,0.2800607979297638,0.0,0.7048006653785706,0.4079569876194
240666952,0.3287833631038666,0.1564379781484604,-23.499820709228516,0.002676445059478283,0.0017846092814579606,-0.0032878436613827944,-0.0016154354671016335,0.3003454804420471,0.11270695179700851,0.28760433197021484,0.0,0.8875512480735779,0.7356829047203064
240676220,0.3245503306388855,0.14258621633052826,-23.495071411132812,0.0017719253664836287,0.0006687939167022705,-0.003290083957836032,-0.0016181989340111613,0.30069395899772644,0.11313683539628983,0.2965640723705292,0.0,1.0767744779586792,1.1788814067840576
240686299,0.2968302369117737,0.1008417159318924,-23.508243560791016,0.0019148363498970866,0.0011236221762374043,-0.003298921976238489,-0.0016463269712403417,0.3006353974342346,0.11295047402381897,0.3048015236854553,0.0,1.0448811054229736,0.9719105958938599
240696279,0.28582459688186646,0.09340258687734604,-23.520427703857422,0.002443022793158889,0.0018212394788861275,-0.0033666263334453106,-0.0017357494216412306,0.3004049062728882,0.11264605075120926,0.3116472661495209,0.0,0.9430562853813171,0.7613685131072998
240706500,0.305233895778656,0.07498066127300262,-23.511817932128906,0.0022416054271161556,0.0031379107385873795,-0.003326958743855357,-0.001995057798922062,0.3004986345767975,0.11203333735466003,0.3184381127357483,0.0,0.9778920412063599,0.5663222074508667
240716577,0.3132403492927551,0.15059910714626312,-23.506114959716797,0.0017628284404054284,0.0016968928975984454,-0.003198371734470129,-0.0016080379718914628,0.30073654651641846,0.11274941265583038,0.32567062973976135,0.0,1.0670596361160278,0.758519172668457
240726210,0.2890460789203644,0.15360663831233978,-23.507246017456055,0.002152811037376523,0.0002347678819205612,-0.003332369728013873,-0.001105652074329555,0.3005293011665344,0.1135263592004776,0.33181604743003845,0.0,0.9972169995307922,1.3615695238113403
240736223,0.2667381763458252,0.08861789107322693,-23.520872116088867,0.0032784920185804367,0.001093828584998846,-0.003808101871982217,-0.0014687059447169304,0.2998887002468109,0.11303748190402985,0.33615872263908386,0.0,0.859993577003479,0.9306595325469971
240746236,0.27629807591438293,0.10474292188882828,-23.51264762878418,0.004001676104962826,0.0013512299628928304,-0.004174273926764727,-0.001599036855623126,0.299447238445282,0.11288034915924072,0.33951127529144287,0.0,0.8065054416656494,0.869196355342865
240756571,0.31972384452819824,0.101893849670887,-23.507539749145508,0.003242658684030175,0.0016815740382298827,-0.003722213441506028,-0.00179578538518399,0.2999451458454132,0.1126636490225792,0.34283074736595154,0.0,0.8541430234909058,0.8182307481765747
240766586,0.3540595769882202,0.1394568830728531,-23.49912452697754,0.001439461368136108,0.0007860843907110393,-0.002475522691383958,-0.001176663557998836,0.30121880769729614,0.11329617351293564,0.3475281298160553,0.0,1.044107437133789,0.9818283319473267
240776275,0.33925971388816833,0.1516764760017395,-23.50350570678711,0.00023300973407458514,-0.00041783813503570855,-0.0015164753422141075,-0.0002196266723331064,0.30213844776153564,0.11421389877796173,0.355589896440506,0.0,1.4183365106582642,0.9818283319473267
240786296,0.27758437395095825,0.08223932236433029,-23.51517677307129,0.0009640028583817184,0.0005483595887199044,-0.0021800415124744177,-0.001096702297218144,0.30153554677963257,0.11341700702905655,0.36070966720581055,0.0,1.1544522047042847,1.107142686843872
240796202,0.2536329925060272,0.12068727612495422,-23.519882202148438,0.0023127002641558647,0.0003278336371295154,-0.003571545472368598,-0.0008691770490258932,0.30032840371131897,0.11361438781023026,0.36404481530189514,0.0,0.9961559772491455,1.107142686843872
240806937,0.2747045159339905,0.10182635486125946,-23.516464233398438,0.0029550131876021624,0.0006421387661248446,-0.004322580527514219,-0.0012366834562271833,0.29970237612724304,0.11330805718898773,0.36692869663238525,0.0,0.9711467623710632,1.0918735265731812
240816772,0.3186553120613098,0.10768615454435349,-23.51664924621582,0.0023898582439869642,0.0007718366105109453,-0.0035746439825743437,-0.0014083279529586434,0.3003045916557312,0.1131698489189148,0.36963197588920593,0.0,0.9814851880073547,1.0694502592086792
240826212,0.33173713088035583,0.14806875586509705,-23.505495071411133,0.0015625320374965668,-9.976547153200954e-05,-0.0023351027630269527,-0.00010245055455015972,0.30127301812171936,0.11419010907411575,0.37186434864997864,0.0,0.9810770153999329,1.0694502592086792
240836188,0.3093230128288269,0.09835221618413925,-23.513479232788086,0.0013401287142187357,0.0002641616156324744,-0.0019571944139897823,-0.0007208364550024271,0.3015606105327606,0.11371950060129166,0.37370896339416504,0.0,0.9703996777534485,1.0694502592086792
