TimeUS,PLX,PLY,PLZ,AX,AY,BX,BY,CX,CY,F,P,X,Y,SW
2063448081,0.10541049391031265,0.10681788623332977,-23.50197410583496,0.0012003841111436486,-0.0002532558573875576,-0.0007730762008577585,-0.0008101392304524779,0.11367034912109375,0.11048364639282227,0.5794000029563904,0.0,-31.555505752563477,-45.56665802001953,0
2063458110,0.10056465119123459,0.11188077181577682,-23.505434036254883,0.0013649570755660534,-0.0002721093187574297,-0.0008765472448430955,-0.0007982855895534158,0.11355214565992355,0.11049718409776688,0.5794000029563904,0.0,-31.554201126098633,-45.59218978881836,0
2063468736,0.10656765848398209,0.10390633344650269,-23.505924224853516,0.001438677660189569,-0.00018208069377578795,-0.0009289078880101442,-0.0008622291497886181,0.11349765956401825,0.11043065041303635,0.5794000029563904,0.0,-31.55666732788086,-45.4717903137207,0
2063478300,0.10898533463478088,0.10166577249765396,-23.510875701904297,0.0014761810889467597,-6.823572766734287e-05,-0.0009588028769940138,-0.0009529781527817249,0.11346907168626785,0.11034387350082397,0.5794000029563904,0.0,-31.559377670288086,-45.33515548706055,0
2063488089,0.1211872547864914,0.11300532519817352,-23.50868034362793,0.001356608816422522,-0.00010532734449952841,-0.0008525184821337461,-0.0009200084605254233,0.11356327682733536,0.11037309467792511,0.5794000029563904,0.0,-31.544397354125977,-45.377662658691406,0
2063498113,0.12531745433807373,0.10492459684610367,-23.498262405395508,0.0011940241092815995,-4.19576681451872e-05,-0.0006917337886989117,-0.0009826765162870288,0.11369609087705612,0.11032132804393768,0.5794000029563904,0.0,-31.508424758911133,-45.30634689331055,0
2063508114,0.1202387660741806,0.10551781952381134,-23.49873924255371,0.0011014307383447886,9.926953680405859e-06,-0.0005901351105421782,-0.0010396072175353765,0.11377474665641785,0.11027725040912628,0.5794000029563904,0.0,-31.475210189819336,-45.254127502441406,0
2063518283,0.11604545265436172,0.11075995117425919,-23.505334854125977,0.0010620541870594025,-7.583533943034126e-07,-0.0005423452239483595,-0.0010266388999298215,0.11380962282419205,0.11028671264648438,0.5794000029563904,0.0,-31.45547866821289,-45.2644157409668,0
2063528432,0.1083555519580841,0.09925388544797897,-23.511762619018555,0.0011074714129790664,0.00011158532288391143,-0.0006033428944647312,-0.0011775223538279533,0.11376750469207764,0.11018252372741699,0.5794000029563904,0.0,-31.482179641723633,-45.16919708251953,0
2063538135,0.10873585939407349,0.11529367417097092,-23.5202579498291,0.0011456148931756616,5.284863800625317e-05,-0.0006599527550861239,-0.001090349513106048,0.11373034864664078,0.11023974418640137,0.5794000029563904,0.0,-31.505979537963867,-45.215248107910156,0
2063548105,0.11030138283967972,0.1038607582449913,-23.509918212890625,0.0011657753493636847,0.00010778864088933915,-0.000692996836733073,-0.0011803993256762624,0.11370964348316193,0.11018332093954086,0.5794000029563904,0.0,-31.519672393798828,-45.17261505126953,0
2063558080,0.11744620651006699,0.10553644597530365,-23.49741554260254,0.0011200502049177885,0.0001426922535756603,-0.0006098668090999126,-0.0012438553385436535,0.11375945806503296,0.11014529317617416,0.5794000029563904,0.0,-31.481952667236328,-45.14945983886719,0
2063568306,0.12286362797021866,0.10892082750797272,-23.497154235839844,0.0010329884244129062,0.00014575084787793458,-0.00043410208309069276,-0.0012500302400439978,0.11386056244373322,0.11014173924922943,0.5794000029563904,0.0,-31.381174087524414,-45.147605895996094,0
2063578295,0.11762350052595139,0.10703696310520172,-23.50536346435547,0.0009952742839232087,0.00016293952648993582,-0.00034912556293420494,-0.0012887592893093824,0.113907590508461,0.11012030392885208,0.5794000029563904,0.0,-31.320714950561523,-45.137916564941406,0
2063588083,0.11748626083135605,0.1156204491853714,-23.509687423706055,0.0009625624516047537,0.0001165145804407075,-0.0002664612838998437,-0.0011714413994923234,0.11395172029733658,0.11018293350934982,0.5794000029563904,0.0,-31.25340461730957,-45.16454315185547,0
2063598179,0.11685848981142044,0.11047626286745071,-23.512922286987305,0.0009377134265378118,0.00010878638568101451,-0.00019569385040085763,-0.0011494322679936886,0.11398826539516449,0.11019430309534073,0.5794000029563904,0.0,-31.189083099365234,-45.16931915283203,0
2063608112,0.10921820253133774,0.10805320739746094,-23.506811141967773,0.0009611991117708385,0.00011617121344897896,-0.0002718293108046055,-0.001173372264020145,0.11395015567541122,0.11018232256174088,0.5794000029563904,0.0,-31.258949279785156,-45.16499710083008,0
2063618522,0.111997589468956,0.11079547554254532,-23.499034881591797,0.0009669982246123254,0.00010798443690873682,-0.0002934666408691555,-0.0011428260477259755,0.11393963545560837,0.11019717156887054,0.5794000029563904,0.0,-31.277992248535156,-45.169471740722656,0
2063628830,0.11119616776704788,0.10935316979885101,-23.49991226196289,0.0009757312946021557,0.00010755088442238048,-0.0003314428904559463,-0.0011409407015889883,0.11392165720462799,0.11019806563854218,0.5794000029563904,0.0,-31.310802459716797,-45.16969299316406,0
2063638130,0.11479000002145767,0.10479814559221268,-23.51354217529297,0.0009688696591183543,0.00012510870874393731,-0.00029589724726974964,-0.0012318959925323725,0.11393807083368301,0.11015605926513672,0.5794000029563904,0.0,-31.279752731323242,-45.16246795654297,0
2063648056,0.11899946630001068,0.11417648941278458,-23.510900497436523,0.0009495689300820231,0.00010839863534783944,-0.00017339347687084228,-0.001125835464335978,0.11399335414171219,0.11020392179489136,0.5794000029563904,0.0,-31.163957595825195,-45.16769027709961,0
2063658093,0.12120465934276581,0.10365667194128036,-23.50067710876465,0.0009288934525102377,0.0001229590125149116,-6.319291514955694e-06,-0.0012434948002919555,0.1140671968460083,0.11015191674232483,0.5794000029563904,0.0,-30.990148544311523,-45.16511535644531,0
2063668420,0.11805450171232224,0.1123221218585968,-23.493629455566406,0.0009201706270687282,0.0001165696739917621,9.064866753760725e-05,-0.0011724673677235842,0.11410949379205704,0.11018289625644684,0.5794000029563904,0.0,-30.885149002075195,-45.164581298828125,0
2063678346,0.11660666018724442,0.11490870267152786,-23.49527359008789,0.0009165027877315879,0.00010918884072452784,0.00015413355140481144,-0.0010447165695950389,0.1141369640827179,0.11023817211389542,0.5794000029563904,0.0,-30.816728591918945,-45.159542083740234,0
2063688138,0.1100803092122078,0.10608157515525818,-23.500322341918945,0.0009187342948280275,0.00011107749014627188,6.977335578994825e-05,-0.0011161151342093945,0.11410066485404968,0.1102074533700943,0.5794000029563904,0.0,-30.90754508972168,-45.164485931396484,0
2063698043,0.10636258125305176,0.11125291138887405,-23.508962631225586,0.0009181030909530818,0.00011125643504783511,-9.875813702819869e-05,-0.001068335841409862,0.11402837932109833,0.11022794991731644,0.5794000029563904,0.0,-31.090499877929688,-45.159915924072266,0
2063708130,0.10716599225997925,0.10632109642028809,-23.510189056396484,0.0009132896666415036,0.00010908659896813333,-0.0002464671852067113,-0.0011349216802045703,0.11396505683660507,0.11019940674304962,0.5794000029563904,0.0,-31.246932983398438,-45.1678581237793,0
2063718426,0.11613558232784271,0.1133173331618309,-23.505125045776367,0.0009171887068077922,0.00011508353054523468,-0.00018253977759741247,-0.001036598114296794,0.11399250477552414,0.11024162173271179,0.5794000029563904,0.0,-31.179798126220703,-45.153114318847656,0
2063728452,0.11925064027309418,0.1192653626203537,-23.50653076171875,0.0009291808237321675,0.00013605855929199606,-4.731054286821745e-05,-0.0008000731468200684,0.11405076831579208,0.11034353077411652,0.5794000029563904,0.0,-31.034215927124023,-45.095237731933594,0
2063738185,0.12273214757442474,0.11237164586782455,-23.50495147705078,0.0009538492886349559,0.00014381343498826027,0.00016646015865262598,-0.0007328712963499129,0.11414338648319244,0.1103726476430893,0.5794000029563904,0.0,-30.810569763183594,-45.06991195678711,0
2063748080,0.12822814285755157,0.11163987964391708,-23.500789642333984,0.0010018968023359776,0.00015063038154039532,0.0005048364982940257,-0.0006848626653663814,0.11429105699062347,0.11039359867572784,0.5794000029563904,0.0,-30.5165958404541,-45.04718780517578,0
2063758152,0.12206792086362839,0.11329325288534164,-23.501161575317383,0.0010321153094992042,0.00016510108252987266,0.0006848996854387224,-0.0005986359901726246,0.11437033861875534,0.11043156683444977,0.5794000029563904,0.0,-30.39747428894043,-44.99457931518555,0
2063768429,0.11204883456230164,0.10685095936059952,-23.509672164916992,0.0010191506007686257,0.00015133815759327263,0.0006179709453135729,-0.0006696851341985166,0.11434056609869003,0.11039995402097702,0.5794000029563904,0.0,-30.438261032104492,-45.04143524169922,0
2063778415,0.10306013375520706,0.11169293522834778,-23.510160446166992,0.0009574177674949169,0.00016175306518562138,0.00033655849983915687,-0.0006222081719897687,0.11421389132738113,0.110421322286129,0.5794000029563904,0.0,-30.645307540893555,-45.00934982299805,0
2063788118,0.10622710734605789,0.10522113740444183,-23.499547958374023,0.0009093747357837856,0.00013502323417924345,0.00014007197751197964,-0.00073152786353603,0.11412429064512253,0.11037147045135498,0.5794000029563904,0.0,-30.83051300048828,-45.08116149902344,0
2063798121,0.11126991361379623,0.1015724465250969,-23.49985122680664,0.0008906532893888652,8.321698987856507e-05,7.0532965764869e-05,-0.0009239573264494538,0.11409212648868561,0.11028247326612473,0.5794000029563904,0.0,-30.904315948486328,-45.17386245727539,0
2063808125,0.11675188690423965,0.1148991584777832,-23.494813919067383,0.000909124210011214,0.00012204958329675719,0.00013320817379280925,-0.0007921913638710976,0.11412155628204346,0.11034434288740158,0.5794000029563904,0.0,-30.837854385375977,-45.11082077026367,0
2063818502,0.11952011287212372,0.11684200912714005,-23.506364822387695,0.0009490256197750568,0.0001771429815562442,0.0002579372376203537,-0.0006199732306413352,0.11418106406927109,0.11042650789022446,0.5794000029563904,0.0,-30.71796226501465,-44.985374450683594,0
2063828757,0.11734414100646973,0.11650282144546509,-23.51447105407715,0.0009724107221700251,0.00023135743685998023,0.0003255900228396058,-0.00046313166967593133,0.11421389132738113,0.11050261557102203,0.5794000029563904,0.0,-30.660247802734375,-44.80039978027344,0
2063838119,0.11495806276798248,0.10580576211214066,-23.512529373168945,0.00097555824322626,0.0001947058190125972,0.00033405842259526253,-0.0005617428105324507,0.11421807110309601,0.11045391112565994,0.5794000029563904,0.0,-30.65342903137207,-44.93003463745117,0
2063848135,0.10645309090614319,0.1027456745505333,-23.507728576660156,0.000900793238542974,0.00012926005001645535,0.00014603053568862379,-0.000726333586499095,0.11412348598241806,0.11037111282348633,0.5794000029563904,0.0,-30.822628021240234,-45.08756637573242,0
2063858067,0.10324329882860184,0.10840478539466858,-23.50048828125,0.000793533690739423,0.00011710412945831195,-0.00010668942559277639,-0.0007549747824668884,0.11399391293525696,0.11035642772912979,0.5794000029563904,0.0,-31.11699104309082,-45.10980224609375,0
2063868420,0.11099162697792053,0.11087481677532196,-23.499343872070312,0.0007629336323589087,0.0001296752889174968,-0.00017442760872654617,-0.0007271464564837515,0.11395849287509918,0.11037097871303558,0.5794000029563904,0.0,-31.20810890197754,-45.08720779418945,0
2063878348,0.11670131981372833,0.10352650284767151,-23.503999710083008,0.0007920904317870736,6.464792386395857e-05,-0.00011358853953424841,-0.0008628336363472044,0.11399094760417938,0.11029859632253647,0.5794000029563904,0.0,-31.125776290893555,-45.188899993896484,0
2063888054,0.11836819350719452,0.10663555562496185,-23.506574630737305,0.0008394254255108535,3.3393491321476176e-05,-2.0397104890435003e-05,-0.0009243662352673709,0.11404169350862503,0.1102650910615921,0.5794000029563904,0.0,-31.00763702392578,-45.227577209472656,0
2063898125,0.1216164231300354,0.10904038697481155,-23.501388549804688,0.0009236017940565944,2.9464048566296697e-05,0.0001363556511932984,-0.0009316836367361248,0.11412886530160904,0.11026102304458618,0.5794000029563904,0.0,-30.836767196655273,-45.23207473754883,0
2063908046,0.12229982763528824,0.11353674530982971,-23.498506546020508,0.00101546011865139,7.864206418162212e-05,0.00029821202042512596,-0.0008450308232568204,0.11422084271907806,0.11031026393175125,0.5794000029563904,0.0,-30.697702407836914,-45.17089080810547,0
2063918405,0.11688386648893356,0.11236870288848877,-23.500825881958008,0.0010403847554698586,0.00011322519276291132,0.00033980951411649585,-0.0007873139693401754,0.11424500495195389,0.11034379154443741,0.5794000029563904,0.0,-30.667648315429688,-45.120853424072266,0
2063928429,0.10352818667888641,0.10676278918981552,-23.50137710571289,0.0008963783038780093,7.674513472011313e-05,0.00011180377623531967,-0.0008450729073956609,0.11410954594612122,0.11030947417020798,0.5794000029563904,0.0,-30.859256744384766,-45.173118591308594,0
2063938120,0.10433261841535568,0.1112610474228859,-23.50117301940918,0.0007634590729139745,9.86959203146398e-05,-8.777665061643347e-05,-0.00081211345968768,0.11398820579051971,0.1103295087814331,0.5794000029563904,0.0,-31.097814559936523,-45.14274978637695,0
2063948092,0.10208431631326675,0.11604911088943481,-23.50470542907715,0.0006014034152030945,0.00018404098227620125,-0.0003186059766449034,-0.0006905494374223053,0.11384451389312744,0.11040518432855606,0.5794000029563904,0.0,-31.470523834228516,-45.00322723388672,0
2063958069,0.10452046990394592,0.11682326346635818,-23.50762939453125,0.0004740633594337851,0.00027877301909029484,-0.0004908292321488261,-0.0005624274490401149,0.11373469978570938,0.11048687994480133,0.5794000029563904,0.0,-31.786115646362305,-44.80351638793945,0
2063968431,0.1171019971370697,0.11065978556871414,-23.5019474029541,0.0005236851284280419,0.00028600351652130485,-0.00042716902680695057,-0.0005531513597816229,0.1137763187289238,0.11049294471740723,0.5794000029563904,0.0,-31.667583465576172,-44.786495208740234,0
2063978340,0.11963130533695221,0.10787002742290497,-23.497478485107422,0.0006083772168494761,0.00025305061717517674,-0.0003240509540773928,-0.0005932736094109714,0.11384546756744385,0.11046604067087173,0.5794000029563904,0.0,-31.472766876220703,-44.86051559448242,0
2063988173,0.11643802374601364,0.11054956912994385,-23.50029182434082,0.0006452591042034328,0.0002593427198007703,-0.0002816146588884294,-0.0005860339151695371,0.11387456953525543,0.11047100275754929,0.5794000029563904,0.0,-31.394861221313477,-44.84705352783203,0
2063998103,0.11746139079332352,0.11446721851825714,-23.507213592529297,0.0006971122929826379,0.00032456571352668107,-0.0002252972626592964,-0.0005151956574991345,0.11391390860080719,0.11052048951387405,0.5794000029563904,0.0,-31.295934677124023,-44.701507568359375,0
2064008033,0.11189872026443481,0.11158599704504013,-23.514158248901367,0.0006617438048124313,0.0003442306478973478,-0.00026165691087953746,-0.0004949796129949391,0.11388804763555527,0.11053486913442612,0.5794000029563904,0.0,-31.359882354736328,-44.65602111816406,0
2064018489,0.10558261722326279,0.10383263975381851,-23.511356353759766,0.0005255970754660666,0.00023976719239726663,-0.00039424438728019595,-0.0005967121105641127,0.11379197984933853,0.11046115309000015,0.5794000029563904,0.0,-31.626901626586914,-44.881614685058594,0
2064028797,0.11522375047206879,0.1071549654006958,-23.504911422729492,0.0005478233215399086,0.00019032751151826233,-0.0003737100923899561,-0.0006423882441595197,0.11380713433027267,0.11042743921279907,0.5794000029563904,0.0,-31.58200454711914,-44.975643157958984,0
2064038049,0.11636177450418472,0.11170513927936554,-23.50079917907715,0.0005882634432055056,0.00021689663117285818,-0.0003381940769031644,-0.0006190542480908334,0.11383383721113205,0.11044498533010483,0.5794000029563904,0.0,-31.505104064941406,-44.92668151855469,0
2064048052,0.11090809106826782,0.11573057621717453,-23.501623153686523,0.000534905178938061,0.0003116435545962304,-0.0003823756123892963,-0.0005406021955423057,0.11379961669445038,0.11050574481487274,0.5794000029563904,0.0,-31.60396385192871,-44.74074172973633,0
2064058185,0.10950830578804016,0.11172272264957428,-23.501863479614258,0.0004571063909679651,0.00033501838333904743,-0.000443063210695982,-0.0005223684711381793,0.11375106871128082,0.11052033305168152,0.5794000029563904,0.0,-31.753141403198242,-44.693416595458984,0
2064068340,0.11406529694795609,0.10857152193784714,-23.504724502563477,0.00046132958959788084,0.000301354011753574,-0.0004399542522151023,-0.0005471509066410363,0.11375363916158676,0.11049982905387878,0.5794000029563904,0.0,-31.74502944946289,-44.760250091552734,0
2064078436,0.11514399945735931,0.1090325266122818,-23.510498046875,0.0004847468517255038,0.00027615847648121417,-0.00042368986760266125,-0.0005646503414027393,0.1137675866484642,0.11048482358455658,0.5794000029563904,0.0,-31.701631546020508,-44.80881118774414,0
2064088061,0.11407265812158585,0.10720276087522507,-23.508502960205078,0.00048747731489129364,0.00021701060177292675,-0.00042190024396404624,-0.0006034176331013441,0.11376918107271194,0.11045029014348984,0.5794000029563904,0.0,-31.696754455566406,-44.91844940185547,0
2064098099,0.1115574762225151,0.10567120462656021,-23.507844924926758,0.0004423950449563563,0.00012973661068826914,-0.0004498045309446752,-0.0006574371363967657,0.11374331265687943,0.11040020734071732,0.5794000029563904,0.0,-31.77704620361328,-45.06884765625,0
2064108147,0.11182013899087906,0.10646276921033859,-23.50282859802246,0.0004028281837236136,5.892652552574873e-05,-0.0004728982166852802,-0.000698766321875155,0.11372095346450806,0.11036019772291183,0.5794000029563904,0.0,-31.84858512878418,-45.17955017089844,0
2064118281,0.11089610308408737,0.1057802140712738,-23.50049591064453,0.00034596191835589707,-2.383389619353693e-05,-0.0005041916738264263,-0.0007443093345500529,0.11368924379348755,0.11031404882669449,0.5794000029563904,0.0,-31.952754974365234,-45.295692443847656,0
2064128295,0.11137425899505615,0.11113147437572479,-23.510095596313477,0.0002993480011355132,-1.1500629852889688e-06,-0.000528315082192421,-0.0007325701299123466,0.11366354674100876,0.11032655090093613,0.5794000029563904,0.0,-32.03863525390625,-45.26525115966797,0
2064138126,0.12248700112104416,0.11001618951559067,-23.51259994506836,0.00047059101052582264,-1.3230956028564833e-06,-0.0004451637505553663,-0.0007326541235670447,0.11375702917575836,0.11032645404338837,0.5794000029563904,0.0,-31.740982055664062,-45.26548767089844,0
2064148060,0.12343540787696838,0.10447633266448975,-23.50835418701172,0.0006551883416250348,-0.00011064103455282748,-0.00036122414167039096,-0.0007823628839105368,0.11385703086853027,0.11026723682880402,0.5794000029563904,0.0,-31.487205505371094,-45.404170989990234,0
2064158147,0.11518018692731857,0.11127030849456787,-23.506380081176758,0.0006715432391501963,-8.359162166016176e-05,-0.0003542945487424731,-0.0007709020283073187,0.11386583745479584,0.1102817952632904,0.5794000029563904,0.0,-31.468812942504883,-45.37169647216797,0
2064168425,0.1078745499253273,0.11149313300848007,-23.497652053833008,0.0005431439494714141,-5.349707862478681e-05,-0.000404730235459283,-0.0007590808090753853,0.11379703879356384,0.11029791831970215,0.5794000029563904,0.0,-31.623741149902344,-45.33404541015625,0
2064178315,0.10047817975282669,0.10970339924097061,-23.498043060302734,0.00027297125780023634,-6.0096710512880236e-05,-0.0005026131402701139,-0.0007614718633703887,0.11365270614624023,0.1102943941950798,0.5794000029563904,0.0,-32.05660629272461,-45.342445373535156,0
2064188120,0.10568276047706604,0.10809409618377686,-23.510963439941406,0.00011361928773112595,-9.859428246272728e-05,-0.0005553587689064443,-0.0007742145680822432,0.11356772482395172,0.11027386039495468,0.5794000029563904,0.0,-32.35233688354492,-45.39035415649414,0
2064198093,0.11524299532175064,0.1082494854927063,-23.508750915527344,0.00014642125461250544,-0.00013324824976734817,-0.0005455442005768418,-0.0007845832733437419,0.1135852113366127,0.11025538295507431,0.5794000029563904,0.0,-32.29192352294922,-45.431915283203125,0
2064208120,0.11865008622407913,0.11015838384628296,-23.504627227783203,0.00024399321409873664,-0.0001300288422498852,-0.0005194711266085505,-0.0007837229641154408,0.1136372834444046,0.1102571040391922,0.5794000029563904,0.0,-32.115028381347656,-45.4281005859375,0
2064218471,0.11952001601457596,0.11212743073701859,-23.499095916748047,0.00035444783861748874,-8.936464291764423e-05,-0.0004936389741487801,-0.0007742127636447549,0.11369635909795761,0.11027885228395462,0.5794000029563904,0.0,-31.931415557861328,-45.378604888916016,0
2064228785,0.11987905949354172,0.10925311595201492,-23.500181198120117,0.0004672993964049965,-0.00010594401101116091,-0.0004710706416517496,-0.0007775283302180469,0.11375692486763,0.1102699562907219,0.5794000029563904,0.0,-31.77276039123535,-45.39910888671875,0
2064238111,0.11697137355804443,0.10414723306894302,-23.510526657104492,0.0005201351013965905,-0.0002196260029450059,-0.0004623855056706816,-0.0007962153758853674,0.11378540843725204,0.1102086752653122,0.5794000029563904,0.0,-31.710031509399414,-45.53282928466797,0
2064248123,0.11803378164768219,0.10418553650379181,-23.515148162841797,0.0005906046717427671,-0.00032869819551706314,-0.00045340790529735386,-0.0008101108251139522,0.11382360756397247,0.11014954745769501,0.5794000029563904,0.0,-31.638076782226562,-45.649131774902344,0
2064258184,0.11178955435752869,0.11511708050966263,-23.509647369384766,0.0005415480118244886,-0.00023016962222754955,-0.00045779391075484455,-0.0008013017359189689,0.11379683762788773,0.11020331084728241,0.5794000029563904,0.0,-31.68512725830078,-45.54339599609375,0
2064268437,0.11315494030714035,0.11411932855844498,-23.508602142333984,0.00051933026406914,-0.00015455005632247776,-0.000458887021522969,-0.0007975812186487019,0.11378461867570877,0.11024489253759384,0.5794000029563904,0.0,-31.70703125,-45.455081939697266,0
2064278300,0.11592800170183182,0.10771151632070541,-23.5008544921875,0.0005481636035256088,-0.00019908035756088793,-0.00045867980225011706,-0.0007979012443684042,0.11380060762166977,0.11022019386291504,0.5794000029563904,0.0,-31.680099487304688,-45.50819396972656,0
2064288119,0.11933235824108124,0.10906633734703064,-23.502819061279297,0.0006365628214552999,-0.00021798971283715218,-0.0004618069506250322,-0.0007972323219291866,0.11385009437799454,0.11020960658788681,0.5794000029563904,0.0,-31.610960006713867,-45.53059005737305,0
2064298123,0.11669109761714935,0.11251387745141983,-23.513654708862305,0.0006743361591361463,-0.00017573611694388092,-0.00046476072748191655,-0.0008005364215932786,0.11387145519256592,0.11023350805044174,0.5794000029563904,0.0,-31.586793899536133,-45.479774475097656,0
2064308148,0.11152541637420654,0.11587201803922653,-23.50981330871582,0.0006205285317264497,-7.751789235044271e-05,-0.00045813049655407667,-0.0008126389584504068,0.11384067684412003,0.11028968542814255,0.5794000029563904,0.0,-31.61931037902832,-45.35877990722656,0
2064318370,0.11396951973438263,0.11572448164224625,-23.511518478393555,0.000610623334068805,1.3321367987373378e-05,-0.0004564586852211505,-0.0008279710309579968,0.1138349398970604,0.11034227162599564,0.5794000029563904,0.0,-31.625263214111328,-45.247589111328125,0
2064328426,0.11206229031085968,0.10918603092432022,-23.51445198059082,0.0005690623074769974,-9.931630302162375e-06,-0.00044746784260496497,-0.000822940724901855,0.11381056904792786,0.11032863706350327,0.5794000029563904,0.0,-31.64969253540039,-45.2757453918457,0
2064338107,0.10672298818826675,0.10967487096786499,-23.50554656982422,0.0004417184682097286,-2.455638605169952e-05,-0.00041366732330061495,-0.0008190589142031968,0.11373484879732132,0.11031994223594666,0.5794000029563904,0.0,-31.7359619140625,-45.29365158081055,0
2064348052,0.10964369773864746,0.11344980448484421,-23.50352668762207,0.00036717727198265493,2.1630021365126595e-05,-0.0003901433083228767,-0.0008336346363648772,0.11368986964225769,0.11034780740737915,0.5794000029563904,0.0,-31.79905891418457,-45.23773956298828,0
2064358149,0.11595100164413452,0.10615111887454987,-23.513851165771484,0.00039500134880654514,-4.926152541884221e-05,-0.0004003959766123444,-0.0008075123187154531,0.11370692402124405,0.11030435562133789,0.5794000029563904,0.0,-31.775524139404297,-45.324607849121094,0
2064368451,0.12434744089841843,0.10085649788379669,-23.503320693969727,0.0005495771765708923,-0.00019788031931966543,-0.00046576818567700684,-0.0007446594536304474,0.11380326002836227,0.11021173000335693,0.5794000029563904,0.0,-31.686386108398438,-45.52341079711914,0
2064378397,0.12184041738510132,0.10074593126773834,-23.50499153137207,0.0006586852832697332,-0.0003407738695386797,-0.0005182253662496805,-0.000675958872307092,0.1138724833726883,0.11012107133865356,0.5794000029563904,0.0,-31.64995765686035,-45.730628967285156,0
2064388123,0.11791909486055374,0.10606280714273453,-23.509828567504883,0.0007051971624605358,-0.000399584649130702,-0.0005434210761450231,-0.0006441008299589157,0.11390256136655807,0.11008304357528687,0.5794000029563904,0.0,-31.639896392822266,-45.818946838378906,0
2064398095,0.11859516054391861,0.10862961411476135,-23.504070281982422,0.0007585145649500191,-0.00041958829388022423,-0.0005756885511800647,-0.0006319946842268109,0.11393773555755615,0.11006984859704971,0.5794000029563904,0.0,-31.63256072998047,-45.84977340698242,0
2064408122,0.11350370943546295,0.10256524384021759,-23.50189208984375,0.0007398109883069992,-0.0005208515212871134,-0.0005630889791063964,-0.0005637792637571692,0.11392512172460556,0.1100015714764595,0.5794000029563904,0.0,-31.633928298950195,-46.009521484375,0
2064418510,0.1080837994813919,0.10222179442644119,-23.514245986938477,0.000651489244773984,-0.0006208655540831387,-0.0004971320158801973,-0.0004890906857326627,0.11386416852474213,0.1099325492978096,0.5794000029563904,0.0,-31.63515853881836,-46.1672477722168,0
2064428823,0.11340473592281342,0.11313404142856598,-23.51694107055664,0.0006354367360472679,-0.0005780262872576714,-0.00048390141455456614,-0.0005243991035968065,0.11385281383991241,0.10996285080909729,0.5794000029563904,0.0,-31.63418197631836,-46.097686767578125,0
2064438189,0.11624506860971451,0.115103580057621,-23.511024475097656,0.0006546200020238757,-0.0005146103794686496,-0.0005013411282561719,-0.0005820511723868549,0.11386675387620926,0.11000894010066986,0.5794000029563904,3334976.75,3334945.0,3334930.75,0
2064448117,0.1126534640789032,0.11621011048555374,-23.50560760498047,0.0006249657599255443,-0.0004196103836875409,-0.0004914441960863769,-0.0006137568270787597,0.11384802311658859,0.11006895452737808,0.5794000029563904,3334976.75,-25.5,-39.75,0
2064458155,0.11220241338014603,0.11078480631113052,-23.5056095123291,0.0005896156653761864,-0.000406999490223825,-0.0004797499568667263,-0.0006179286865517497,0.11382560431957245,0.11007695645093918,0.5794000029563904,3334976.75,-25.516653060913086,-39.73274612426758,0
2064468310,0.11128300428390503,0.11065121740102768,-23.510725021362305,0.0005501735140569508,-0.0004007664683740586,-0.0004453413130249828,-0.0006233662716113031,0.11379699409008026,0.11008147895336151,0.5794000029563904,3334976.75,-25.514114379882812,-39.72168731689453,0
2064478416,0.11119198054075241,0.11610149592161179,-23.512229919433594,0.0005108670447953045,-0.0003300536482129246,-0.0004113243776373565,-0.0006845632451586425,0.11376846581697464,0.11013280600309372,0.5794000029563904,3334976.75,-25.511507034301758,-39.599571228027344,0
2064488117,0.11041870713233948,0.11701254546642303,-23.507301330566406,0.0004636415105778724,-0.0002507547033019364,-0.00037077744491398335,-0.0007526478148065507,0.1137341633439064,0.11019040644168854,0.5794000029563904,3334976.75,-25.508195877075195,-39.4719123840332,0
2064498096,0.11052743345499039,0.11143761873245239,-23.513168334960938,0.000419113872339949,-0.00023916810459923,-0.0003328472375869751,-0.000762517680414021,0.11370179802179337,0.11019882559776306,0.5794000029563904,3334976.75,-25.50480842590332,-39.454254150390625,0
2064508092,0.112794429063797,0.10576631128787994,-23.515316009521484,0.00040231511229649186,-0.00029397342586889863,-0.00031864913762547076,-0.0007161968387663364,0.11368957906961441,0.11015895754098892,0.5794000029563904,3334976.75,-25.50349998474121,-39.53981018066406,0
2064518314,0.11657422035932541,0.10820112377405167,-23.510318756103516,0.00042976834811270237,-0.000318974896799773,-0.00034167247940786183,-0.0006952296243980527,0.11370956152677536,0.11014075577259064,0.5794000029563904,3334976.75,-25.505327224731445,-39.580467224121094,0
2064528435,0.1202051118016243,0.11184022575616837,-23.507972717285156,0.00047753675607964396,-0.0003081496979575604,-0.0004295731778256595,-0.0007151495083235204,0.11375536769628525,0.11015113443136215,0.5794000029563904,3334976.75,-25.566205978393555,-39.55716323852539,0
2064538141,0.12046916782855988,0.11473234742879868,-23.50927734375,0.0005258952151052654,-0.0002746667305473238,-0.000517974840477109,-0.0007763580651953816,0.11380162835121155,0.11018316447734833,0.5794000029563904,3334976.75,-25.6114444732666,-39.490360260009766,0
2064548097,0.11934355646371841,0.10942600667476654,-23.512924194335938,0.00056386151118204,-0.0002841146197170019,-0.000586929265409708,-0.0007591987960040569,0.11383786797523499,0.11017414927482605,0.5794000029563904,3334976.75,-25.639074325561523,-39.50840759277344,0
2064558054,0.11646866798400879,0.10622110962867737,-23.518728256225586,0.0005781310610473156,-0.0003183890657965094,-0.0006126798689365387,-0.0006973476847633719,0.11385145783424377,0.11014150828123093,0.5794000029563904,3334976.75,-25.64803695678711,-39.578617095947266,0
2064568418,0.11077365279197693,0.11048101633787155,-23.51527976989746,0.0005476505612023175,-0.0003184752131346613,-0.0005580225260928273,-0.0006971932016313076,0.11382249742746353,0.11014142632484436,0.5794000029563904,3334976.75,-25.6284122467041,-39.57880401611328,0
2064578453,0.11474892497062683,0.11263270676136017,-23.512407302856445,0.0005488033639267087,-0.00030192965641617775,-0.0005600767908617854,-0.0007266775937750936,0.11382359266281128,0.11015711724758148,0.5794000029563904,3334976.75,-25.62919807434082,-39.544105529785156,0
2064588146,0.1143210381269455,0.10705456882715225,-23.51323699951172,0.0005466374568641186,-0.00032869292772375047,-0.000556240847799927,-0.0006792785716243088,0.11382154375314713,0.11013179272413254,0.5794000029563904,3334976.75,-25.62773895263672,-39.60098648071289,0
2064598139,0.11711081117391586,0.098873570561409,-23.512231826782227,0.0005553294322453439,-0.00036858688690699637,-0.0006016973056830466,-0.0004706449690274894,0.11383811384439468,0.11005575209856033,0.5794000029563904,3334976.75,-25.65908432006836,-39.814697265625,0
2064608142,0.12159764021635056,0.0978117510676384,-23.515092849731445,0.0005788070266135037,-0.000410688400734216,-0.0007240304839797318,-0.0002512693463359028,0.11388273537158966,0.10997573286294937,0.5794000029563904,3334976.75,-25.730039596557617,-40.17204284667969,0
2064618548,0.12379857152700424,0.10649220645427704,-23.51740264892578,0.0006088190712034702,-0.0004224901203997433,-0.0008798605413176119,-0.00018999185704160482,0.11393962055444717,0.1099533662199974,0.5794000029563904,3334976.75,-25.79912567138672,-40.29851150512695,0
2064628826,0.12460451573133469,0.10561107844114304,-23.511991500854492,0.0006404923624359071,-0.00043680393719114363,-0.001043755211867392,-0.00011592447845032439,0.11399949342012405,0.10992630571126938,0.5794000029563904,3334976.75,-25.85403823852539,-40.461700439453125,0
2064638121,0.11859196424484253,0.1075843796133995,-23.507051467895508,0.000651515438221395,-0.00044421249185688794,-0.0011006065178662539,-7.771501259412616e-05,0.11402027308940887,0.10991233587265015,0.5794000029563904,3334976.75,-25.86994171142578,-40.547916412353516,0
2064648129,0.11553885787725449,0.10996899008750916,-23.511320114135742,0.000652317947242409,-0.0004436769522726536,-0.0011047321604564786,-8.046827861107886e-05,0.11402178555727005,0.10991334170103073,0.5794000029563904,3334976.75,-25.871042251586914,-40.54169845581055,0
2064658160,0.11436770856380463,0.10863306373357773,-23.510873794555664,0.0006493459222838283,-0.0004474348679650575,-0.0010895001469179988,-6.120828038547188e-05,0.11401621252298355,0.10990629345178604,0.5794000029563904,3334976.75,-25.866952896118164,-40.58515930175781,0
2064668369,0.1147351935505867,0.10577687621116638,-23.515653610229492,0.0006500555318780243,-0.00044113522744737566,-0.001080531277693808,1.8415907106827945e-05,0.11401373893022537,0.1098843589425087,0.5794000029563904,3334976.75,-25.86282730102539,-40.76283645629883,0
2064678443,0.11823796480894089,0.10407616943120956,-23.516326904296875,0.0006454510148614645,-0.00043250637827441096,-0.0011387303238734603,0.0001274802052648738,0.11402977257966995,0.1098543107509613,0.5794000029563904,3334976.75,-25.888765335083008,-41.00774383544922,0
2064688148,0.12025570124387741,0.10246540606021881,-23.517738342285156,0.0006380131817422807,-0.0004217995738144964,-0.0012327405856922269,0.0002628086949698627,0.11405567079782486,0.1098170280456543,0.5794000029563904,3334976.75,-25.926834106445312,-41.2783203125,0
2064698125,0.11834605038166046,0.10926242172718048,-23.516843795776367,0.0006336522055789828,-0.0004214688087813556,-0.0012878611451014876,0.00026698934379965067,0.11407085508108139,0.10981587320566177,0.5794000029563904,3334976.75,-25.947185516357422,-41.28578186035156,0
2064708129,0.11201344430446625,0.11605215072631836,-23.510751724243164,0.0006386297754943371,-0.00043099478352814913,-0.0012249471619725227,0.0001465858513256535,0.11405352503061295,0.10984904319047928,0.5794000029563904,3334976.75,-25.923843383789062,-41.0489501953125,0
2064718341,0.11606621742248535,0.11642905324697495,-23.51133918762207,0.0006376299425028265,-0.00044072401942685246,-0.0012375841615721583,2.3613109078723937e-05,0.11405700445175171,0.10988292098045349,0.5794000029563904,3334976.75,-25.92867660522461,-40.77463912963867,0
2064728431,0.10963184386491776,0.10985346883535385,-23.521160125732422,0.0006457613781094551,-0.000440819188952446,-0.0011348071275278926,2.241037873318419e-05,0.1140286847949028,0.10988324880599976,0.5794000029563904,3334976.75,-25.88707733154297,-40.771907806396484,0
2064738204,0.10589290410280228,0.1085565835237503,-23.52044677734375,0.0007034073350951076,-0.00043243111576884985,-0.0009567965171299875,4.831268233829178e-05,0.11398712545633316,0.10987719893455505,0.5794000029563904,3334976.75,-25.77048683166504,-40.832374572753906,0
2064748083,0.11227291077375412,0.11040424555540085,-23.512929916381836,0.0007195060607045889,-0.00043575945892371237,-0.0009070836822502315,3.803477738983929e-05,0.11397551745176315,0.10987959802150726,0.5794000029563904,3334976.75,-25.733842849731445,-40.80817413330078,0
2064758126,0.12242157012224197,0.11164015531539917,-23.50747299194336,0.0006732611800543964,-0.0004464824451133609,-0.0010498877381905913,4.922238531435141e-06,0.11400885879993439,0.10988733172416687,0.5794000029563904,3334976.75,-25.83421516418457,-40.73213577270508,0
2064768300,0.12372039258480072,0.11084658652544022,-23.50668716430664,0.0006209188140928745,-0.00045204858179204166,-0.0012115207500755787,-1.22659530461533e-05,0.1140465959906578,0.10989134758710861,0.5794000029563904,3334976.75,-25.930822372436523,-40.69398498535156,0
2064778359,0.12164505571126938,0.10792402178049088,-23.50657081604004,0.0005827593267895281,-0.0004401023907121271,-0.001329357153736055,2.4623823264846578e-05,0.11407411098480225,0.10988273471593857,0.5794000029563904,3334976.75,-25.991283416748047,-40.77700424194336,0
2064788138,0.11897307634353638,0.10964629054069519,-23.511011123657227,0.0005615791887976229,-0.0004386512446217239,-0.0013947613770142198,2.9104990971973166e-05,0.11408938467502594,0.109881691634655,0.5794000029563904,3334976.75,-26.02165412902832,-40.7873649597168,0
2064798125,0.11964385956525803,0.11053421348333359,-23.511106491088867,0.0005372659652493894,-0.000442377757281065,-0.0014698405284434557,1.7597520127310418e-05,0.1141069158911705,0.10988438129425049,0.5794000029563904,3334976.75,-26.05398941040039,-40.760868072509766,0
2064808118,0.12128936499357224,0.11008331179618835,-23.515087127685547,0.00047522125532850623,-0.00044311757665127516,-0.0015751731116324663,1.634153704799246e-05,0.11413155496120453,0.10988467186689377,0.5794000029563904,3334976.75,-26.111417770385742,-40.757972717285156,0
2064818534,0.12032957375049591,0.10950467735528946,-23.511274337768555,0.00042536374530754983,-0.00043789856135845184,-0.0016598156653344631,2.5201790776918642e-05,0.11415135115385056,0.10988260060548782,0.5794000029563904,3334976.75,-26.15355682373047,-40.77859878540039,0
2064828856,0.11720666289329529,0.1121632307767868,-23.512859344482422,0.0004089331196155399,-0.0004597507941070944,-0.0016877098241820931,-1.1896489013452083e-05,0.11415787786245346,0.10989128053188324,0.5794000029563904,3334976.75,-26.166709899902344,-40.69524002075195,0
2064838087,0.11656960844993591,0.11288429796695709,-23.515926361083984,0.0003994578728452325,-0.00048799600335769355,-0.0017037958605214953,-5.984808012726717e-05,0.11416164040565491,0.10990250110626221,0.5794000029563904,3334976.75,-26.174137115478516,-40.59907913208008,0
2064848111,0.11343498528003693,0.10739461332559586,-23.521028518676758,0.0004211821360513568,-0.00046118226600810885,-0.0016669147880747914,-1.4326712516776752e-05,0.11415301263332367,0.1098918542265892,0.5794000029563904,3334976.75,-26.156938552856445,-40.69005584716797,0
2064858163,0.1160532608628273,0.10153105854988098,-23.518264770507812,0.00041669097845442593,-0.00037833000533282757,-0.0016745394095778465,0.00012633066216949373,0.11415479332208633,0.10985895246267319,0.5794000029563904,3334976.75,-26.16054344177246,-41.04338836669922,0
2064868443,0.11319459229707718,0.10869618505239487,-23.513561248779297,0.0004397928132675588,-0.0003671310259960592,-0.0016353196697309613,0.00014534307410940528,0.11414562165737152,0.10985450446605682,0.5794000029563904,3334976.75,-26.141712188720703,-41.09807205200195,0
2064878426,0.11031977087259293,0.1082778349518776,-23.506183624267578,0.0005075992085039616,-0.00034442750620655715,-0.0015637942124158144,0.00016929185949265957,0.1141245886683464,0.10984746366739273,0.5794000029563904,3334976.75,-26.090564727783203,-41.17795181274414,0
2064888102,0.10813144594430923,0.11063838750123978,-23.504119873046875,0.0006024528993293643,-0.00035446471883915365,-0.001463737920857966,0.00015870410425122827,0.11409516632556915,0.10985057801008224,0.5794000029563904,3334976.75,-26.01397705078125,-41.1420783996582,0
2064898115,0.11050429940223694,0.10885567218065262,-23.503976821899414,0.0006622039945796132,-0.00034036801662296057,-0.0014007095014676452,0.00017357399337925017,0.114076629281044,0.10984620451927185,0.5794000029563904,3334976.75,-25.96280860900879,-41.19269943237305,0
2064908118,0.11372822523117065,0.10736461728811264,-23.51484489440918,0.0006773862987756729,-0.00030715871253050864,-0.0013846944784745574,0.00020860480435658246,0.11407192051410675,0.1098359003663063,0.5794000029563904,3334976.75,-25.949462890625,-41.31770706176758,0
2064918347,0.11967853456735611,0.11141210794448853,-23.51861000061035,0.0006147351814433932,-0.00032770211691968143,-0.0014507819432765245,0.00018693460151553154,0.11409135162830353,0.10984227061271667,0.5794000029563904,3334976.75,-26.003637313842773,-41.23951721191406,0
2064928410,0.12259315699338913,0.11194184422492981,-23.516477584838867,0.0005168740171939135,-0.0003543264465406537,-0.0015540106687694788,0.0001588499580975622,0.1141217052936554,0.10985053330659866,0.5794000029563904,3334976.75,-26.083332061767578,-41.1425666809082,0
2064938197,0.11993265151977539,0.10706555098295212,-23.509334564208984,0.00045607899664901197,-0.0003182457876391709,-0.0016181402606889606,0.00019690960471052676,0.11414056271314621,0.10983934253454208,0.5794000029563904,3334976.75,-26.129701614379883,-41.27519607543945,0
2064948072,0.1237623542547226,0.10420901328325272,-23.500808715820312,0.0003142370842397213,-0.0002265658404212445,-0.0017061765538528562,0.0002538120897952467,0.11418413370847702,0.10981117933988571,0.5794000029563904,3334976.75,-26.222293853759766,-41.56317138671875,0
2064958123,0.12145369499921799,0.10550227016210556,-23.508323669433594,0.00021398042736109346,-0.0001586254220455885,-0.0017684022895991802,0.00029598030960187316,0.1142149344086647,0.10979031026363373,0.5794000029563904,3334976.75,-26.284011840820312,-41.79993438720703,0
2064968425,0.12007051706314087,0.11050557345151901,-23.514591217041016,0.00013885117368772626,-0.00017104108701460063,-0.0018150323303416371,0.0002882743428926915,0.11423801630735397,0.10979412496089935,0.5794000029563904,3334976.75,-26.32807731628418,-41.756412506103516,0
2064978454,0.11708839982748032,0.11040591448545456,-23.517322540283203,0.00011222375906072557,-0.00018148757226299495,-0.0018315589986741543,0.0002817905624397099,0.1142461970448494,0.10979733616113663,0.5794000029563904,3334976.75,-26.343233108520508,-41.719730377197266,0
2064988150,0.11835841834545135,0.11133592575788498,-23.51357078552246,6.722901161992922e-05,-0.0002056974481092766,-0.001859485637396574,0.00026676434208638966,0.11426001787185669,0.10980477184057236,0.5794000029563904,3334976.75,-26.368289947509766,-41.63505554199219,0
2064998113,0.11740634590387344,0.11076903343200684,-23.50080108642578,3.8052334275562316e-05,-0.00022057666501495987,-0.0018775946227833629,0.0002575293474365026,0.11426898092031479,0.10980933904647827,0.5794000029563904,3334976.75,-26.384164810180664,-41.58365249633789,0
2065008023,0.11901425570249557,0.10969562083482742,-23.499357223510742,-1.3985645637148991e-05,-0.00021904159802943468,-0.0019098927732557058,0.00025848211953416467,0.11428496986627579,0.10980886965990067,0.5794000029563904,3334976.75,-26.41175079345703,-41.588924407958984,0
2065018496,0.11583322286605835,0.11349304020404816,-23.511293411254883,-2.49440945481183e-05,-0.00028089561965316534,-0.0019126409897580743,0.00024297021445818245,0.11428888142108917,0.10983096063137054,0.5794000029563904,3334976.75,-26.417469024658203,-41.43424987792969,0
2065028841,0.10901583731174469,0.11161860078573227,-23.51356315612793,7.97104585217312e-05,-0.00030884184525348246,-0.0018863953882828355,0.00023596179380547255,0.114251509308815,0.10984094440937042,0.5794000029563904,3334976.75,-26.362197875976562,-41.37353515625,0
2065038095,0.11000695824623108,0.10793395340442657,-23.514719009399414,0.0001641197013668716,-0.00027432074421085417,-0.0018652270082384348,0.0002446190919727087,0.11422136425971985,0.10982861369848251,0.5794000029563904,3334976.75,-26.316665649414062,-41.449344635009766,0
2065048152,0.11856717616319656,0.10825582593679428,-23.511796951293945,0.00010454684525029734,-0.0002463066775817424,-0.001880166819319129,0.00025164452381432056,0.11424264311790466,0.10981860756874084,0.5794000029563904,3334976.75,-26.348880767822266,-41.517234802246094,0
2065058128,0.1202525720000267,0.11357814818620682,-23.5,1.9589379007811658e-05,-0.0003058732836507261,-0.0019014726858586073,0.00023670625523664057,0.11427298188209534,0.10983987897634506,0.5794000029563904,3334976.75,-26.394126892089844,-41.379722595214844,0
2065068439,0.11769623309373856,0.11266540735960007,-23.506471633911133,-2.139120624633506e-05,-0.0003487500362098217,-0.001911749946884811,0.00022595351038035005,0.1142876148223877,0.10985518991947174,0.5794000029563904,3334976.75,-26.415616989135742,-41.29601287841797,0
2065078437,0.1122715026140213,0.1026303619146347,-23.515098571777344,2.1213661966612563e-05,-0.0002201500756200403,-0.0019168829312548041,0.00021045992616564035,0.11426807940006256,0.10979622602462769,0.5794000029563904,3334976.75,-26.393362045288086,-41.48401641845703,0
2065088063,0.10307958722114563,0.10155384987592697,-23.516193389892578,0.00021744085825048387,-7.819168968126178e-05,-0.0019405242055654526,0.0001933569146785885,0.1141781136393547,0.10973113775253296,0.5794000029563904,3334976.75,-26.2928409576416,-41.90762710571289,0
2065098123,0.10637353360652924,0.10738010704517365,-23.514822006225586,0.000351566297467798,-3.8521047827089205e-05,-0.0019566835835576057,0.00018857743998523802,0.1141166165471077,0.10971295088529587,0.5794000029563904,3334976.75,-26.22665023803711,-42.09041213989258,0
2065108122,0.1075989305973053,0.10990509390830994,-23.51523780822754,0.00046068892697803676,-4.1796094592427835e-05,-0.001969830598682165,0.00018897201516665518,0.11406658589839935,0.10971445590257645,0.5794000029563904,3334976.75,-26.174684524536133,-42.074241638183594,0
2065118272,0.1171063780784607,0.10952456295490265,-23.512704849243164,0.00041164146387018263,-3.877939889207482e-05,-0.00196392135694623,0.0001886085665319115,0.11408907175064087,0.10971307009458542,0.5794000029563904,3334976.75,-26.197816848754883,-42.08913040161133,0
2065128447,0.11489293724298477,0.10735688358545303,-23.50803565979004,0.00039977955748327076,-1.1350726936143474e-06,-0.0019624922424554825,0.00018407321476843208,0.11409451067447662,0.10969580709934235,0.5794000029563904,3334976.75,-26.203466415405273,-42.28574752807617,0
2065138106,0.112796850502491,0.10557148605585098,-23.513851165771484,0.00042149971704930067,6.346664304146543e-05,-0.0019651090260595083,0.00017629006470087916,0.11408454924821854,0.10966619104146957,0.5794000029563904,3334976.75,-26.19313621520996,-42.637481689453125,0
2065148103,0.11083920300006866,0.11197438091039658,-23.512596130371094,0.0004647272580768913,2.6895568225882016e-05,-0.0019900843035429716,0.00019741956202778965,0.11405695229768753,0.10968953371047974,0.5794000029563904,3334976.75,-26.175016403198242,-42.42731857299805,0
2065158171,0.10994663089513779,0.1144765242934227,-23.51127815246582,0.0005197854479774833,-4.623849599738605e-05,-0.002021895023062825,0.00023967390006873757,0.11402180790901184,0.10973621904850006,0.5794000029563904,3334976.75,-26.15279769897461,-42.10133361816406,0
2065168345,0.10561847686767578,0.1082402914762497,-23.51512336730957,0.0006374872755259275,-2.3102733393898234e-05,-0.002089899033308029,0.00022630685998592526,0.11394667625427246,0.10972145199775696,0.5794000029563904,3334976.75,-26.108360290527344,-42.190181732177734,0
2065178391,0.10828211903572083,0.10492659360170364,-23.511638641357422,0.0007113212486729026,4.804431227967143e-05,-0.002132557798177004,0.00018520055164117366,0.11389954388141632,0.10967603325843811,0.5794000029563904,3334976.75,-26.08247947692871,-42.545738220214844,0
2065188040,0.11544660478830338,0.1058976799249649,-23.50623321533203,0.0006780968396924436,0.00010235624358756468,-0.002113361842930317,0.00015382099081762135,0.11392075568437576,0.10964136570692062,0.5794000029563904,3334976.75,-26.093942642211914,-42.879058837890625,0
2065198123,0.1219659373164177,0.10685867071151733,-23.511154174804688,0.0005525536253117025,0.0001408480602549389,-0.002040827414020896,0.00013158174988348037,0.11400089412927628,0.10961679369211197,0.5794000029563904,3334976.75,-26.140016555786133,-43.1113166809082,0
2065208123,0.12529905140399933,0.11076349765062332,-23.51573944091797,0.00038442807272076607,0.00012264025281183422,-0.001943690236657858,0.00014210159133654088,0.11410821229219437,0.10962841659784317,0.5794000029563904,3334976.75,-26.209163665771484,-43.003936767578125,0
2065218575,0.12223143130540848,0.1159270629286766,-23.510833740234375,0.00027451053028926253,4.469442865229212e-05,-0.0018029806669801474,0.0002418830117676407,0.11421604454517365,0.1097048819065094,0.5794000029563904,3334976.75,-26.253332138061523,-42.474632263183594,0
2065228805,0.1182677149772644,0.10917528718709946,-23.507612228393555,0.00021709883003495634,5.128385600983165e-05,-0.0017294858116656542,0.00023344763030763716,0.11427236348390579,0.10969841480255127,0.5794000029563904,3334976.75,-26.279550552368164,-42.50815963745117,0
2065238071,0.1130213588476181,0.10560491681098938,-23.5074520111084,0.00022410490782931447,9.970669634640217e-05,-0.001738454564474523,0.00017145970195997506,0.11426549404859543,0.10965090990066528,0.5794000029563904,3334976.75,-26.276222229003906,-42.818634033203125,0
2065248147,0.11379493027925491,0.10957155376672745,-23.51118278503418,0.00022183450346346945,0.00010002463386626914,-0.0017355481395497918,0.00017105269944295287,0.11426772177219391,0.10965059697628021,0.5794000029563904,3334976.75,-26.27729606628418,-42.82105255126953,0
2065258135,0.11497329920530319,0.10734706372022629,-23.513593673706055,0.00020620938448701054,0.00012572067498695105,-0.0017155458917841315,0.00013815822603646666,0.11428304761648178,0.10962539166212082,0.5794000029563904,3334976.75,-26.28479766845703,-43.030216217041016,0
2065268414,0.11311666667461395,0.11136367172002792,-23.506559371948242,0.0002120889985235408,0.00010522880620555952,-0.0017230726080015302,0.00016439064347650856,0.11427728086709976,0.10964549332857132,0.5794000029563904,3334976.75,-26.281951904296875,-42.86131286621094,0
2065278430,0.10981917381286621,0.1089709997177124,-23.502952575683594,0.0002542076981626451,0.00011203627218492329,-0.001776990364305675,0.0001556761417305097,0.11423595994710922,0.10963881760835648,0.5794000029563904,3334976.75,-26.262332916259766,-42.91572952270508,0
2065288140,0.11450482904911041,0.10755153745412827,-23.509990692138672,0.00024387775920331478,0.00012771994806826115,-0.0017477660439908504,0.00011130568600492552,0.11425495147705078,0.10960998386144638,0.5794000029563904,3334976.75,-26.26578140258789,-43.14588165283203,0
2065298047,0.11549254506826401,0.10319539904594421,-23.51526641845703,0.000226731994189322,0.00017499054956715554,-0.0016992591554298997,-2.2426931536756456e-05,0.11428647488355637,0.10952308028936386,0.5794000029563904,3334976.75,-26.27177619934082,-43.99018096923828,0
2065308061,0.12012802809476852,0.10525860637426376,-23.51051139831543,0.0001766667701303959,0.00020487037545535713,-0.0015576203586533666,-0.00010695954551920295,0.11437851190567017,0.10946814715862274,0.5794000029563904,3334976.75,-26.291484832763672,-44.3438720703125,0
2065318411,0.1227167472243309,0.11411041021347046,-23.512271881103516,0.00011054569768020883,0.00017005389963742346,-0.0013705581659451127,-8.460745448246598e-06,0.11450006812810898,0.10953215509653091,0.5794000029563904,3334976.75,-26.32394027709961,-43.91242599487305,0
2065328419,0.12294340133666992,0.11698149889707565,-23.509904861450195,4.598355371854268e-05,0.00011677029397105798,-0.0011879062512889504,0.0001422831555828452,0.11461875587701797,0.10963010787963867,0.5794000029563904,3334976.75,-26.365732192993164,-42.979148864746094,0
2065338138,0.11833043396472931,0.10966094583272934,-23.511016845703125,1.6166604837053455e-05,0.00011633695248747244,-0.0011035515926778316,0.00014350911078508943,0.11467356979846954,0.10963090509176254,0.5794000029563904,3334976.75,-26.389774322509766,-42.97312545776367,0
2065348113,0.11327986419200897,0.10787323117256165,-23.520145416259766,2.183807737310417e-05,0.00012800435069948435,-0.0011195966508239508,0.0001105010524042882,0.11466314643621445,0.109609454870224,0.5794000029563904,3334976.75,-26.384920120239258,-43.15057373046875,0
2065358155,0.1123233288526535,0.10880883783102036,-23.513511657714844,2.4875191229511984e-05,0.00012953972327522933,-0.001159418374300003,9.036978735821322e-05,0.11463914066553116,0.10959731787443161,0.5794000029563904,3334976.75,-26.382970809936523,-43.25358581542969,0
2065368383,0.11424209922552109,0.1101977527141571,-23.50390625,2.407050851616077e-05,0.00012833249638788402,-0.001148867653682828,0.00010619853128446266,0.11464550346136093,0.10960686206817627,0.5794000029563904,3334976.75,-26.383474349975586,-43.17141342163086,0
2065378398,0.11387718468904495,0.11083903908729553,-23.503372192382812,2.3992137357708998e-05,0.00012599625915754586,-0.0011478400556370616,0.0001368305820506066,0.11464612185955048,0.10962532460689545,0.5794000029563904,3334976.75,-26.38352394104004,-43.03611755371094,0
2065388144,0.1134989857673645,0.11123239994049072,-23.509769439697266,2.4608050807728432e-05,0.00012307021825108677,-0.0011559156700968742,0.0001751959789544344,0.11464125663042068,0.1096484512090683,0.5794000029563904,3334976.75,-26.383136749267578,-42.904300689697266,0
2065398142,0.11426176130771637,0.11576304584741592,-23.514019012451172,2.3829794372431934e-05,0.00011221424938412383,-0.001145711401477456,0.0003175359161105007,0.11464741080999374,0.10973425209522247,0.5794000029563904,3334976.75,-26.38362693786621,-42.63161087036133,0
2065408094,0.11146418750286102,0.11653956770896912,-23.512603759765625,2.797954402922187e-05,0.00010056586324935779,-0.0012001215945929289,0.0004702656588051468,0.11461461335420609,0.10982631891965866,0.5794000029563904,3334976.75,-26.381113052368164,-42.502593994140625,0
2065418547,0.11088189482688904,0.11450903117656708,-23.505008697509766,3.291537723271176e-05,9.29830566747114e-05,-0.0012648386182263494,0.0005696890293620527,0.11457560211420059,0.10988625138998032,0.5794000029563904,3334976.75,-26.37840461730957,-42.45370864868164,0
2065428939,0.11638442426919937,0.11025969684123993,-23.496660232543945,4.468659608392045e-05,9.27386645344086e-05,-0.0011845628032460809,0.0005680223694071174,0.11462298035621643,0.10988526791334152,0.5794000029563904,3334976.75,-26.366716384887695,-42.45375442504883,0
2065438104,0.12384024262428284,0.10401170700788498,-23.499799728393555,8.5172985563986e-05,6.781926640542224e-05,-0.0009084590710699558,0.0003980803012382239,0.11478593200445175,0.10978496819734573,0.5794000029563904,3334976.75,-26.31093978881836,-42.460662841796875,0
2065448134,0.12135279178619385,0.10553265362977982,-23.512596130371094,0.00011358811025274917,5.029094245401211e-05,-0.0007146773277781904,0.0002785429242067039,0.11490029841661453,0.10971441864967346,0.5794000029563904,3334976.75,-26.246803283691406,-42.470542907714844,0
2065458148,0.11938454955816269,0.10443956404924393,-23.522518157958984,0.00013291582581587136,2.9709979571634904e-05,-0.0005828686407767236,0.0001381875335937366,0.11497808992862701,0.10963158309459686,0.5794000029563904,3334976.75,-26.180217742919922,-42.503692626953125,0
2065468436,0.10879293084144592,0.1096089705824852,-23.51709747314453,0.00011233424447709695,2.9255910703795962e-05,-0.0007232282077893615,0.0001350909296888858,0.11489525437355042,0.10962975770235062,0.5794000029563904,3334976.75,-26.250329971313477,-42.50518798828125,0
2065478457,0.10802716761827469,0.11254670470952988,-23.510095596313477,9.017860429594293e-05,3.933328844141215e-05,-0.0008743222570046782,0.00020381527428980917,0.11480607837438583,0.10967031866312027,0.5794000029563904,3334976.75,-26.30164337158203,-42.48255920410156,0
2065488152,0.10435961186885834,0.11498594284057617,-23.513256072998047,5.642432370223105e-05,5.738125400966965e-05,-0.001104515278711915,0.0003268964064773172,0.11467022448778152,0.10974296182394028,0.5794000029563904,3334976.75,-26.35338020324707,-42.46568298339844,0
2065498175,0.10890942811965942,0.11308512091636658,-23.508230209350586,1.044315558829112e-05,8.725688530830666e-05,-0.0012333746999502182,0.0004106210544705391,0.11459257453680038,0.10979341715574265,0.5794000029563904,3334976.75,-26.395954132080078,-42.501304626464844,0
2065508056,0.11423036456108093,0.1094035804271698,-23.51426124572754,1.820881516323425e-05,8.007598808035254e-05,-0.0012116119032725692,0.00039049703627824783,0.11460568755865097,0.10978128761053085,0.5794000029563904,3334976.75,-26.389392852783203,-42.494178771972656,0
2065518364,0.11728395521640778,0.10730049014091492,-23.517122268676758,5.3723597375210375e-05,5.390322257881053e-05,-0.0011120839044451714,0.0003171494463458657,0.11466566473245621,0.1097370833158493,0.5794000029563904,3334976.75,-26.356149673461914,-42.46027374267578,0
2065528314,0.11452184617519379,0.11580580472946167,-23.513097763061523,6.211601430550218e-05,0.00010598302469588816,-0.0010885646333917975,0.00046309991739690304,0.11467983573675156,0.10982503741979599,0.5794000029563904,3334976.75,-26.34741973876953,-42.516902923583984,0
2065538142,0.11166234314441681,0.11846493184566498,-23.509765625,4.4906559196533635e-05,0.00017819418280851096,-0.0011367930565029383,0.0006654673488810658,0.11465077102184296,0.10994698852300644,0.5794000029563904,3334976.75,-26.364938735961914,-42.553558349609375,0
2065548128,0.11645589023828506,0.1157284677028656,-23.507343292236328,6.972873234190047e-05,0.00022269193141255528,-0.0010672303615137935,0.0007901695789769292,0.11469268798828125,0.11002213507890701,0.5794000029563904,3334976.75,-26.33917808532715,-42.566627502441406,0
2065558136,0.11671662330627441,0.11382070183753967,-23.503671646118164,9.528962982585654e-05,0.00024868518812581897,-0.0009955974528566003,0.0008630140800960362,0.11473585665225983,0.11006603389978409,0.5794000029563904,3334976.75,-26.309001922607422,-42.57248306274414,0
2065568451,0.11495721340179443,0.11331740021705627,-23.514266967773438,0.00011330395500408486,0.0002841658133547753,-0.0009647299302741885,0.0009238100028596818,0.11475566029548645,0.11010503768920898,0.5794000029563904,3334976.75,-26.287511825561523,-42.59033966064453,0
2065578410,0.11959772557020187,0.11351935565471649,-23.519847869873047,0.00019651534967124462,0.0003200873907189816,-0.0008221474126912653,0.0009853615192696452,0.11484713852405548,0.11014452576637268,0.5794000029563904,3334976.75,-26.169797897338867,-42.606014251708984,0
2065588147,0.1116705909371376,0.1134113296866417,-23.513309478759766,0.00016390961536671966,0.0003521066973917186,-0.0008780172793194652,0.0010402265470474958,0.11481129378080368,0.11017972975969315,0.5794000029563904,3334976.75,-26.219865798950195,-42.618309020996094,0
2065598130,0.12257464230060577,0.04866975545883179,-23.5233211517334,0.00028090871637687087,-0.0004936833283863962,-0.000677539617754519,-0.0004090326838195324,0.11493991315364838,0.10924991220235825,0.5794000029563904,3334976.75,-26.01139259338379,-40.02922821044922,0
2065608123,0.1386110633611679,0.32657361030578613,-23.466997146606445,0.0006017442210577428,0.002373109105974436,-0.00012778877862729132,0.004503208678215742,0.11529262363910675,0.11240151524543762,0.5794000029563904,3334976.75,-25.04288101196289,-42.77692413330078,0
2065618531,0.06695594638586044,-0.25342780351638794,-23.562917709350586,-1.641304697841406e-05,-0.0023770525585860014,-0.001186999841593206,-0.0036361825186759233,0.11461305618286133,0.1071794331073761,0.5794000029563904,3334976.75,-26.418249130249023,-39.72932052612305,0
2065628886,0.11188218742609024,0.3044402599334717,-23.488245010375977,-4.595853533828631e-05,0.0014294505817815661,-0.0012216749601066113,0.0008312027784995735,0.11458823829889297,0.11037705093622208,0.5794000029563904,3334976.75,-26.44202423095703,-37.0528450012207,0
2065638039,0.15130527317523956,0.4367760419845581,-23.469837188720703,0.0006495121051557362,0.007394996006041765,-0.0004054571909364313,0.007832481525838375,0.11517246067523956,0.11538835614919662,0.5794000029563904,3334976.75,-25.391685485839844,-36.765419006347656,0
2065648077,0.0904143750667572,-0.5516136288642883,-23.59954261779785,0.00021362322149798274,-0.004641912877559662,-0.0009170247940346599,-0.006294267252087593,0.11480629444122314,0.10527685284614563,0.5794000029563904,3334976.75,-26.175552368164062,-39.7857780456543,0
2065658169,0.15473613142967224,0.6699162721633911,-23.45847511291504,0.0009191432618536055,0.005246518179774284,-7.962901145219803e-05,0.005442508962005377,0.11540817469358444,0.11371268332004547,0.5794000029563904,3334976.75,-24.9200439453125,-36.77580642700195,0
