TimeUS,PLX,PLY,PLZ,AX,AY,BX,BY,CX,CY,F,P,X,Y,SW
198299520,0.13516469299793243,0.08754302561283112,-23.521209716796875,-0.0012781581608578563,0.0006964242202229798,0.0011845940025523305,-0.00047596931108273566,0.14083319902420044,0.09174270182847977,0.5794000029563904,0.0,21.243730545043945,-6.882713317871094,0
198309440,0.14614300429821014,0.08191949874162674,-23.515609741210938,-0.0011489780154079199,0.0004529415164142847,0.001259774318896234,-0.0006176714086905122,0.14091850817203522,0.09158191084861755,0.5794000029563904,0.0,21.159791946411133,-7.221249103546143,0
198320160,0.15368854999542236,0.08160994201898575,-23.510700225830078,-0.000836480816360563,0.00020996094099245965,0.0014346608659252524,-0.0007536535267718136,0.1411207616329193,0.09142465144395828,0.5794000029563904,0.0,20.948223114013672,-7.582278251647949,0
198329150,0.14990057051181793,0.08784345537424088,-23.506328582763672,-0.0006297522340901196,0.00013086387480143458,0.0015472274972125888,-0.0007967230048961937,0.14125242829322815,0.09137427061796188,0.5794000029563904,0.0,20.806901931762695,-7.69118070602417,0
198339154,0.1401279717683792,0.10199075192213058,-23.51183319091797,-0.0006717749056406319,0.0004040076455567032,0.0015250836731866002,-0.0006527898949570954,0.14122611284255981,0.09154527634382248,0.5794000029563904,0.0,20.83527183532715,-7.299783229827881,0
198349444,0.13727959990501404,0.09756088256835938,-23.516571044921875,-0.00078083440894261,0.000555262144189328,0.0014694671845063567,-0.000575655372813344,0.14115895330905914,0.09163840860128403,0.5794000029563904,0.0,20.908788681030273,-7.086611747741699,0
198359185,0.13393563032150269,0.08567702770233154,-23.515031814575195,-0.0009658647468313575,0.0004065419780090451,0.0013781815068796277,-0.000649027235340327,0.14104683697223663,0.09154829382896423,0.5794000029563904,0.0,21.031639099121094,-7.294383525848389,0
198369518,0.13660037517547607,0.0952271968126297,-23.50286865234375,-0.0010756159899756312,0.0004980344092473388,0.0013258277904242277,-0.0006053834222257137,0.14098136126995087,0.0916028767824173,0.5794000029563904,0.0,21.101940155029297,-7.165563583374023,0
198379205,0.14426091313362122,0.09417915344238281,-23.501760482788086,-0.0009920033626258373,0.0005590195651166141,0.0013643621932715178,-0.0005772772710770369,0.14103050529956818,0.0916387140750885,0.5794000029563904,0.0,21.049030303955078,-7.084647178649902,0
198389239,0.15096673369407654,0.09124971181154251,-23.509014129638672,-0.0007485180394724011,0.0005454991478472948,0.0014726304216310382,-0.0005832892493344843,0.14117154479026794,0.09163088351488113,0.5794000029563904,0.0,20.890613555908203,-7.102046966552734,0
198399437,0.15103477239608765,0.09112285077571869,-23.511220932006836,-0.0005136530962772667,0.0005288999527692795,0.001573236775584519,-0.0005903996643610299,0.14130569994449615,0.09162139892578125,0.5794000029563904,0.0,20.735942840576172,-7.123470783233643,0
198409221,0.14513656497001648,0.09554880112409592,-23.51485252380371,-0.00042910833144560456,0.0006177420727908611,0.0016080467030405998,-0.0005538203404285014,0.14135335385799408,0.09167147427797318,0.5794000029563904,0.0,20.681133270263672,-7.014074325561523,0
198420100,0.1347535252571106,0.09870067983865738,-23.512338638305664,-0.000591869989875704,0.000775932683609426,0.0015442566946148872,-0.0004918218473903835,0.14126288890838623,0.09175939857959747,0.5794000029563904,0.0,20.786361694335938,-6.848118305206299,0
198429240,0.13559135794639587,0.09560756385326385,-23.505718231201172,-0.0007256327080540359,0.0008535304223187268,0.0014937900705263019,-0.0004625454021152109,0.1411893516778946,0.09180206060409546,0.5794000029563904,0.0,20.872554779052734,-6.779801845550537,0
198439151,0.1389508843421936,0.09647245705127716,-23.508747100830078,-0.0007741475128568709,0.000946541375014931,0.001476370613090694,-0.00042914936784654856,0.14116299152374268,0.09185260534286499,0.5794000029563904,0.0,20.903303146362305,-6.708849906921387,0
198449565,0.1449732780456543,0.09649886190891266,-23.511573791503906,-0.0006822591531090438,0.0010349275544285774,0.0015076202107593417,-0.0003990907862316817,0.14121238887310028,0.09190011769533157,0.5794000029563904,0.0,20.84532356262207,-6.651233673095703,0
198459139,0.15014615654945374,0.09660077840089798,-23.509618759155273,-0.00047790308599360287,0.0011206221533939242,0.0015730527229607105,-0.0003716523351613432,0.1413211226463318,0.09194571524858475,0.5794000029563904,0.0,20.715303421020508,-6.603416442871094,0
198469543,0.15089252591133118,0.09979143738746643,-23.512781143188477,-0.0002659563906490803,0.001271811663173139,0.0016364657785743475,-0.00032641744473949075,0.14143283665180206,0.09202540665864944,0.5794000029563904,0.0,20.58146858215332,-6.534416198730469,0
198479153,0.1421726644039154,0.09198561310768127,-23.515520095825195,-0.00025235911016352475,0.001245697494596243,0.001640232396312058,-0.0003336514055263251,0.14143994450569153,0.09201176464557648,0.5794000029563904,0.0,20.573017120361328,-6.544883728027344,0
198489245,0.13890638947486877,0.08634249120950699,-23.51370620727539,-0.00030781776877120137,0.001100068329833448,0.0016261697746813297,-0.00037057840381748974,0.1414112001657486,0.09193626791238785,0.5794000029563904,0.0,20.60743522644043,-6.608112335205078,0
198500014,0.13695253431797028,0.08906718343496323,-23.512454986572266,-0.0004002104396931827,0.0010183637496083975,0.001605047145858407,-0.0003892575914505869,0.14136363565921783,0.09189420938491821,0.5794000029563904,0.0,20.66472053527832,-6.648284912109375,0
198509276,0.1350320726633072,0.09394296258687973,-23.509906768798828,-0.0005265987711027265,0.0010407335357740521,0.001579559757374227,-0.00038474652683362365,0.1412988156080246,0.09190568327903748,0.5794000029563904,0.0,20.74215316772461,-6.637289047241211,0
198519575,0.13549432158470154,0.09304431825876236,-23.509979248046875,-0.0006372393108904362,0.001043466734699905,0.0015605584485456347,-0.00038427714025601745,0.14124180376529694,0.0919070914387703,0.5794000029563904,0.0,20.808032989501953,-6.636040687561035,0
198529256,0.14405177533626556,0.08804967999458313,-23.512006759643555,-0.0005689812824130058,0.0009446756448596716,0.0015701546799391508,-0.00039816589560359716,0.14127717912197113,0.09185589104890823,0.5794000029563904,0.0,20.76801109313965,-6.682072639465332,0
198539142,0.1527458131313324,0.08992017805576324,-23.51093864440918,-0.0003284459235146642,0.0008871255558915436,0.0015961740864440799,-0.00040439123404212296,0.1414027065038681,0.09182585775852203,0.5794000029563904,0.0,20.623294830322266,-6.7108869552612305,0
198550179,0.15251855552196503,0.0956127792596817,-23.506994247436523,-0.00010139460937352851,0.0009441981092095375,0.0016122398665174842,-0.0004003528447356075,0.1415221244096756,0.09185587614774704,0.5794000029563904,0.0,20.483163833618164,-6.684218406677246,0
198559153,0.1453327238559723,0.09249421209096909,-23.505754470825195,-2.3158732801675797e-05,0.0009377849055454135,0.0016152736498042941,-0.0004006015369668603,0.14156363904476166,0.09185247123241425,0.5794000029563904,0.0,20.4346923828125,-6.6868977546691895,0
198569560,0.1401708424091339,0.08564051985740662,-23.511882781982422,-4.6441477024927735e-05,0.0007996701169759035,0.0016152341850101948,-0.00040083579369820654,0.1415511667728424,0.091778464615345,0.5794000029563904,0.0,20.449100494384766,-6.74783182144165,0
198579224,0.13326993584632874,0.08634544909000397,-23.514591217041016,-0.0001982212852453813,0.0006808040197938681,0.0016207698499783874,-0.00039650057442486286,0.14146897196769714,0.09171409904956818,0.5794000029563904,0.0,20.54205322265625,-6.810561656951904,0
198589237,0.13229645788669586,0.09294109791517258,-23.521089553833008,-0.0003602346405386925,0.0006899015279486775,0.001632973551750183,-0.0003971858532167971,0.14138023555278778,0.09171908348798752,0.5794000029563904,0.0,20.637479782104492,-6.805553913116455,0
198599591,0.13604968786239624,0.0973561480641365,-23.511924743652344,-0.00044514660839922726,0.0007791793905198574,0.0016427489463239908,-0.0004074638127349317,0.14133314788341522,0.09176859259605408,0.5794000029563904,0.0,20.684978485107422,-6.765013694763184,0
198609256,0.14290562272071838,0.0950302705168724,-23.505538940429688,-0.00040203763637691736,0.0008223918848671019,0.0016360206063836813,-0.00041420836350880563,0.14135736227035522,0.09179287403821945,0.5794000029563904,0.0,20.66132354736328,-6.749756813049316,0
198620124,0.14781296253204346,0.08942501246929169,-23.51146697998047,-0.0002737645118031651,0.0007648736354894936,0.0016100252978503704,-0.0004025519301649183,0.14143049716949463,0.0917600765824318,0.5794000029563904,0.0,20.588783264160156,-6.767647743225098,0
198629244,0.1505555659532547,0.08575177192687988,-23.50969886779785,-0.00010352604294894263,0.0006467437488026917,0.0015688891289755702,-0.00037400724249891937,0.1415289342403412,0.0916917696595192,0.5794000029563904,0.0,20.486248016357422,-6.807488441467285,0
198639221,0.14891929924488068,0.09380371123552322,-23.51219367980957,3.159701736876741e-05,0.0006698931683786213,0.001530122826807201,-0.000380648736609146,0.14160829782485962,0.09170536696910858,0.5794000029563904,0.0,20.399709701538086,-6.799909591674805,0
198649573,0.14407919347286224,0.09556389600038528,-23.512601852416992,8.122813596855849e-05,0.0007206964073702693,0.0015135497087612748,-0.0003976133302785456,0.14163793623447418,0.09173570573329926,0.5794000029563904,0.0,20.366741180419922,-6.787336349487305,0
198659135,0.13874024152755737,0.08686838299036026,-23.510879516601562,4.3705807911464944e-05,0.0006297284853644669,0.0015279267681762576,-0.0003627580008469522,0.1416151225566864,0.09168041497468948,0.5794000029563904,0.0,20.391759872436523,-6.80580997467041,0
198669569,0.13218319416046143,0.08497042208909988,-23.51535987854004,-9.298363875132054e-05,0.00051409553270787,0.00158734864089638,-0.0003124898357782513,0.14153046905994415,0.09160880744457245,0.5794000029563904,0.0,20.47886848449707,-6.829350471496582,0
198679224,0.136472687125206,0.08616963028907776,-23.517255783081055,-0.0001566255377838388,0.00042293278966099024,0.0016184787964448333,-0.0002678979653865099,0.14149026572704315,0.09155122190713882,0.5794000029563904,0.0,20.516830444335938,-6.847821235656738,0
198689245,0.13993239402770996,0.08939030021429062,-23.512521743774414,-0.00016536044131498784,0.0003840306308120489,0.0016232546186074615,-0.0002466282167006284,0.14148463308811188,0.09152612835168839,0.5794000029563904,0.0,20.52187728881836,-6.854062557220459,0
198700144,0.150618776679039,0.08844030648469925,-23.510889053344727,-2.2297635950963013e-05,0.00033413368510082364,0.001535308314487338,-0.0002159546420443803,0.14157921075820923,0.0914931371808052,0.5794000029563904,0.0,20.434879302978516,-6.856961727142334,0
198709152,0.15102656185626984,0.08664225041866302,-23.509838104248047,0.00011856137280119583,0.0002626536588650197,0.0014404953690245748,-0.00016784104809630662,0.14167439937591553,0.09144483506679535,0.5794000029563904,0.0,20.33823585510254,-6.85180139541626,0
198719501,0.1439889371395111,0.0885363221168518,-23.520633697509766,0.0001589609164511785,0.0002204980846727267,0.0014104583533480763,-0.00013649837637785822,0.14170241355895996,0.09141560643911362,0.5794000029563904,0.0,20.308128356933594,-6.837489604949951,0
198729254,0.13645480573177338,0.09457164257764816,-23.51717185974121,0.00010267422476317734,0.000256891711615026,0.0014565848978236318,-0.00016632265760563314,0.14166228473186493,0.0914415493607521,0.5794000029563904,0.0,20.34998321533203,-6.85775899887085,0
198739157,0.13423208892345428,0.09161835163831711,-23.50628089904785,2.4077029593172483e-05,0.00025537831243127584,0.001527496031485498,-0.00016495725139975548,0.14160455763339996,0.09144043922424316,0.5794000029563904,0.0,20.40459442138672,-6.856694221496582,0
198750199,0.13634739816188812,0.09441637992858887,-23.504003524780273,-2.4000755729502998e-05,0.00028583890525624156,0.0015757279470562935,-0.00019551550212781876,0.14156796038150787,0.09146363288164139,0.5794000029563904,0.0,20.435585021972656,-6.883094310760498,0
198759192,0.14119406044483185,0.09653688222169876,-23.509475708007812,-1.5734605767647736e-05,0.0003371581551618874,0.0015666927210986614,-0.0002516095119062811,0.1415744572877884,0.09150397032499313,0.5794000029563904,0.0,20.430397033691406,-6.924290180206299,0
198769528,0.146005779504776,0.09053394943475723,-23.516361236572266,4.156212162342854e-05,0.00032298831501975656,0.0014976673992350698,-0.00023453912581317127,0.14162127673625946,0.09149239212274551,0.5794000029563904,0.0,20.392610549926758,-6.911247253417969,0
198779227,0.14878687262535095,0.08718713372945786,-23.51880645751953,0.00012123341002734378,0.00027780738309957087,0.001391658210195601,-0.00017442216631025076,0.1416892409324646,0.09145385026931763,0.5794000029563904,0.0,20.333459854125977,-6.843831539154053,0
198789297,0.1473514437675476,0.08553070574998856,-23.51000213623047,0.00018130088574253023,0.00022173262550495565,0.0013031300622969866,-9.177848551189527e-05,0.1417429894208908,0.09140367805957794,0.5794000029563904,0.0,20.282115936279297,-6.675627708435059,0
198799233,0.14319466054439545,0.08779508620500565,-23.503402709960938,0.00020129546464886516,0.00018986754002980888,0.001270362758077681,-3.955761349061504e-05,0.14176185429096222,0.09137360006570816,0.5794000029563904,0.0,20.263206481933594,-6.488588333129883,0
198810093,0.14268188178539276,0.09430582076311111,-23.50687599182129,0.00021550249948631972,0.00021121036843396723,0.0012440356658771634,-7.910803833510727e-05,0.1417761892080307,0.09139513224363327,0.5794000029563904,0.0,20.248828887939453,-6.641556262969971,0
198820147,0.14019529521465302,0.09225195646286011,-23.506343841552734,0.0002110377245116979,0.00021593744168058038,0.0012533488916233182,-8.896835788618773e-05,0.1417713612318039,0.09140024334192276,0.5794000029563904,0.0,20.2535400390625,-6.674000263214111,0
198829235,0.14072725176811218,0.08883983641862869,-23.512676239013672,0.00021061793086118996,0.0001984761474886909,0.0012543296907097101,-4.817260560230352e-05,0.1417708694934845,0.09137999266386032,0.5794000029563904,0.0,20.25399398803711,-6.521291732788086,0
198839224,0.13507972657680511,0.08445892482995987,-23.51508140563965,0.00017838030180428177,0.00015844564768485725,0.00134073116350919,5.911480911890976e-05,0.141729936003685,0.09132915735244751,0.5794000029563904,0.0,20.288084030151367,-5.926086902618408,0
198849160,0.13931627571582794,0.09075895696878433,-23.510120391845703,0.00017197930719703436,0.00015552749391645193,0.0013607015134766698,6.82191239320673e-05,0.14172089099884033,0.09132503718137741,0.5794000029563904,0.0,20.29463005065918,-5.8698248863220215,0
198859524,0.14075277745723724,0.08928757160902023,-23.507564544677734,0.00017286147340200841,0.0001468242408009246,0.0013574325712397695,0.00010047006799140945,0.14172230660915375,0.09131105989217758,0.5794000029563904,0.0,20.293691635131836,-5.683080673217773,0
198869531,0.14195938408374786,0.08917585760354996,-23.510469436645508,0.00017796165775507689,0.00013936487084720284,0.0013343577738851309,0.00013421864423435181,0.14173190295696259,0.09129703789949417,0.5794000029563904,0.0,20.28776741027832,-5.516593933105469,0
198879252,0.13751153647899628,0.08626533299684525,-23.511363983154297,0.00016937500913627446,0.00012530339881777763,0.0013837924925610423,0.0002151727385353297,0.14171217381954193,0.09126473218202591,0.5794000029563904,0.0,20.298561096191406,-5.239719390869141,0
198889258,0.13558506965637207,0.08542650192975998,-23.51456642150879,0.000159102666657418,0.0001133154146373272,0.00146431231405586,0.00030914065428078175,0.1416812688112259,0.0912286713719368,0.5794000029563904,0.0,20.31212615966797,-5.063729286193848,0
198899163,0.13505223393440247,0.0940868929028511,-23.520055770874023,0.000151821892359294,0.00011764137161662802,0.0015525141498073936,0.00025673455093055964,0.14164865016937256,0.0912480503320694,0.5794000029563904,0.0,20.322874069213867,-5.1420578956604,0
198909554,0.13897018134593964,0.09345756471157074,-23.514705657958984,0.0001510369620518759,0.000119227115646936,0.001572899636812508,0.00021555129205808043,0.14164137840270996,0.09126275032758713,0.5794000029563904,0.0,20.32462501525879,-5.217628002166748,0
198919484,0.1419697254896164,0.08835320919752121,-23.507482528686523,0.0001508968707639724,0.0001194342621602118,0.0015414694789797068,0.00026202420121990144,0.14165222644805908,0.09124670177698135,0.5794000029563904,0.0,20.32277488708496,-5.140065670013428,0
198929244,0.14675010740756989,0.08803293108940125,-23.50381088256836,0.00014561526768375188,0.00012181635975139216,0.0014281249605119228,0.0003131445264443755,0.1416901797056198,0.09122958779335022,0.5794000029563904,0.0,20.318744659423828,-5.083384037017822,0
198939165,0.1435646116733551,0.08938456326723099,-23.508005142211914,0.00014063197886571288,0.00012417555262800306,0.0013715986860916018,0.0003399053239263594,0.14170856773853302,0.09122087806463242,0.5794000029563904,0.0,20.31818199157715,-5.062648296356201,0
198949163,0.14365319907665253,0.09314639866352081,-23.50935173034668,0.00013325187319424003,0.00011913425987586379,0.0013144626282155514,0.00030087612685747445,0.14172667264938354,0.09123324602842331,0.5794000029563904,0.0,20.31932830810547,-5.089404582977295,0
198959958,0.14186882972717285,0.08836489915847778,-23.515689849853516,0.00012898621207568794,0.00012671858712565154,0.0012893491657450795,0.0003455277474131435,0.14173445105552673,0.09121942520141602,0.5794000029563904,0.0,20.320648193359375,-5.063896179199219,0
198969522,0.14040988683700562,0.08265344798564911,-23.51374053955078,0.00012912297097500414,0.00015672354493290186,0.0012899989960715175,0.0004881028726231307,0.1417342573404312,0.09117621928453445,0.5794000029563904,0.0,20.320592880249023,-5.023076057434082,0
198979157,0.14018911123275757,0.08257532864809036,-23.510690689086914,0.00013022070925217122,0.00019193899061065167,0.001294372952543199,0.0006284183473326266,0.14173296093940735,0.09113447368144989,0.5794000029563904,0.0,20.320087432861328,-5.008820056915283,0
198989203,0.14045247435569763,0.08235987275838852,-23.510082244873047,0.00013012428826186806,0.00023284561757463962,0.0012940424494445324,0.0007686427561566234,0.1417330503463745,0.09109339863061905,0.5794000029563904,0.0,20.32013511657715,-5.00653076171875,0
198999221,0.14796707034111023,0.08443833887577057,-23.504812240600586,8.715705189388245e-05,0.0002663096529431641,0.0011649320367723703,0.000869197363499552,0.1417703926563263,0.09106431156396866,0.5794000029563904,0.0,20.34567642211914,-5.009692192077637,0
199010070,0.14879901707172394,0.08921074867248535,-23.50902557373047,3.439410647843033e-05,0.0002724695368669927,0.0010255143279209733,0.0008854738553054631,0.1418103128671646,0.09105964750051498,0.5794000029563904,0.0,20.386829376220703,-5.0109028816223145,0
199020243,0.14934007823467255,0.09198316186666489,-23.505830764770508,-2.6173056539846584e-05,0.0002594136749394238,0.000881515967193991,0.0008544335723854601,0.1418513059616089,0.09106848388910294,0.5794000029563904,0.0,20.450037002563477,-5.0071516036987305,0
199029248,0.14457882940769196,0.09184487909078598,-23.50872230529785,-5.36079314770177e-05,0.00024667082470841706,0.000821796478703618,0.0008266952936537564,0.14186827838420868,0.09107636660337448,0.5794000029563904,0.0,20.48549461364746,-5.002358436584473,0
199039141,0.13938571512699127,0.09200363606214523,-23.514307022094727,-3.956850559916347e-05,0.00023186909675132483,0.0008496786467730999,0.0007972992607392371,0.14186035096645355,0.09108472615480423,0.5794000029563904,0.0,20.466890335083008,-4.995398998260498,0
199049173,0.135164275765419,0.08424840122461319,-23.51180076599121,1.2751981557812542e-05,0.0002852284233085811,0.0009449710487388074,0.0008944837609305978,0.1418331265449524,0.0910569578409195,0.5794000029563904,0.0,20.406862258911133,-5.021069049835205,0
199059524,0.13746817409992218,0.08827333897352219,-23.503583908081055,4.555777559289709e-05,0.0003027117345482111,0.0010000073816627264,0.0009238144848495722,0.14181725680828094,0.09104850143194199,0.5794000029563904,0.0,20.37483024597168,-5.0290374755859375,0
199069557,0.14597822725772858,0.0884413793683052,-23.513593673706055,-5.883276571694296e-06,0.0003191540308762342,0.0009202493238262832,0.0009493078687228262,0.14184054732322693,0.09104105830192566,0.5794000029563904,0.0,20.42675018310547,-5.036712646484375,0
199079605,0.15107230842113495,0.0875372588634491,-23.515213012695312,-0.0001129007141571492,0.0003457321727182716,0.0007665186421945691,0.0009874873794615269,0.14188620448112488,0.09102971851825714,0.5794000029563904,0.0,20.56659507751465,-5.049162864685059,0
199089262,0.15738455951213837,0.0889781042933464,-23.51512908935547,-0.00029307487420737743,0.0003569878754206002,0.0005262231570668519,0.0010024989023804665,0.14195914566516876,0.09102515876293182,0.5794000029563904,0.0,20.928512573242188,-5.0544843673706055,0
199099226,0.15259872376918793,0.08819044381380081,-23.51106834411621,-0.00042132980888709426,0.00037774667725898325,0.00036721405922435224,0.001028235419653356,0.1420087069272995,0.09101713448762894,0.5794000029563904,0.0,21.274274826049805,-5.064455032348633,0
199109497,0.14918115735054016,0.0923645868897438,-23.503084182739258,-0.0005102111608721316,0.0003481213061604649,0.0002646898210514337,0.0009940627496689558,0.1420416682958603,0.0910281240940094,0.5794000029563904,0.0,21.512590408325195,-5.049240589141846,0
199119144,0.14605408906936646,0.09250225871801376,-23.500322341918945,-0.0005606508930213749,0.000316362245939672,0.00021053159434814006,0.0009599623735994101,0.14205972850322723,0.0910394936800003,0.5794000029563904,0.0,21.631933212280273,-5.030735015869141,0
199129562,0.13866955041885376,0.09002213925123215,-23.502429962158203,-0.0005145382019691169,0.00031685453723184764,0.00025661359541118145,0.0009604543447494507,0.14204370975494385,0.09103932231664658,0.5794000029563904,0.0,21.528526306152344,-5.031044960021973,0
199139164,0.13985490798950195,0.09368674457073212,-23.512372970581055,-0.0004837560118176043,0.00026776918093673885,0.0002852230682037771,0.0009148336248472333,0.14203327894210815,0.09105595201253891,0.5794000029563904,0.0,21.458415985107422,-4.997130393981934,0
199149203,0.150029718875885,0.09177196025848389,-23.509765625,-0.0005947402096353471,0.0002452557091601193,0.00018938568246085197,0.0008953927317634225,0.14207011461257935,0.09106342494487762,0.5794000029563904,0.0,21.682872772216797,-4.979738235473633,0
199159931,0.1521940529346466,0.09583645313978195,-23.505496978759766,-0.0007370903622359037,0.000164371682330966,7.538267527706921e-05,0.0008306156960316002,0.14211660623550415,0.09108984470367432,0.5794000029563904,0.0,21.889238357543945,-4.907753944396973,0
199169149,0.15151827037334442,0.09775499999523163,-23.499752044677734,-0.0008695066790096462,5.519877595361322e-05,-2.27591663133353e-05,0.0007497009937651455,0.1421593576669693,0.09112508594989777,0.5794000029563904,0.0,22.017322540283203,-4.785881996154785,0
199179545,0.14289164543151855,0.08974316716194153,-23.503795623779297,-0.0008713791030459106,6.720030069118366e-05,-2.4039703930611722e-05,0.0007579086814075708,0.14215995371341705,0.09112124145030975,0.5794000029563904,0.0,22.018733978271484,-4.800821304321289,0
199189180,0.14008577167987823,0.08185975253582001,-23.507427215576172,-0.0008296353626064956,0.00020102050621062517,2.2002056994097074e-06,0.0008420274243690073,0.14214663207530975,0.09107851982116699,0.5794000029563904,0.0,21.988500595092773,-4.946734428405762,0
199199214,0.13600853085517883,0.08311863243579865,-23.51274299621582,-0.000723630771972239,0.0003148086543660611,6.316781946225092e-05,0.0009074716945178807,0.14211279153823853,0.09104219079017639,0.5794000029563904,0.0,21.90407943725586,-5.046303749084473,0
199210075,0.13903607428073883,0.09242967516183853,-23.506046295166016,-0.0006661440129391849,0.0002792445011436939,9.294387564295903e-05,0.0008890507742762566,0.14209435880184174,0.09105359017848969,0.5794000029563904,0.0,21.852521896362305,-5.016721725463867,0
199219136,0.14396072924137115,0.09680397063493729,-23.50200843811035,-0.0006889616488479078,0.00017329926777165383,8.216700371121988e-05,0.0008390123839490116,0.1421017199754715,0.09108777344226837,0.5794000029563904,0.0,21.872451782226562,-4.916073322296143,0
199229551,0.14634591341018677,0.09766799956560135,-23.5072078704834,-0.0007505226531066,5.447566582006402e-05,5.61585184186697e-05,0.0007888114196248353,0.1421217918395996,0.09112650901079178,0.5794000029563904,0.0,21.916465759277344,-4.781337261199951,0
199239250,0.1474778950214386,0.09945148974657059,-23.511940002441406,-0.0008299410692416131,-9.232843149220571e-05,2.650258466019295e-05,0.0007339927251450717,0.14214803278446198,0.09117500483989716,0.5794000029563904,0.0,21.959230422973633,-4.587254524230957,0
199249254,0.14543959498405457,0.10007452964782715,-23.512557983398438,-0.0008737581083551049,-0.0002472885244060308,1.227019583893707e-05,0.0006836595130153,0.1421627402305603,0.09122702479362488,0.5794000029563904,0.0,21.977109909057617,-4.3653154373168945,0
199259530,0.1423138529062271,0.09937875717878342,-23.515928268432617,-0.0008636560523882508,-0.00038771863910369575,1.5064972103573382e-05,0.000644808984361589,0.14215928316116333,0.09127506613731384,0.5794000029563904,0.0,21.973711013793945,-4.171017646789551,0
199269230,0.13960880041122437,0.09354986995458603,-23.509939193725586,-0.0008073070202954113,-0.0004259262350387871,2.79500618489692e-05,0.0006360722472891212,0.14213958382606506,0.09128841757774353,0.5794000029563904,0.0,21.956544876098633,-4.122343063354492,0
199279555,0.13734157383441925,0.08606033772230148,-23.506057739257812,-0.0007128866272978485,-0.0003346088342368603,4.500132490647957e-05,0.0006525631761178374,0.14210578799247742,0.09125572443008423,0.5794000029563904,0.0,21.928110122680664,-4.238582611083984,0
199289296,0.13168910145759583,0.08961339294910431,-23.510313034057617,-0.0005229959497228265,-0.0003057305875699967,7.014366565272212e-05,0.0006563867791555822,0.14203600585460663,0.09124511480331421,0.5794000029563904,0.0,21.85782814025879,-4.2764892578125,0
199299145,0.1389465481042862,0.09602627903223038,-23.511768341064453,-0.0004619521205313504,-0.00038737335125915706,7.525725231971592e-05,0.0006495476700365543,0.14201292395591736,0.09127599000930786,0.5794000029563904,0.0,21.82965850830078,-4.174637794494629,0
199309666,0.14710208773612976,0.09336496144533157,-23.5137939453125,-0.0005424454575404525,-0.00042085847235284746,7.247390021802858e-05,0.0006483898032456636,0.1420443058013916,0.09128904342651367,0.5794000029563904,0.0,21.85833168029785,-4.136656761169434,0
199319232,0.15305274724960327,0.0870056301355362,-23.511693954467773,-0.0007228216854855418,-0.00034393122768960893,7.522940722992644e-05,0.0006472146487794816,0.142116978764534,0.09125804901123047,0.5794000029563904,0.0,21.887447357177734,-4.223934173583984,0
199329614,0.1524738222360611,0.08821263909339905,-23.509809494018555,-0.0008882132242433727,-0.0002892730990424752,8.617277489975095e-05,0.0006435980903916061,0.1421859711408615,0.09123525023460388,0.5794000029563904,0.0,21.89443588256836,-4.289979934692383,0
199339135,0.14419470727443695,0.09777090698480606,-23.501880645751953,-0.0009080178570002317,-0.00039806475979276,8.851242455421016e-05,0.0006564503419212997,0.14219453930854797,0.09128232300281525,0.5794000029563904,0.0,21.893980026245117,-4.1672821044921875,0
199349260,0.13273830711841583,0.09287180751562119,-23.50421714782715,-0.0007340741576626897,-0.0004205059085506946,5.868017615284771e-05,0.0006602990906685591,0.14211632311344147,0.09129241853952408,0.5794000029563904,0.0,21.91138458251953,-4.145317554473877,0
199359993,0.1355721652507782,0.08760742843151093,-23.50898551940918,-0.000613042910117656,-0.00035397690953686833,3.1252100598067045e-05,0.0006452223169617355,0.14205963909626007,0.09126126021146774,0.5794000029563904,0.0,21.940217971801758,-4.210609436035156,0
199369182,0.14518460631370544,0.08201684802770615,-23.51184844970703,-0.000654580828268081,-0.000197278568521142,4.303131208871491e-05,0.000600786239374429,0.1420799344778061,0.09118470549583435,0.5794000029563904,0.0,21.925508499145508,-4.395112037658691,0
199379528,0.143919438123703,0.08598642796278,-23.5123291015625,-0.000673940812703222,-0.0001105732299038209,4.9667625717120245e-05,0.0005710649420507252,0.1420898139476776,0.09114043414592743,0.5794000029563904,0.0,21.91758918762207,-4.521126747131348,0
199389246,0.1460060328245163,0.09166835248470306,-23.51192283630371,-0.0007258110563270748,-0.00011777370673371479,7.065966201480478e-05,0.0005739789921790361,0.14211754500865936,0.09114428609609604,0.5794000029563904,0.0,21.894105911254883,-4.510006904602051,0
199399233,0.14878688752651215,0.08895657956600189,-23.504621505737305,-0.0008190398802980781,-8.181600423995405e-05,0.00011443329276517034,0.000557095801923424,0.14216984808444977,0.09112410992383957,0.5794000029563904,0.0,21.85233497619629,-4.5665669441223145,0
199409945,0.15214583277702332,0.08626231551170349,-23.497190475463867,-0.0009595892624929547,-5.796996447315905e-06,0.00019004184287041426,0.0005162013694643974,0.14225277304649353,0.09107926487922668,0.5794000029563904,0.0,21.795637130737305,-4.7011566162109375,0
199419156,0.151423841714859,0.08650889247655869,-23.50322723388672,-0.0010825494537129998,6.319444946711883e-05,0.00026509712915867567,0.0004740887670777738,0.14232921600341797,0.09103637933731079,0.5794000029563904,0.0,21.750995635986328,-4.8449015617370605,0
199429550,0.14894665777683258,0.0905180498957634,-23.508840560913086,-0.0011630578665062785,7.044660014798865e-05,0.00032043838291428983,0.00046910365927033126,0.14238205552101135,0.09103161841630936,0.5794000029563904,0.0,21.722307205200195,-4.86144495010376,0
199439228,0.14365792274475098,0.09075511991977692,-23.512800216674805,-0.0011642210884019732,7.419659232255071e-05,0.0003213339950889349,0.0004662163555622101,0.14238286018371582,0.09102901071310043,0.5794000029563904,0.0,21.721847534179688,-4.870208740234375,0
199449159,0.1442398726940155,0.0880625918507576,-23.517459869384766,-0.0011732224375009537,0.00011489211465232074,0.0003290633321739733,0.00043127170647494495,0.14238949120044708,0.09099900722503662,0.5794000029563904,0.0,21.717697143554688,-4.972742080688477,0
199459552,0.150510773062706,0.08992787450551987,-23.50884437561035,-0.0012645612005144358,0.00012868334306403995,0.00041627700557000935,0.0004181033291388303,0.1424611508846283,0.09098818898200989,0.5794000029563904,0.0,21.67313575744629,-5.0109639167785645,0
199469249,0.15426310896873474,0.08875609934329987,-23.500532150268555,-0.0013976709451526403,0.0001566832943353802,0.0005573636153712869,0.00038842542562633753,0.14257261157035828,0.09096474200487137,0.5794000029563904,0.0,21.6116943359375,-5.095803260803223,0
199479477,0.1529393196105957,0.08915876597166061,-23.503036499023438,-0.0015055380063131452,0.0001780646707629785,0.0006841358263045549,0.0003632966836448759,0.14266933500766754,0.09094557166099548,0.5794000029563904,0.0,21.56463050842285,-5.1681108474731445,0
199489184,0.1478458195924759,0.09148067981004715,-23.51290512084961,-0.0015464829048141837,0.00017116725211963058,0.000737491063773632,0.0003722847031895071,0.14270879328250885,0.09095221757888794,0.5794000029563904,0.0,21.546165466308594,-5.143339157104492,0
199499208,0.1425551325082779,0.09359482675790787,-23.518156051635742,-0.001526084030047059,0.00014175655087456107,0.0007079874048940837,0.000414822599850595,0.1426875740289688,0.0909828171133995,0.5794000029563904,0.0,21.55677604675293,-5.041672706604004,0
199509600,0.13800373673439026,0.09570129960775375,-23.51699447631836,-0.0014602303272113204,9.315158968092874e-05,0.0006020980654284358,0.0004929768620058894,0.1426132768392563,0.09103765338659286,0.5794000029563904,0.0,21.60005760192871,-4.899141311645508,0
199519141,0.1366368532180786,0.09697748720645905,-23.503002166748047,-0.0013870032271370292,3.668447243398987e-05,0.0004708008491434157,0.0005942232673987746,0.14252318441867828,0.09110713005065918,0.5794000029563904,0.0,21.66391372680664,-4.774043083190918,0
199529512,0.1397012174129486,0.09124557673931122,-23.498170852661133,-0.0013484775554388762,3.747676601051353e-05,0.0003934635315090418,0.000592632801271975,0.14247116446495056,0.09110605716705322,0.5794000029563904,0.0,21.707246780395508,-4.775539875030518,0
199539208,0.14310677349567413,0.08845117688179016,-23.503324508666992,-0.001342330127954483,6.156817107694224e-05,0.00037957518361508846,0.000538205320481211,0.14246198534965515,0.09107008576393127,0.5794000029563904,0.0,21.7155704498291,-4.826286315917969,0
199549283,0.14277394115924835,0.08747740834951401,-23.512882232666016,-0.0013344434555619955,9.04521148186177e-05,0.00035937537904828787,0.000464226002804935,0.14244884252548218,0.09102194756269455,0.5794000029563904,0.0,21.72808265686035,-4.904819965362549,0
199559991,0.1378444880247116,0.0931738093495369,-23.512714385986328,-0.0012939161388203502,7.689964695600793e-05,0.00024061898875515908,0.0005039385869167745,0.14237263798713684,0.09104742854833603,0.5794000029563904,0.0,21.807287216186523,-4.8638153076171875,0
199569221,0.1400015503168106,0.09101886302232742,-23.50798225402832,-0.0012721805833280087,7.840925536584109e-05,0.00016685044101905078,0.0004988150903955102,0.14232587814331055,0.09104418009519577,0.5794000029563904,0.0,21.860740661621094,-4.8683013916015625,0
199579487,0.13932886719703674,0.08596420288085938,-23.5032901763916,-0.0012503459583967924,0.00010655520600266755,7.957291381899267e-05,0.00038630966446362436,0.14227114617824554,0.0909736230969429,0.5794000029563904,0.0,21.927595138549805,-4.981522560119629,0
199589261,0.1398758888244629,0.0865635797381401,-23.50794219970703,-0.001234915223903954,0.00012713052274193615,5.282701295072911e-06,0.0002872509940061718,0.142224982380867,0.09091206640005112,0.5794000029563904,0.0,21.98687171936035,-5.129049777984619,0
199599223,0.13503152132034302,0.09236805140972137,-23.514686584472656,-0.001204807311296463,0.00012207486724946648,-0.00017508976452518255,0.000317538739182055,0.1421137899160385,0.09093073755502701,0.5794000029563904,0.0,22.135465621948242,-5.079408168792725,0
199610057,0.1347116082906723,0.08786559104919434,-23.511127471923828,-0.0011812486918643117,0.00013127225975040346,-0.0003598227340262383,0.00024541831226088107,0.14200066030025482,0.09088657051324844,0.5794000029563904,0.0,22.286832809448242,-5.203556060791016,0
199619200,0.14535489678382874,0.08159241080284119,-23.509918212890625,-0.001186939887702465,0.00015055283438414335,-0.00029616564279422164,2.976353971462231e-05,0.1420394331216812,0.09075523167848587,0.5794000029563904,0.0,22.23567771911621,-6.088004112243652,0
199629572,0.14923186600208282,0.08286572247743607,-23.509254455566406,-0.0011950194602832198,0.0001601190015207976,-0.00014208279026206583,-0.00015266962873283774,0.14213286340236664,0.09064460545778275,0.5794000029563904,0.0,22.1094913482666,-7.044768810272217,0
199639138,0.14463050663471222,0.0934532880783081,-23.506080627441406,-0.0011957230744883418,0.0001589466555742547,-9.90317712421529e-05,-8.093434007605538e-05,0.1421588808298111,0.09068796038627625,0.5794000029563904,0.0,22.07378387451172,-6.754156112670898,0
199649190,0.14071279764175415,0.09718635678291321,-23.506717681884766,-0.0011966843158006668,0.00016196264186874032,-0.00014989858027547598,7.865844236221164e-05,0.14212821424007416,0.09078419953584671,0.5794000029563904,0.0,22.11576271057129,-5.831073760986328,0
199659513,0.1420210897922516,0.09386114776134491,-23.506481170654297,-0.0011976008536294103,0.00016599251830484718,-0.00016701838467270136,0.00015393529611174017,0.14211790263652802,0.09082953631877899,0.5794000029563904,0.0,22.129716873168945,-5.5354533195495605,0
199669156,0.14479701220989227,0.0939994603395462,-23.506685256958008,-0.0011930516920983791,0.0001726944901747629,-0.00011506847658893093,0.0002304687222931534,0.1421491801738739,0.09087561070919037,0.5794000029563904,0.0,22.08730125427246,-5.355450630187988,0
199679528,0.142961323261261,0.09150095283985138,-23.513324737548828,-0.0011922729900106788,0.00017425621626898646,-0.00010864242358366027,0.00024335684429388493,0.1421530544757843,0.09088337421417236,0.5794000029563904,0.0,22.082021713256836,-5.333804130554199,0
199689278,0.1420980989933014,0.09342551231384277,-23.51295280456543,-0.001194447628222406,0.0001834783615777269,-0.0001227164757438004,0.0003030426742043346,0.1421445608139038,0.0909193828701973,0.5794000029563904,0.0,22.093530654907227,-5.256805896759033,0
199699159,0.14804916083812714,0.08803306519985199,-23.511798858642578,-0.0011692383559420705,0.00016927691467572004,1.1684962373692542e-05,0.0002273287536809221,0.14222583174705505,0.0908735990524292,0.5794000029563904,0.0,21.981157302856445,-5.352444648742676,0
199709553,0.14619199931621552,0.08037399500608444,-23.505231857299805,-0.0011505172587931156,0.0001113168109441176,9.658953786129132e-05,-3.553408896550536e-05,0.14227734506130219,0.09071412682533264,0.5794000029563904,0.0,21.907394409179688,-6.5921735763549805,0
199719220,0.14640697836875916,0.0850628986954689,-23.502477645874023,-0.0011281818151474,7.640038529643789e-05,0.0001847170206019655,-0.00017330149421468377,0.14233103394508362,0.0906301960349083,0.5794000029563904,0.0,21.828861236572266,-7.43875789642334,0
199729586,0.1370537132024765,0.09571300446987152,-23.509218215942383,-0.0011697184527292848,0.00011365534010110423,3.971257683588192e-05,-4.3244450353085995e-05,0.14224225282669067,0.09070982038974762,0.5794000029563904,0.0,21.95721435546875,-6.646755218505859,0
199739142,0.13732664287090302,0.09405425935983658,-23.517406463623047,-0.0012118046870455146,0.0001405486837029457,-9.199156920658424e-05,4.091529990546405e-05,0.14216114580631256,0.09076164662837982,0.5794000029563904,0.0,22.066919326782227,-5.999899864196777,0
199749267,0.1387951374053955,0.09185222536325455,-23.523130416870117,-0.001243365230038762,0.00015000269922893494,-0.0001814110582927242,6.770111212972552e-05,0.14210569858551025,0.09077825397253036,0.5794000029563904,0.0,22.136032104492188,-5.859220504760742,0
199760061,0.14075374603271484,0.09217165410518646,-23.513757705688477,-0.00125766615383327,0.00016286372556351125,-0.0002184001641580835,0.0001009659463306889,0.1420825868844986,0.09079903364181519,0.5794000029563904,0.0,22.1630916595459,-5.728228569030762,0
199769176,0.13983656466007233,0.09674665331840515,-23.50716781616211,-0.0012813674984499812,0.00022252059716265649,-0.00027473364025354385,0.00024275877512991428,0.14204709231853485,0.0908883735537529,0.5794000029563904,0.0,22.202360153198242,-5.454314231872559,0
199779558,0.1460484266281128,0.09949196875095367,-23.505578994750977,-0.0012378923129290342,0.0003138554748147726,-0.00017927357112057507,0.0004433063149917871,0.14210781455039978,0.09101593494415283,0.5794000029563904,0.0,22.134973526000977,-5.328452110290527,0
199789303,0.14693401753902435,0.09271370619535446,-23.51230239868164,-0.0011824925895780325,0.0003290634776931256,-6.637347541982308e-05,0.0004742989258375019,0.14218036830425262,0.09103585034608841,0.5794000029563904,0.0,22.047222137451172,-5.318930625915527,0
199799167,0.14963950216770172,0.08846407383680344,-23.51095962524414,-0.0010922333458438516,0.00029233135865069926,0.0001049712736858055,0.00040456809801980853,0.14229173958301544,0.09099052846431732,0.5794000029563904,0.0,21.89533805847168,-5.3381028175354,0
199809998,0.14640206098556519,0.09462333470582962,-23.514080047607422,-0.0010418600868433714,0.00033446226734668016,0.0001943424722412601,0.00047931584413163364,0.14235055446624756,0.09103971719741821,0.5794000029563904,0.0,21.80673599243164,-5.321626663208008,0
199819221,0.13833832740783691,0.09907183796167374,-23.514617919921875,-0.0010998585494235158,0.00043729774188250303,9.7918942628894e-05,0.0006502819596789777,0.1422862559556961,0.09115372598171234,0.5794000029563904,0.0,21.902355194091797,-5.304397106170654,0
199829561,0.14125531911849976,0.09802265465259552,-23.505613327026367,-0.0011163166491314769,0.000525812734849751,7.222472777357325e-05,0.0007884709048084915,0.14226886630058289,0.09124721586704254,0.5794000029563904,0.0,21.92654037475586,-5.300532817840576,0
199839144,0.13773591816425323,0.09446506202220917,-23.5017147064209,-0.0011843886459246278,0.0005617323331534863,-2.775697794277221e-05,0.0008412283495999873,0.14220017194747925,0.09128346294164658,0.5794000029563904,0.0,22.01458168029785,-5.301138877868652,0
199849241,0.14428558945655823,0.09106102585792542,-23.5072078704834,-0.0011510077165439725,0.000544967595487833,1.844414509832859e-05,0.0008180250297300518,0.14223244786262512,0.09126725047826767,0.5794000029563904,0.0,21.975126266479492,-5.300063610076904,0
199859544,0.14596831798553467,0.09160424023866653,-23.507312774658203,-0.0010901407804340124,0.0005366161349229515,9.791889897314832e-05,0.0008071204647421837,0.1422889679670334,0.09125949442386627,0.5794000029563904,0.0,21.901567459106445,-5.299130439758301,0
199869256,0.15010946989059448,0.09177381545305252,-23.507524490356445,-0.0009605121449567378,0.0005308276740834117,0.00025776648544706404,0.000799982575699687,0.14240483939647675,0.091254323720932,0.5794000029563904,0.0,21.72896385192871,-5.2982258796691895,0
199879506,0.14218273758888245,0.0880950540304184,-23.50693130493164,-0.0009661022922955453,0.00046221716911531985,0.00025116332108154893,0.0007189385942183435,0.14239993691444397,0.09119409322738647,0.5794000029563904,0.0,21.736804962158203,-5.283763885498047,0
199889251,0.13676181435585022,0.08903207629919052,-23.506454467773438,-0.0010658518876880407,0.00041049925494007766,0.0001380937173962593,0.0006603145739063621,0.14231371879577637,0.09114938974380493,0.5794000029563904,0.0,21.862306594848633,-5.268587589263916,0
199899152,0.13612163066864014,0.08810727298259735,-23.5089168548584,-0.001175051205791533,0.00034270889591425657,1.9241104382672347e-05,0.0005865315324626863,0.14222070574760437,0.09109164774417877,0.5794000029563904,0.0,21.974777221679688,-5.241178512573242,0
199909499,0.14215026795864105,0.09501853585243225,-23.509784698486328,-0.0011710504768416286,0.0004027661634609103,2.342293009860441e-05,0.0006493065156973898,0.14222405850887299,0.09114208817481995,0.5794000029563904,0.0,21.97115135192871,-5.267599105834961,0
199919157,0.14858603477478027,0.09554403275251389,-23.51149559020996,-0.0010457205353304744,0.0004714160459116101,0.00014925279538147151,0.0007182302069850266,0.14232788980007172,0.09119896590709686,0.5794000029563904,0.0,21.849380493164062,-5.293216705322266,0
199929518,0.1540670096874237,0.09504786878824234,-23.505813598632812,-0.0008175746770575643,0.000529009266756475,0.00036922129220329225,0.0007737590931355953,0.14251437783241272,0.09124604612588882,0.5794000029563904,0.0,21.56696128845215,-5.312078475952148,0
199939141,0.15372301638126373,0.09380625188350677,-23.503890991210938,-0.0006006724433973432,0.0005610060761682689,0.0005699939210899174,0.0008033764897845685,0.14268933236598969,0.09127185493707657,0.5794000029563904,0.0,21.231950759887695,-5.3219757080078125,0
199949298,0.14517515897750854,0.0982792004942894,-23.499956130981445,-0.0005572169320657849,0.0006803172291256487,0.0006085961940698326,0.0009093625121749938,0.1427239179611206,0.09136682748794556,0.5794000029563904,0.0,21.161706924438477,-5.354684829711914,0
199960030,0.1361561417579651,0.09913035482168198,-23.501014709472656,-0.0006953107658773661,0.0008138970588333905,0.0004916187608614564,0.0010225161677226424,0.14261575043201447,0.09147144854068756,0.5794000029563904,0.0,21.375707626342773,-5.384666442871094,0
199969290,0.1326836347579956,0.08909711986780167,-23.50607681274414,-0.0009006723412312567,0.0007391148246824741,0.0003245169937144965,0.0009616662282496691,0.14245811104774475,0.09141404926776886,0.5794000029563904,0.0,21.645322799682617,-5.367669582366943,0
199979531,0.130544513463974,0.08702399581670761,-23.5090389251709,-0.0011467201402410865,0.0006220087525434792,0.0001333645632257685,0.0008706875378265977,0.14227429032325745,0.09132655709981918,0.5794000029563904,0.0,21.875368118286133,-5.332701683044434,0
199989289,0.13398925960063934,0.09172207117080688,-23.512989044189453,-0.0013134438777342439,0.0006076270947232842,9.455004146730062e-06,0.0008599990978837013,0.14215292036533356,0.0913160890340805,0.5794000029563904,0.0,21.983949661254883,-5.327488899230957,0
199999221,0.14026252925395966,0.09225486218929291,-23.506563186645508,-0.0013388426741585135,0.0006051438977010548,-8.633227480459027e-06,0.0008582306327298284,0.142134889960289,0.09131432324647903,0.5794000029563904,0.0,21.997596740722656,-5.326529502868652,0
200010050,0.14333602786064148,0.09498739242553711,-23.504039764404297,-0.0012946644565090537,0.0006632292061112821,2.1566173018072732e-05,0.0008979366393759847,0.14216552674770355,0.091354601085186,0.5794000029563904,0.0,21.9744930267334,-5.348559379577637,0
200019133,0.1386948525905609,0.09871779382228851,-23.503681182861328,-0.0013550230069085956,0.0008034530910663307,-1.8092783648171462e-05,0.000990071683190763,0.14212462306022644,0.09144964069128036,0.5794000029563904,0.0,22.004501342773438,-5.394104957580566,0
200029503,0.13842244446277618,0.09747294336557388,-23.50307846069336,-0.001418905216269195,0.0009112397092394531,-5.848285582032986e-05,0.0010582207469269633,0.14208227396011353,0.09152109920978546,0.5794000029563904,0.0,22.0323429107666,-5.423291206359863,0
200039140,0.14002582430839539,0.09659663587808609,-23.50567626953125,-0.0014431620948016644,0.000995520269498229,-7.325530896196142e-05,0.0011095476802438498,0.14206652343273163,0.09157580137252808,0.5794000029563904,0.0,22.041866302490234,-5.443667888641357,0
200049223,0.14032158255577087,0.09104993939399719,-23.508987426757812,-0.0014589341590180993,0.0009490402298979461,-8.251431427197531e-05,0.0010822614422068,0.14205649495124817,0.09154624491930008,0.5794000029563904,0.0,22.04764747619629,-5.432292938232422,0
200059529,0.14013299345970154,0.08728137612342834,-23.502717971801758,-0.0014776993775740266,0.0008169594802893698,-9.314022463513538e-05,0.0010074698366224766,0.142044797539711,0.09146390110254288,0.5794000029563904,0.0,22.054096221923828,-5.393738746643066,0
200069290,0.13824185729026794,0.08287113159894943,-23.499635696411133,-0.0015389443142339587,0.0005874391063116491,-0.00012660189531743526,0.0008820694056339562,0.14200733602046967,0.09132350981235504,0.5794000029563904,0.0,22.07322883605957,-5.2999114990234375,0
200079475,0.1413169503211975,0.08903499692678452,-23.497760772705078,-0.0015254607424139977,0.000510561338160187,-0.00011949435429414734,0.0008415452321060002,0.14201542735099792,0.0912773460149765,0.5794000029563904,0.0,22.06932258605957,-5.257713317871094,0
200089262,0.1492643505334854,0.09275869280099869,-23.49640464782715,-0.001326853409409523,0.0005237128352746367,-1.850425724114757e-05,0.0008482326520606875,0.14213259518146515,0.0912851020693779,0.5794000029563904,0.0,22.005094528198242,-5.265512943267822,0
200099119,0.14723005890846252,0.08812286704778671,-23.50824546813965,-0.0011830442817881703,0.0004289696807973087,5.1996801630593836e-05,0.0008017857326194644,0.14221599698066711,0.09123015403747559,0.5794000029563904,0.0,21.94722557067871,-5.203653335571289,0
200109521,0.14686495065689087,0.0857069343328476,-23.513513565063477,-0.0010531714651733637,0.0002826715062838048,0.0001133186015067622,0.0007327083731070161,0.14229008555412292,0.09114670008420944,0.5794000029563904,0.0,21.88396453857422,-5.080582141876221,0
200119206,0.14526014029979706,0.0917193591594696,-23.50349998474121,-0.0009653273154981434,0.00028157749329693615,0.00015321982209570706,0.0007322114543057978,0.14233940839767456,0.0911460891366005,0.5794000029563904,0.0,21.833740234375,-5.0795087814331055,0
200129517,0.13859039545059204,0.09595442563295364,-23.501543045043945,-0.0010335135739296675,0.00037788748159073293,0.00012347545998636633,0.0007742239977233112,0.14230169355869293,0.0911993533372879,0.5794000029563904,0.0,21.872241973876953,-5.16645622253418,0
200139234,0.1405816674232483,0.09155978262424469,-23.500919342041016,-0.0010529193095862865,0.00037046358920633793,0.00011536457895999774,0.0007711210637353361,0.1422911137342453,0.09119530767202377,0.5794000029563904,0.0,21.88201904296875,-5.160248756408691,0
200149281,0.1433326005935669,0.08307259529829025,-23.498567581176758,-0.0010090161813423038,0.00017262257460970432,0.00013289775233715773,0.0006921111489646137,0.14231471717357635,0.09108897298574448,0.5794000029563904,0.0,21.860193252563477,-4.956813335418701,0
200159997,0.1453440636396408,0.08277136832475662,-23.505718231201172,-0.0009218164486810565,-2.2443398847826757e-05,0.0001660581328906119,0.0006179313641041517,0.14236097037792206,0.090985506772995,0.5794000029563904,0.0,21.81291961669922,-4.676081657409668,0
200169238,0.14376482367515564,0.08981940150260925,-23.506277084350586,-0.0008730884874239564,-5.251718175713904e-05,0.00018363127310294658,0.0006070856470614672,0.14238649606704712,0.0909697562456131,0.5794000029563904,0.0,21.78384780883789,-4.626093864440918,0
200179537,0.13940303027629852,0.09260238707065582,-23.50638198852539,-0.0009213733719661832,-2.0037119611515664e-05,0.00016720253915991634,0.0006181368371471763,0.14236149191856384,0.09098657220602036,0.5794000029563904,0.0,21.81163215637207,-4.6799821853637695,0
200189182,0.13881734013557434,0.09283693134784698,-23.50554656982422,-0.0009796750964596868,1.6446003428427503e-05,0.00014860890223644674,0.0006297720829024911,0.14233162999153137,0.09100525826215744,0.5794000029563904,0.0,21.840604782104492,-4.738494396209717,0
200199148,0.13965252041816711,0.08855023235082626,-23.500389099121094,-0.0010171991307288408,-3.934760388801806e-05,0.00013747820048592985,0.0006132220732979476,0.14231260120868683,0.09097697585821152,0.5794000029563904,0.0,21.856809616088867,-4.648308753967285,0
200209992,0.13504810631275177,0.09275572746992111,-23.504961013793945,-0.0011497214436531067,-3.866420684062177e-06,0.00010146947897737846,0.0006228629499673843,0.14224569499492645,0.09099488705396652,0.5794000029563904,0.0,21.903121948242188,-4.706178665161133,0
200219153,0.13757620751857758,0.09159613400697708,-23.514049530029297,-0.0012240901123732328,6.481312993855681e-06,8.328104013344273e-05,0.0006253937026485801,0.14220808446407318,0.09100011736154556,0.5794000029563904,0.0,21.923219680786133,-4.72274923324585,0
200229584,0.14356344938278198,0.0875556692481041,-23.513864517211914,-0.0011710237013176084,-6.701243546558544e-05,9.478080028202385e-05,0.0006094672135077417,0.14223499596118927,0.09096283465623856,0.5794000029563904,0.0,21.91038703918457,-4.6028733253479,0
200239179,0.14715634286403656,0.0885830894112587,-23.512758255004883,-0.001045900397002697,-0.00011596515832934529,0.00011829336290247738,0.00060026824939996,0.14229872822761536,0.09093789756298065,0.5794000029563904,0.0,21.87852668762207,-4.521548271179199,0
200249210,0.151060089468956,0.09698368608951569,-23.50466537475586,-0.0008460696553811431,8.87470378074795e-06,0.0001498553465353325,0.0006199859199114144,0.1424010545015335,0.09100182354450226,0.5794000029563904,0.0,21.81584930419922,-4.7266998291015625,0
200259515,0.15054823458194733,0.09741070121526718,-23.496639251708984,-0.0006646811962127686,0.00013763009337708354,0.00017286723596043885,0.0006363205029629171,0.14249452948570251,0.09106817096471786,0.5794000029563904,0.0,21.736711502075195,-4.925395965576172,0
200269232,0.1437150239944458,0.09243173897266388,-23.503185272216797,-0.0006270670564845204,0.00016213285562116653,0.00017641924205236137,0.0006386343738995492,0.14251405000686646,0.09108088910579681,0.5794000029563904,0.0,21.716899871826172,-4.961008548736572,0
200279567,0.14029265940189362,0.08478154987096786,-23.50914764404297,-0.0006583312642760575,3.540815305314027e-05,0.00017452922475058585,0.0006309734890237451,0.1424976885318756,0.0910145491361618,0.5794000029563904,0.0,21.732004165649414,-4.768444538116455,0
200289291,0.14558692276477814,0.08313606679439545,-23.508289337158203,-0.0005853260518051684,-0.00011734735744539648,0.00017634787946008146,0.0006271681631915271,0.14253626763820648,0.09093384444713593,0.5794000029563904,0.0,21.698518753051758,-4.527418613433838,0
200299147,0.14292989671230316,0.08603903651237488,-23.5095272064209,-0.0005662833573296666,-0.00020742646302096546,0.00017611631483305246,0.0006282635731622577,0.14254643023014069,0.09088576585054398,0.5794000029563904,0.0,21.68962860107422,-4.393496036529541,0
200309640,0.14489074051380157,0.08478940278291702,-23.50440216064453,-0.0005110871861688793,-0.000316623569233343,0.0001733618410071358,0.0006337128579616547,0.1425762176513672,0.0908268392086029,0.5794000029563904,0.0,21.664127349853516,-4.249032974243164,0
200319164,0.1441318541765213,0.08887302875518799,-23.504425048828125,-0.00047238526167348027,-0.0003448717761784792,0.00016993672761600465,0.0006362128187902272,0.14259734749794006,0.09081141650676727,0.5794000029563904,0.0,21.645824432373047,-4.2156524658203125,0
200329534,0.14468884468078613,0.08524254709482193,-23.5076904296875,-0.0004252917133271694,-0.00043747067684307694,0.00016390171367675066,0.0006480793235823512,0.1426233947277069,0.09076020866632462,0.5794000029563904,0.0,21.623306274414062,-4.118618965148926,0
200339144,0.14019474387168884,0.0875278189778328,-23.50641632080078,-0.00046052722609601915,-0.0004846209194511175,0.00016985168622341007,0.0006560412584803998,0.14260365068912506,0.09073378145694733,0.5794000029563904,0.0,21.63780975341797,-4.076153755187988,0
200349253,0.1463300734758377,0.08718085289001465,-23.504344940185547,-0.00038686738116666675,-0.0005352544831112027,0.0001543135440442711,0.0006667221314273775,0.14264553785324097,0.09070499241352081,0.5794000029563904,0.0,21.611610412597656,-4.035931587219238,0
200359984,0.14497733116149902,0.08710098266601562,-23.504201889038086,-0.00033991452073678374,-0.0005844797124154866,0.00014236365677788854,0.0006792503409087658,0.14267264306545258,0.09067656844854355,0.5794000029563904,0.0,21.594524383544922,-4.0018415451049805,0
200369249,0.14422407746315002,0.09177213907241821,-23.504547119140625,-0.00030787501600570977,-0.0005530157941393554,0.00013276204117573798,0.0006698212237097323,0.1426914483308792,0.09069503098726273,0.5794000029563904,0.0,21.584022521972656,-4.022219657897949,0
200379554,0.14514470100402832,0.09062133729457855,-23.498449325561523,-0.0002624943444970995,-0.0005416517960838974,0.00011702522897394374,0.0006658805068582296,0.14271853864192963,0.09070181101560593,0.5794000029563904,0.0,21.57177734375,-4.029506206512451,0
200389268,0.1456405520439148,0.08895839005708694,-23.498716354370117,-0.00021165139332879335,-0.0005570091889239848,9.68839303823188e-05,0.0006719643133692443,0.14274944365024567,0.09069247543811798,0.5794000029563904,0.0,21.561866760253906,-4.020254611968994,0
200399156,0.14282825589179993,0.09037911891937256,-23.505718231201172,-0.00020685895287897438,-0.0005494647193700075,9.473721729591489e-05,0.0006685848929919302,0.14275240898132324,0.09069714695215225,0.5794000029563904,0.0,21.56167984008789,-4.024474143981934,0
200410144,0.14249277114868164,0.0897553414106369,-23.51723861694336,-0.00020735029829666018,-0.0005514543154276907,9.498713916400447e-05,0.0006695968913845718,0.14275209605693817,0.09069588780403137,0.5794000029563904,0.0,21.561580657958984,-4.023443222045898,0
200419188,0.13942964375019073,0.08873098343610764,-23.514598846435547,-0.0002520843409001827,-0.0005679947789758444,0.00012006043107248843,0.0006788677419535816,0.1427232027053833,0.09068520367145538,0.5794000029563904,0.0,21.54666519165039,-4.015676975250244,0
200429557,0.14439861476421356,0.09098662436008453,-23.499845504760742,-0.00022485329827759415,-0.0005519475089386106,0.00010311626829206944,0.0006688825087621808,0.14274120330810547,0.0906958132982254,0.5794000029563904,0.0,21.561172485351562,-4.022480487823486,0
200439159,0.12604942917823792,0.09427402913570404,-23.49418067932129,-0.00044588843593373895,-0.0004925972316414118,0.0002552968799136579,0.0006280204397626221,0.1425914466381073,0.090736024081707,0.5794000029563904,0.0,21.471153259277344,-4.047252178192139,0
200449230,0.15230266749858856,0.015591527335345745,-23.50973892211914,-0.0003139652544632554,-0.0014525909209623933,0.00015507036005146801,0.0013573603937402368,0.1426832228899002,0.09006813168525696,0.5794000029563904,0.0,21.532386779785156,-3.893111228942871,0
200459544,0.17047226428985596,0.413676381111145,-23.45760726928711,3.378189285285771e-05,0.0025725215673446655,-0.00013602817489299923,-0.0020120544359087944,0.14293217658996582,0.09294968098402023,0.5794000029563904,0.0,23.80536651611328,-6.946934223175049,0
200469257,0.06812526285648346,-0.5902901887893677,-23.567140579223633,-0.0008503827848471701,-0.005528832320123911,0.0006787525489926338,0.005453553516417742,0.14227932691574097,0.0869678184390068,0.5794000029563904,0.0,21.317523956298828,-3.9201340675354004,0
200479483,0.16387587785720825,0.5628496408462524,-23.41387367248535,-0.0005957988905720413,-9.980030881706625e-05,0.0004205618752166629,-5.2393763326108456e-05,0.1424737274646759,0.0911133661866188,0.5794000029563904,0.0,21.376489639282227,-2.6581544876098633,0
200489289,0.11890936642885208,0.51876300573349,-23.526878356933594,-0.0008387803682126105,0.00444840919226408,0.0006919297156855464,-0.005131948739290237,0.14228124916553497,0.09471612423658371,0.5794000029563904,0.0,21.301395416259766,-0.8566234111785889,0
200499243,0.1502295583486557,-1.0061346292495728,-23.558900833129883,-0.0007482897490262985,-0.006659767124801874,0.0005804612301290035,0.008551361970603466,0.14235588908195496,0.08555437624454498,0.5794000029563904,0.0,21.331392288208008,2.232475757598877,0
200509571,0.20763587951660156,1.0818090438842773,-23.39464569091797,-0.00012532279652077705,0.0028166514821350574,-0.00026769324904307723,-0.0043505532667040825,0.14289312064647675,0.09372652322053909,0.5794000029563904,0.0,23.124095916748047,5.286953449249268,0
200519137,0.09127120673656464,-0.38586392998695374,-23.61406707763672,-0.0005796161713078618,-0.0014382224762812257,0.00041809483082033694,0.0020724807400256395,0.14248144626617432,0.08987075835466385,0.5794000029563904,0.0,21.36625099182129,2.1774606704711914,0
200529533,0.19536782801151276,0.0058324034325778484,-23.471282958984375,-0.00014408299466595054,-0.0021010416094213724,-0.0003141517227049917,0.003186854999512434,0.14289870858192444,0.08923574537038803,0.5794000029563904,0.0,23.131929397583008,2.153672695159912,0
200539217,0.10292049497365952,0.43027472496032715,-23.482995986938477,-0.0004442343197297305,0.00047631707275286317,0.0002509160549379885,-0.0016653052298352122,0.14259253442287445,0.09186482429504395,0.5794000029563904,0.0,21.476993560791016,4.9909772872924805,0
200549271,0.16205976903438568,-0.14507141709327698,-23.524883270263672,-0.00030875392258167267,-0.0011470912722870708,-3.681662565213628e-05,0.0017824821406975389,0.14274099469184875,0.0900859385728836,0.5794000029563904,0.0,22.109832763671875,2.1426162719726562,0
200560014,0.10397203266620636,0.18291011452674866,-23.480344772338867,-0.000545404152944684,-0.0005657844012603164,0.0005355013418011367,0.00037664201227016747,0.14245939254760742,0.09077765047550201,0.5794000029563904,0.0,21.214914321899414,2.55426287651062,0
200569252,0.13862019777297974,0.03680404648184776,-23.491870880126953,-0.0005623208708129823,-0.0008558050030842423,0.0005826491978950799,0.0011849444126710296,0.14243723452091217,0.09039779752492905,0.5794000029563904,0.0,21.187999725341797,2.1962904930114746,0
