TimeUS,PLX,PLY,PLZ,AX,AY,BX,BY,CX,CY,PRX,PRY,PRZ,ERR,EST_FREQ,CORR
177220939,-0.039557017385959625,-0.5105310678482056,-23.453954696655273,0.0,0.0,-0.019681088626384735,-0.2540082037448883,-0.019681088626384735,-0.2540082037448883,-0.03936217725276947,-0.5080164074897766,-23.338430404663086,0.0,0.0,0.0
177231539,-0.03375265374779701,-0.48906299471855164,-23.462799072265625,0.0002206240314990282,0.0007395127322524786,-0.01691562682390213,-0.2447386085987091,-0.016913408413529396,-0.24473117291927338,-0.03380664438009262,-0.4892439842224121,-23.461509704589844,0.0,0.0,0.0
177241649,-0.033994343131780624,-0.46882209181785583,-23.467735290527344,0.00018679788627196103,0.003642941592261195,-0.01702805608510971,-0.23508843779563904,-0.017025990411639214,-0.23506790399551392,-0.0339900441467762,-0.46919143199920654,-23.467159271240234,0.0,0.0,0.0
177251624,-0.038075391203165054,-0.4669858515262604,-23.461917877197266,-0.0014495006762444973,0.004141534212976694,-0.018945951014757156,-0.23450404405593872,-0.018945379182696342,-0.2344830483198166,-0.037934042513370514,-0.4670289158821106,-23.460731506347656,0.0,0.0,0.0
177262028,-0.04428567737340927,-0.49049896001815796,-23.445785522460938,-0.0068291653878986835,-0.016788268461823463,-0.021570881828665733,-0.24471643567085266,-0.021570339798927307,-0.24469555914402008,-0.043929681181907654,-0.4891139566898346,-23.443195343017578,0.0,0.0,0.0
177271801,-0.051371168345212936,-0.5154476165771484,-23.44821548461914,-0.01615571789443493,-0.05127647891640663,-0.024115972220897675,-0.2541278004646301,-0.02410910278558731,-0.254083514213562,-0.05079295113682747,-0.5133094787597656,-23.442853927612305,0.0,0.0,0.0
177281568,-0.04623344913125038,-0.5146830081939697,-23.463241577148438,-0.008790678344666958,-0.05338381230831146,-0.022676045075058937,-0.2545397877693176,-0.022673100233078003,-0.25449439883232117,-0.04672844335436821,-0.5145413875579834,-23.453046798706055,0.0,0.0,0.0
177291559,-0.03559798747301102,-0.48984578251838684,-23.467124938964844,0.007502204738557339,-0.018061866983771324,-0.019778070971369743,-0.24825716018676758,-0.019782954826951027,-0.2482287436723709,-0.036986418068408966,-0.4928557872772217,-23.454036712646484,0.0,0.0,0.0
177301700,-0.03260495141148567,-0.4699881076812744,-23.462223052978516,0.012600831687450409,0.009278767742216587,-0.01883666403591633,-0.24320900440216064,-0.018844284117221832,-0.24319526553153992,-0.03320580720901489,-0.47321009635925293,-23.445331573486328,0.0,0.0,0.0
177311808,-0.03886641189455986,-0.47527414560317993,-23.456850051879883,0.005471584852784872,0.003501220839098096,-0.020275920629501343,-0.24437537789344788,-0.020278126001358032,-0.24435725808143616,-0.03767188638448715,-0.4743061065673828,-23.43334197998047,0.0,0.0,0.0
177321878,-0.04230140149593353,-0.4915631413459778,-23.44382667541504,0.0005393295432440937,-0.016369199380278587,-0.021378610283136368,-0.24881774187088013,-0.021374914795160294,-0.24877585470676422,-0.041130729019641876,-0.4868468642234802,-23.412919998168945,0.0,0.0,0.0
177331573,-0.04266709089279175,-0.5081163644790649,-23.44658851623535,-0.0010059279156848788,-0.03654913604259491,-0.021760089322924614,-0.25379958748817444,-0.021753527224063873,-0.2537202537059784,-0.042156562209129333,-0.5014492273330688,-23.400131225585938,0.0,0.0,0.0
177341562,-0.04471619427204132,-0.5069810152053833,-23.464223861694336,-0.003059753216803074,-0.042387980967760086,-0.022315407171845436,-0.2553783059120178,-0.022303301841020584,-0.2552832067012787,-0.04379311576485634,-0.5043567419052124,-23.396419525146484,0.0,0.0,0.0
177351521,-0.036775242537260056,-0.4847407341003418,-23.465057373046875,0.0011482102563604712,-0.03187546879053116,-0.02108088694512844,-0.2522941827774048,-0.02108418382704258,-0.25223755836486816,-0.039285823702812195,-0.4910127818584442,-23.381614685058594,0.0,0.0,0.0
177361874,-0.033020731061697006,-0.4652956426143646,-23.449779510498047,0.004317897371947765,-0.019780665636062622,-0.02008088491857052,-0.24847839772701263,-0.02009892463684082,-0.2484780251979828,-0.035471536219120026,-0.4746473431587219,-23.351457595825195,0.0,0.0,0.0
177371823,-0.037069693207740784,-0.47535279393196106,-23.44961166381836,0.0033253836445510387,-0.021983103826642036,-0.020414911210536957,-0.2492196261882782,-0.020427415147423744,-0.24920696020126343,-0.03609737753868103,-0.4731951951980591,-23.321727752685547,0.0,0.0,0.0
177381583,-0.042144373059272766,-0.4995286166667938,-23.45173454284668,0.0006148824468255043,-0.03462285175919533,-0.02138114906847477,-0.25372543931007385,-0.02137644775211811,-0.2536325454711914,-0.038848862051963806,-0.484160840511322,-23.290637969970703,0.0,0.0,0.0
177391566,-0.044144392013549805,-0.5135850310325623,-23.447649002075195,-0.0014878130750730634,-0.04690951108932495,-0.022170227020978928,-0.25833624601364136,-0.022151095792651176,-0.2581590414047241,-0.04102994501590729,-0.49538642168045044,-23.25357437133789,0.0,0.0,0.0
177401584,-0.03683045506477356,-0.5031671524047852,-23.461442947387695,-0.00026832264848053455,-0.050811827182769775,-0.02169106714427471,-0.2598695456981659,-0.02168051153421402,-0.2596648931503296,-0.038994841277599335,-0.4962412118911743,-23.218997955322266,0.0,0.0,0.0
177412281,-0.029672574251890182,-0.4780600070953369,-23.465662002563477,0.0022838162258267403,-0.04696844145655632,-0.020653795450925827,-0.25830745697021484,-0.020657282322645187,-0.2581239640712738,-0.034998372197151184,-0.4860803484916687,-23.16559600830078,0.0,0.0,0.0
177421961,-0.03216720372438431,-0.4643845856189728,-23.454057693481445,0.0028889088425785303,-0.0424756184220314,-0.020396137610077858,-0.2563943564891815,-0.020403368398547173,-0.2562386691570282,-0.03364815190434456,-0.47538065910339355,-23.135055541992188,0.0,0.0,0.0
177431541,-0.04095727205276489,-0.4727236032485962,-23.448463439941406,0.0010390199022367597,-0.04307875037193298,-0.021209800615906715,-0.2566596269607544,-0.02120833657681942,-0.25650110840797424,-0.03574059158563614,-0.47102275490760803,-23.076988220214844,0.0,0.0,0.0
177441619,-0.043273042887449265,-0.49661901593208313,-23.45952606201172,-0.0006849768105894327,-0.04969370737671852,-0.021990204229950905,-0.25965404510498047,-0.021984532475471497,-0.2594793736934662,-0.03772692754864693,-0.4753386378288269,-23.019485473632812,0.0,0.0,0.0
177451529,-0.041331835091114044,-0.506557047367096,-23.4565372467041,-0.0014944445574656129,-0.05685170367360115,-0.02236597239971161,-0.26297691464424133,-0.02236088551580906,-0.2628073990345001,-0.03838728368282318,-0.48051881790161133,-22.95602798461914,0.0,0.0,0.0
177461878,-0.03859706223011017,-0.4972356855869293,-23.454530715942383,-0.001634843647480011,-0.060866642743349075,-0.02243257500231266,-0.26488152146339417,-0.022428181022405624,-0.26473182439804077,-0.03802407905459404,-0.48085033893585205,-22.887144088745117,0.0,0.0,0.0
177471840,-0.03931626304984093,-0.48031455278396606,-23.46328353881836,-0.001943711657077074,-0.06178158149123192,-0.022581767290830612,-0.2653234601020813,-0.022580575197935104,-0.2651832401752472,-0.037911951541900635,-0.4761546552181244,-22.815589904785156,0.0,0.0,0.0
177481644,-0.03518020361661911,-0.4681914150714874,-23.455942153930664,-0.0016253028297796845,-0.061548054218292236,-0.02242574468255043,-0.26520901918411255,-0.022419074550271034,-0.2650648057460785,-0.03678295016288757,-0.4693669080734253,-22.736377716064453,0.0,0.0,0.0
177491563,-0.03808460384607315,-0.47828614711761475,-23.439674377441406,-0.0018960055895149708,-0.063724584877491,-0.02255978249013424,-0.2662867307662964,-0.022560056298971176,-0.2661983370780945,-0.03658454120159149,-0.46622514724731445,-22.64808464050293,0.0,0.0,0.0
177501563,-0.04464095085859299,-0.5018187761306763,-23.452489852905273,-0.0030250553973019123,-0.06923616677522659,-0.02312229946255684,-0.26903271675109863,-0.023163165897130966,-0.2691424787044525,-0.037788309156894684,-0.4683668315410614,-22.557903289794922,0.0,0.0,0.0
177511865,-0.044322699308395386,-0.5104817748069763,-23.462656021118164,-0.0038951633032411337,-0.07518893480300903,-0.023556476458907127,-0.2720031142234802,-0.023639431223273277,-0.27240079641342163,-0.038565076887607574,-0.47109150886535645,-22.463905334472656,0.0,0.0,0.0
177521886,-0.04074689745903015,-0.5008742213249207,-23.455459594726562,-0.004219047725200653,-0.07938795536756516,-0.023717503994703293,-0.2740907669067383,-0.02382093109190464,-0.2747538685798645,-0.038420066237449646,-0.47070783376693726,-22.361984252929688,0.0,0.0,0.0
177531544,-0.04162479564547539,-0.4783264100551605,-23.454450607299805,-0.004632661119103432,-0.0810055136680603,-0.023921189829707146,-0.274887353181839,-0.024058034643530846,-0.27568113803863525,-0.03841102123260498,-0.46575796604156494,-22.25359535217285,0.0,0.0,0.0
177541638,-0.038540687412023544,-0.46876248717308044,-23.4573974609375,-0.004717646166682243,-0.08209153264760971,-0.023962363600730896,-0.27541351318359375,-0.024107834324240685,-0.2763175368309021,-0.037828996777534485,-0.4596678614616394,-22.139297485351562,0.0,0.0,0.0
177551547,-0.03634510189294815,-0.484767347574234,-23.450075149536133,-0.004648525733500719,-0.08520191162824631,-0.02392968162894249,-0.27688419818878174,-0.024066459387540817,-0.2781793475151062,-0.0369669571518898,-0.4567842185497284,-22.01717758178711,0.0,0.0,0.0
177561844,-0.041938479989767075,-0.5054685473442078,-23.448162078857422,-0.00515398196876049,-0.09023667126893997,-0.024160712957382202,-0.2791854441165924,-0.02437533251941204,-0.28125596046447754,-0.0370674729347229,-0.45694929361343384,-21.88827133178711,0.0,0.0,0.0
177571859,-0.04272935539484024,-0.5144658088684082,-23.46685791015625,-0.0056907241232693195,-0.09575146436691284,-0.02439511939883232,-0.28159385919570923,-0.024709975346922874,-0.28469425439834595,-0.03720385953783989,-0.4576937258243561,-21.755477905273438,0.0,0.0,0.0
177581575,-0.0350971519947052,-0.49685585498809814,-23.463420867919922,-0.0055875289253890514,-0.09954441338777542,-0.024352680891752243,-0.2831536531448364,-0.024644365534186363,-0.2871057093143463,-0.03622914105653763,-0.4552493989467621,-21.615131378173828,0.0,0.0,0.0
177591560,-0.03512218967080116,-0.4793316423892975,-23.4558048248291,-0.005565570667386055,-0.10203110426664352,-0.02434433624148369,-0.28409871459007263,-0.024630136787891388,-0.2887170910835266,-0.03537825495004654,-0.4503334164619446,-21.466957092285156,0.0,0.0,0.0
177601700,-0.03653337061405182,-0.4760507047176361,-23.45169448852539,-0.005706423427909613,-0.10452497005462646,-0.02439258061349392,-0.28495290875434875,-0.024723123759031296,-0.29036349058151245,-0.034790996462106705,-0.4452010989189148,-21.311817169189453,0.0,0.0,0.0
177612331,-0.03642338141798973,-0.4945140779018402,-23.44692611694336,-0.005879399366676807,-0.10857342928647995,-0.02444295585155487,-0.28613191843032837,-0.024839352816343307,-0.2930837869644165,-0.034159209579229355,-0.4415217638015747,-21.108625411987305,0.0,0.0,0.0
177622006,-0.03814106062054634,-0.5097614526748657,-23.448436737060547,-0.006185082718729973,-0.11353249102830887,-0.024518130347132683,-0.28735145926475525,-0.025048574432730675,-0.29647794365882874,-0.033824414014816284,-0.4401378035545349,-20.939828872680664,0.0,0.0,0.0
177631549,-0.03932818025350571,-0.5120554566383362,-23.45903968811035,-0.006570554804056883,-0.11849739402532578,-0.024589605629444122,-0.28827208280563354,-0.025317057967185974,-0.2999360263347626,-0.03370106220245361,-0.4395778775215149,-20.815837860107422,0.0,0.0,0.0
177641587,-0.03527390956878662,-0.49303948879241943,-23.465198516845703,-0.006714127957820892,-0.12222536653280258,-0.02460625022649765,-0.2887042462825775,-0.02541879005730152,-0.30257758498191833,-0.03306666016578674,-0.43572691082954407,-20.640357971191406,0.0,0.0,0.0
177651580,-0.03383408859372139,-0.46954503655433655,-23.4578857421875,-0.006806827615946531,-0.12469851225614548,-0.024609660729765892,-0.28879523277282715,-0.02548559568822384,-0.30435988306999207,-0.032335489988327026,-0.4295637011528015,-20.460651397705078,0.0,0.0,0.0
177661884,-0.04309790953993797,-0.4694511294364929,-23.444934844970703,-0.007430150173604488,-0.12739622592926025,-0.024576909840106964,-0.28865349292755127,-0.02594236098229885,-0.30633673071861267,-0.03251652047038078,-0.42365536093711853,-20.277530670166016,0.0,0.0,0.0
177671757,-0.03756623715162277,-0.48781439661979675,-23.442855834960938,-0.007734727114439011,-0.13122539222240448,-0.024532116949558258,-0.2880903482437134,-0.026169266551733017,-0.30918940901756287,-0.03214270994067192,-0.41962939500808716,-20.09344482421875,0.0,0.0,0.0
177681601,-0.03576618432998657,-0.5118873119354248,-23.448261260986328,-0.007956660352647305,-0.13626892864704132,-0.024478008970618248,-0.28686070442199707,-0.026337331160902977,-0.31300875544548035,-0.03162264823913574,-0.41772371530532837,-19.910194396972656,0.0,0.0,0.0
177691580,-0.034984055906534195,-0.5075930953025818,-23.4564151763916,-0.00815686583518982,-0.14098453521728516,-0.024409256875514984,-0.2852413058280945,-0.026491431519389153,-0.31663838028907776,-0.03106440231204033,-0.41527050733566284,-19.728946685791016,0.0,0.0,0.0
177701585,-0.03651341050863266,-0.49007976055145264,-23.464736938476562,-0.008441537618637085,-0.14482037723064423,-0.024282114580273628,-0.2835281193256378,-0.026714136824011803,-0.31963926553726196,-0.03066512756049633,-0.41127657890319824,-19.550506591796875,0.0,0.0,0.0
177711771,-0.03872110694646835,-0.47085142135620117,-23.463977813720703,-0.00882422924041748,-0.1478336751461029,-0.024069974198937416,-0.2818577289581299,-0.02701845020055771,-0.32203540205955505,-0.030461618676781654,-0.40581661462783813,-19.37486457824707,0.0,0.0,0.0
177721992,-0.03652791678905487,-0.4728448987007141,-23.45160675048828,-0.009107871912419796,-0.15100786089897156,-0.023880621418356895,-0.27973872423171997,-0.027247745543718338,-0.3246013820171356,-0.03008602187037468,-0.4007551670074463,-19.20181655883789,0.0,0.0,0.0
177731528,-0.036414679139852524,-0.49059897661209106,-23.448156356811523,-0.009387393482029438,-0.15490411221981049,-0.02366047538816929,-0.2766701281070709,-0.027477525174617767,-0.3278042674064636,-0.029720162972807884,-0.39728426933288574,-19.032787322998047,0.0,0.0,0.0
177741566,-0.035838909447193146,-0.5056694149971008,-23.460498809814453,-0.009644451551139355,-0.15927259624004364,-0.023425046354532242,-0.2726691961288452,-0.027692504227161407,-0.33145764470100403,-0.029329687356948853,-0.39505070447921753,-18.86953353881836,0.0,0.0,0.0
177751550,-0.03768429905176163,-0.507146954536438,-23.463212966918945,-0.009964128024876118,-0.1635252684354782,-0.02308802306652069,-0.2681857645511627,-0.027964666485786438,-0.3350782096385956,-0.029099037870764732,-0.39293694496154785,-18.711719512939453,0.0,0.0,0.0
177761872,-0.03528580442070961,-0.48648297786712646,-23.457355499267578,-0.010194379836320877,-0.16692371666431427,-0.02281055599451065,-0.2640904188156128,-0.02816440910100937,-0.33802634477615356,-0.028703628107905388,-0.3893316686153412,-18.55910873413086,0.0,0.0,0.0
177771838,-0.030191918835043907,-0.46527329087257385,-23.45612144470215,-0.010267199948430061,-0.16957169771194458,-0.022710708901286125,-0.26045966148376465,-0.02822885848581791,-0.34036991000175476,-0.027966680005192757,-0.3843561112880707,-18.412446975708008,0.0,0.0,0.0
177781673,-0.028653031215071678,-0.4672333598136902,-23.44598388671875,-0.010312301106750965,-0.17223553359508514,-0.022640524432063103,-0.25631433725357056,-0.028269648551940918,-0.3427791893482208,-0.027172615751624107,-0.37979432940483093,-18.271432876586914,0.0,0.0,0.0
177791539,-0.032968953251838684,-0.4935343563556671,-23.441648483276367,-0.010488083586096764,-0.17551292479038239,-0.02233029529452324,-0.2505302429199219,-0.02843247726559639,-0.3458150625228882,-0.026736032217741013,-0.3773238956928253,-18.13681411743164,0.0,0.0,0.0
177801688,-0.04312404245138168,-0.5064140558242798,-23.4606876373291,-0.010905557312071323,-0.17889918386936188,-0.021493881940841675,-0.2437458336353302,-0.028829680755734444,-0.34903690218925476,-0.027028823271393776,-0.37586072087287903,-18.010482788085938,0.0,0.0,0.0
177812283,-0.04231317713856697,-0.5004037618637085,-23.466693878173828,-0.011262004263699055,-0.1818968951702118,-0.020668677985668182,-0.23680588603019714,-0.02918057329952717,-0.35198789834976196,-0.02717146836221218,-0.3730621933937073,-17.8439998626709,0.0,0.0,0.0
177821952,-0.03338407725095749,-0.4878097176551819,-23.454744338989258,-0.011401515454053879,-0.18438571691513062,-0.020305125042796135,-0.23032024502754211,-0.02932233363389969,-0.3545168340206146,-0.026870226487517357,-0.37160542607307434,-17.783187866210938,0.0,0.0,0.0
177831531,-0.0293084979057312,-0.47328102588653564,-23.458642959594727,-0.01146023627370596,-0.18639838695526123,-0.02012893557548523,-0.22428123652935028,-0.02938455529510975,-0.3566495180130005,-0.02624494954943657,-0.3682761490345001,-17.678382873535156,0.0,0.0,0.0
177841595,-0.02980741858482361,-0.4761621654033661,-23.453922271728516,-0.011529821902513504,-0.1882742941379547,-0.01988624781370163,-0.2177387773990631,-0.029462110251188278,-0.35874027013778687,-0.025697454810142517,-0.3653644025325775,-17.580944061279297,0.0,0.0,0.0
177851535,-0.033857882022857666,-0.4936929941177368,-23.441913604736328,-0.011653512716293335,-0.1901855319738388,-0.01937827281653881,-0.2098897099494934,-0.029608802869915962,-0.3610069155693054,-0.02545113116502762,-0.3637944161891937,-17.490564346313477,0.0,0.0,0.0
177861874,-0.04219501465559006,-0.512495219707489,-23.447185516357422,-0.011859314516186714,-0.19205018877983093,-0.01836506277322769,-0.20070961117744446,-0.029872722923755646,-0.36339813470840454,-0.025757640600204468,-0.36356598138809204,-17.408493041992188,0.0,0.0,0.0
177871895,-0.044630005955696106,-0.5071004033088684,-23.45725440979004,-0.012050102464854717,-0.19354188442230225,-0.01721019297838211,-0.19168007373809814,-0.030143436044454575,-0.36551475524902344,-0.02621043100953102,-0.363084077835083,-17.3350772857666,0.0,0.0,0.0
177881661,-0.04166550934314728,-0.4865180253982544,-23.45551109313965,-0.012175219133496284,-0.19457152485847473,-0.016243543475866318,-0.18372511863708496,-0.030346786603331566,-0.3671882152557373,-0.026466090232133865,-0.36143580079078674,-17.269577026367188,0.0,0.0,0.0
177891600,-0.03897090256214142,-0.4687640964984894,-23.454891204833984,-0.012251550331711769,-0.19524705410003662,-0.015444653108716011,-0.17665499448776245,-0.030497122555971146,-0.3685186803340912,-0.02655450627207756,-0.35887980461120605,-17.212060928344727,0.0,0.0,0.0
177901711,-0.040364060550928116,-0.4747765362262726,-23.454198837280273,-0.01230758149176836,-0.19573155045509338,-0.014559688046574593,-0.1690027266740799,-0.03064553439617157,-0.36980199813842773,-0.026734760031104088,-0.3569243550300598,-17.162464141845703,0.0,0.0,0.0
177911808,-0.047339607030153275,-0.5037354826927185,-23.452674865722656,-0.012350136414170265,-0.19604389369487762,-0.013252170756459236,-0.1594056934118271,-0.030840111896395683,-0.37123018503189087,-0.027337295934557915,-0.3569207787513733,-17.12063217163086,0.0,0.0,0.0
177921879,-0.04208963364362717,-0.5131919384002686,-23.45125389099121,-0.01235305517911911,-0.19607526063919067,-0.012301461771130562,-0.14919008314609528,-0.030965037643909454,-0.37257254123687744,-0.02760947309434414,-0.35759907960891724,-17.086408615112305,0.0,0.0,0.0
177931551,-0.0429207906126976,-0.5005723834037781,-23.457632064819336,-0.012328260578215122,-0.1958388388156891,-0.011315057054162025,-0.13978439569473267,-0.031078912317752838,-0.37365835905075073,-0.027929162606596947,-0.3576224744319916,-17.06009292602539,0.0,0.0,0.0
177941590,-0.03705846518278122,-0.4771040380001068,-23.456832885742188,-0.01229685079306364,-0.19542476534843445,-0.010712617076933384,-0.1318424791097641,-0.031139682978391647,-0.37445947527885437,-0.027902094647288322,-0.3563964068889618,-17.041027069091797,0.0,0.0,0.0
177951532,-0.0393708236515522,-0.4682256281375885,-23.453472137451172,-0.012238635681569576,-0.19484315812587738,-0.00996751431375742,-0.12439833581447601,-0.03120492771267891,-0.37511131167411804,-0.02802157774567604,-0.3548380732536316,-17.028751373291016,0.0,0.0,0.0
177961891,-0.0393805131316185,-0.4772782325744629,-23.448869705200195,-0.012162784114480019,-0.19401074945926666,-0.00923312921077013,-0.11633898317813873,-0.031260307878255844,-0.3757190704345703,-0.028146982192993164,-0.35399824380874634,-17.022796630859375,0.0,0.0,0.0
177971822,-0.04200653359293938,-0.49525222182273865,-23.445173263549805,-0.012050071731209755,-0.19284120202064514,-0.008350909687578678,-0.10718481987714767,-0.03131705895066261,-0.3763079345226288,-0.028426945209503174,-0.35434651374816895,-17.022754669189453,0.0,0.0,0.0
177981599,-0.042133912444114685,-0.5075966119766235,-23.447484970092773,-0.011918867938220501,-0.19135446846485138,-0.007486009504646063,-0.0973842665553093,-0.03136396408081055,-0.37683945894241333,-0.02871103584766388,-0.35549622774124146,-17.028459548950195,0.0,0.0,0.0
177991531,-0.03736850619316101,-0.49674758315086365,-23.450502395629883,-0.011822241358458996,-0.18978235125541687,-0.006934589706361294,-0.08841269463300705,-0.031388819217681885,-0.37724384665489197,-0.02872360870242119,-0.3560956120491028,-17.039377212524414,0.0,0.0,0.0
178001540,-0.03726527839899063,-0.4766322672367096,-23.458980560302734,-0.011715568602085114,-0.18826891481876373,-0.006397160701453686,-0.08078782260417938,-0.03140860050916672,-0.3775244653224945,-0.028738150373101234,-0.3556520640850067,-17.055233001708984,0.0,0.0,0.0
178012291,-0.03959861025214195,-0.464987188577652,-23.4562931060791,-0.011565492488443851,-0.18671998381614685,-0.005726628005504608,-0.07386726140975952,-0.03142784908413887,-0.37772315740585327,-0.0288458913564682,-0.3540084958076477,-17.042877197265625,0.0,0.0,0.0
178022075,-0.04413510113954544,-0.47996991872787476,-23.44974708557129,-0.011340093798935413,-0.18481343984603882,-0.004813150502741337,-0.0661405622959137,-0.03144815191626549,-0.37789490818977356,-0.029249140992760658,-0.3540562093257904,-17.068506240844727,0.0,0.0,0.0
178031563,-0.046358030289411545,-0.5038002133369446,-23.44781494140625,-0.011073756031692028,-0.18243815004825592,-0.003817559452727437,-0.05726153030991554,-0.03146514296531677,-0.3780464231967926,-0.029797982424497604,-0.3561118543148041,-17.127002716064453,0.0,0.0,0.0
178041550,-0.04544023051857948,-0.5065014958381653,-23.454090118408203,-0.01081288605928421,-0.17988373339176178,-0.002920607104897499,-0.04847865551710129,-0.0314759723842144,-0.378152459859848,-0.030234742909669876,-0.3576107621192932,-17.15438461303711,0.0,0.0,0.0
178051575,-0.043871454894542694,-0.4929826259613037,-23.454544067382812,-0.010571228340268135,-0.17743811011314392,-0.0021521379239857197,-0.04070161283016205,-0.0314820297062397,-0.3782137632369995,-0.030571693554520607,-0.358386754989624,-17.18344497680664,0.0,0.0,0.0
178061863,-0.03788184002041817,-0.4772883653640747,-23.448596954345703,-0.010431620292365551,-0.1751633733510971,-0.0017397309420630336,-0.03398194909095764,-0.03148388862609863,-0.3782440423965454,-0.030582845211029053,-0.3583602011203766,-17.213361740112305,0.0,0.0,0.0
178071832,-0.03882436081767082,-0.4746435284614563,-23.448909759521484,-0.010267781093716621,-0.17283198237419128,-0.0012885435717180371,-0.027561647817492485,-0.03148477151989937,-0.378256618976593,-0.030644429847598076,-0.3582448959350586,-17.2440242767334,0.0,0.0,0.0
178081660,-0.04319660738110542,-0.48509904742240906,-23.447877883911133,-0.010011603124439716,-0.17019294202327728,-0.0006290294695645571,-0.020767590031027794,-0.031484950333833694,-0.37825846672058105,-0.03092743456363678,-0.35870683193206787,-17.27495765686035,0.0,0.0,0.0
178091547,-0.03861099109053612,-0.49675530195236206,-23.446395874023438,-0.009845886379480362,-0.16722288727760315,-0.00022931621060706675,-0.013603740371763706,-0.03148474544286728,-0.37825480103492737,-0.03096744418144226,-0.35976406931877136,-17.30576515197754,0.0,0.0,0.0
178101573,-0.041798241436481476,-0.5033390522003174,-23.450645446777344,-0.00960732065141201,-0.16403234004974365,0.00031071784906089306,-0.006381413899362087,-0.031484559178352356,-0.3782523274421692,-0.03116416558623314,-0.36112070083618164,-17.336408615112305,0.0,0.0,0.0
178111891,-0.037655655294656754,-0.4931509792804718,-23.45806884765625,-0.009456738829612732,-0.16099555790424347,0.000631009170319885,7.789117807988077e-05,-0.031484831124544144,-0.37825778126716614,-0.03114895522594452,-0.3619305193424225,-17.366744995117188,0.0,0.0,0.0
178121907,-0.030119221657514572,-0.47720867395401,-23.456274032592773,-0.009472266770899296,-0.1582513302564621,0.0005999498534947634,0.005566983949393034,-0.031484734266996384,-0.37827497720718384,-0.03077143058180809,-0.361944317817688,-17.396055221557617,0.0,0.0,0.0
178131551,-0.035179466009140015,-0.4713438153266907,-23.446929931640625,-0.009361672215163708,-0.1555721014738083,0.0008080630213953555,0.010608667507767677,-0.031486112624406815,-0.37830835580825806,-0.03065299056470394,-0.3616868257522583,-17.42379379272461,0.0,0.0,0.0
178141700,-0.04123254492878914,-0.4860217273235321,-23.445648193359375,-0.009101256728172302,-0.1524726003408432,0.0012691010488197207,0.016095994040369987,-0.03149138391017914,-0.37837108969688416,-0.030823558568954468,-0.3621327579021454,-17.4502010345459,0.0,0.0,0.0
178151535,-0.04528658464550972,-0.5061777830123901,-23.44505500793457,-0.008740397170186043,-0.14882446825504303,0.001869955100119114,0.022170385345816612,-0.03150203078985214,-0.3784787356853485,-0.03117205947637558,-0.3634856343269348,-17.47519874572754,0.0,0.0,0.0
178161872,-0.04430317506194115,-0.5097914338111877,-23.450286865234375,-0.008405405096709728,-0.14504671096801758,0.0023941900581121445,0.02808225527405739,-0.03151548653841019,-0.37863045930862427,-0.031457748264074326,-0.3649318218231201,-17.49897003173828,0.0,0.0,0.0
178171845,-0.042048465460538864,-0.4944602847099304,-23.459611892700195,-0.008128655143082142,-0.1416250318288803,0.0028007924556732178,0.0331093929708004,-0.03152991831302643,-0.3788088858127594,-0.031627215445041656,-0.3656143546104431,-17.521650314331055,0.0,0.0,0.0
178181615,-0.03718015179038048,-0.47926634550094604,-23.453536987304688,-0.00797724537551403,-0.1385556161403656,0.003009329317137599,0.03733690455555916,-0.03153982385993004,-0.3790096640586853,-0.03157244250178337,-0.36558547616004944,-17.542526245117188,0.0,0.0,0.0
178191594,-0.029609765857458115,-0.473248153924942,-23.443737030029297,-0.008020575158298016,-0.13559624552726746,0.0029534928034991026,0.04115050286054611,-0.03153635933995247,-0.37924617528915405,-0.03119046241044998,-0.36528754234313965,-17.56150245666504,0.0,0.0,0.0
178201636,-0.03274255990982056,-0.4850296080112457,-23.441383361816406,-0.0079710204154253,-0.13227438926696777,0.0030130960512906313,0.04514597728848457,-0.03154109790921211,-0.3795638978481293,-0.03095942735671997,-0.36549821496009827,-17.57899284362793,0.0,0.0,0.0
178212312,-0.038181617856025696,-0.5025492310523987,-23.443944931030273,-0.007766310125589371,-0.12841393053531647,0.0032405743841081858,0.04943579435348511,-0.03156449273228645,-0.3800050616264343,-0.030938435345888138,-0.36595621705055237,-17.57277488708496,0.0003534683200996369,0.5794568061828613,0.0
178222046,-0.04261547699570656,-0.502565324306488,-23.44183349609375,-0.0074382359161973,-0.12453736364841461,0.0035785455256700516,0.05342930927872658,-0.031607940793037415,-0.38051843643188477,-0.03113151155412197,-0.36686909198760986,-17.589387893676758,0.00032248880597762764,0.5794517993927002,0.0
178231603,-0.03968067467212677,-0.48818299174308777,-23.453529357910156,-0.007195278536528349,-0.12107371538877487,0.003811399219557643,0.05674891546368599,-0.031644344329833984,-0.3810374140739441,-0.031222758814692497,-0.3676053583621979,-17.6274356842041,0.0002881900581996888,0.5794463157653809,0.0
178241651,-0.03853096067905426,-0.4752264618873596,-23.46515655517578,-0.006983834784477949,-0.11794666200876236,0.003997418563812971,0.059499967843294144,-0.03168036416172981,-0.38157010078430176,-0.031234221532940865,-0.36731451749801636,-17.641765594482422,0.00025536652537994087,0.5794410109519958,0.0
178251566,-0.03674840182065964,-0.47252950072288513,-23.451967239379883,-0.006821067072451115,-0.11486344784498215,0.00412797974422574,0.06197310984134674,-0.0317116305232048,-0.38216233253479004,-0.031173711642622948,-0.36693137884140015,-17.655054092407227,0.00022033015557099134,0.579435408115387,0.0
178261890,-0.03820854797959328,-0.48600223660469055,-23.447437286376953,-0.006614343728870153,-0.11136973649263382,0.004277906846255064,0.06450694054365158,-0.03175608813762665,-0.3829137086868286,-0.031173324212431908,-0.3671041429042816,-17.6679630279541,0.00040251921745948493,0.5794646739959717,0.0
178271816,-0.04083550348877907,-0.5026164650917053,-23.446260452270508,-0.0063319881446659565,-0.10739170759916306,0.00446111848577857,0.06708816438913345,-0.03182366490364075,-0.38386574387550354,-0.03127584233880043,-0.36793285608291626,-17.68094253540039,0.0003748589369934052,0.5794602632522583,0.0
178281659,-0.04560307040810585,-0.5005767941474915,-23.444303512573242,-0.005915557499974966,-0.10348040610551834,0.004699616692960262,0.06932824850082397,-0.0319339819252491,-0.38490188121795654,-0.031559351831674576,-0.36867204308509827,-17.69431495666504,0.0003435106191318482,0.5794551968574524,0.0
178291523,-0.040430158376693726,-0.4932704567909241,-23.45340919494629,-0.005654070992022753,-0.0997895821928978,0.00482946028932929,0.07116096466779709,-0.03201030194759369,-0.38597914576530457,-0.03163526952266693,-0.3691325783729553,-17.70887565612793,0.0003121623012702912,0.5794501304626465,0.0
178301587,-0.03627695143222809,-0.4820220470428467,-23.461078643798828,-0.005513400305062532,-0.0964302197098732,0.004888561088591814,0.07257235795259476,-0.03205535560846329,-0.38705506920814514,-0.031552013009786606,-0.3691859245300293,-17.724956512451172,0.0002830268058460206,0.579445481300354,0.0
178311826,-0.03389480710029602,-0.4796179533004761,-23.45363998413086,-0.0054386332631111145,-0.09314266592264175,0.00491422088816762,0.07370064407587051,-0.03208153694868088,-0.3882063627243042,-0.0313834585249424,-0.369192510843277,-17.74239730834961,0.0002509408805053681,0.5794402956962585,0.0
178321899,-0.03926337510347366,-0.4957491159439087,-23.441720962524414,-0.005205607507377863,-0.08940020948648453,0.004976085852831602,0.07469421625137329,-0.03217048943042755,-0.3896349370479584,-0.03142494708299637,-0.369861900806427,-17.761484146118164,0.00022143656678963453,0.5794355869293213,0.0
178331579,-0.03688975051045418,-0.5109414458274841,-23.44763946533203,-0.005042283795773983,-0.08525664359331131,0.005006582476198673,0.07546792179346085,-0.03223826363682747,-0.39135438203811646,-0.031379640102386475,-0.37114840745925903,-17.78335952758789,0.00018935064144898206,0.5794304013252258,0.0
178341595,-0.03395072743296623,-0.5071728825569153,-23.454397201538086,-0.0049619912169873714,-0.08127817511558533,0.005015143658965826,0.0758921280503273,-0.03227439895272255,-0.3931448459625244,-0.031229479238390923,-0.37233567237854004,-17.808517456054688,0.00015947753854561597,0.5794256329536438,0.0
178351565,-0.03513592109084129,-0.48596879839897156,-23.459209442138672,-0.004844598472118378,-0.07795947045087814,0.00501806428655982,0.07597468793392181,-0.03233158215880394,-0.3947613835334778,-0.03113226220011711,-0.37278473377227783,-17.837358474731445,0.00013181725807953626,0.5794211626052856,0.0
178361866,-0.03553685173392296,-0.47152179479599,-23.4537296295166,-0.004714328330010176,-0.07508743554353714,0.005010396707803011,0.07580564171075821,-0.03240014240145683,-0.3962729275226593,-0.0310579352080822,-0.3727762699127197,-17.869972229003906,0.00010010012920247391,0.579416036605835,0.0
178371854,-0.0393119640648365,-0.47828930616378784,-23.444040298461914,-0.004478843882679939,-0.07205932587385178,0.00497626094147563,0.07536669075489044,-0.03253386169672012,-0.39799240231513977,-0.03113403543829918,-0.3731287717819214,-17.906675338745117,7.24398487363942e-05,0.5794116258621216,0.0
178381668,-0.04125571623444557,-0.48965156078338623,-23.440021514892578,-0.004195329733192921,-0.06876982003450394,0.004909963347017765,0.07459746301174164,-0.03270735964179039,-0.40000542998313904,-0.031289927661418915,-0.37402236461639404,-17.94814682006836,3.7034689739812165e-05,0.5794059038162231,0.0
178391586,-0.04681309685111046,-0.503629207611084,-23.447694778442383,-0.003770485520362854,-0.06517830491065979,0.004771472420543432,0.07342670112848282,-0.03298729658126831,-0.40237191319465637,-0.03166397660970688,-0.3755626976490021,-17.995269775390625,8.267999874078669e-06,0.5794013142585754,0.0
178401591,-0.04450463131070137,-0.5025330781936646,-23.458446502685547,-0.0034243115223944187,-0.061721015721559525,0.004625418689101934,0.07196804136037827,-0.03323274105787277,-0.4048232138156891,-0.03195270895957947,-0.3771752715110779,-18.048580169677734,-1.976108251255937e-05,0.5793967843055725,0.0
178412322,-0.041380781680345535,-0.4843836724758148,-23.459835052490234,-0.0031732069328427315,-0.058837924152612686,0.004491748753935099,0.07043329626321793,-0.03342561796307564,-0.40703776478767395,-0.03210712596774101,-0.37790703773498535,-18.093891143798828,0.0003811286005657166,0.5794612169265747,0.0
178421943,-0.03254334628582001,-0.47605231404304504,-23.448793411254883,-0.0031576931942254305,-0.05627148225903511,0.004482016898691654,0.06882334500551224,-0.033438339829444885,-0.4091423749923706,-0.031957030296325684,-0.3790585696697235,-18.174617767333984,0.00035014908644370735,0.5794562697410583,0.0
178431584,-0.03356929495930672,-0.48460808396339417,-23.43954086303711,-0.0031130164861679077,-0.05358172208070755,0.004449011757969856,0.06683626770973206,-0.03347775340080261,-0.41151517629623413,-0.031838055700063705,-0.38037875294685364,-18.24649429321289,0.0003210135910194367,0.5794515609741211,0.0
178441595,-0.03839417174458504,-0.49548831582069397,-23.43990135192871,-0.0029507088474929333,-0.05074173957109451,0.004309886135160923,0.06440190970897675,-0.03363185003399849,-0.4142114818096161,-0.031924616545438766,-0.38228705525398254,-18.325334548950195,0.00029003407689742744,0.5794466137886047,0.0
178451547,-0.04418369010090828,-0.5059090852737427,-23.44647216796875,-0.002660885453224182,-0.04779751971364021,0.004024771507829428,0.0615055225789547,-0.03392821177840233,-0.41722214221954346,-0.03225930407643318,-0.38477325439453125,-18.411537170410156,0.0002605297777336091,0.5794418454170227,0.0
178461880,-0.04320715740323067,-0.4992031753063202,-23.458730697631836,-0.00241116713732481,-0.045168399810791016,0.0037451013922691345,0.058561060577631,-0.03420354425907135,-0.4201209247112274,-0.03256191313266754,-0.3871263563632965,-18.505413055419922,0.00023323828645516187,0.5794374942779541,0.0
178471852,-0.03622579202055931,-0.4786926209926605,-23.461849212646484,-0.00232885149307549,-0.043140385299921036,0.003640766255557537,0.0559905506670475,-0.03430154547095299,-0.42253541946411133,-0.032575152814388275,-0.3887515068054199,-18.606571197509766,0.00020004594989586622,0.5794321298599243,0.0
178481673,-0.0367678664624691,-0.4707629680633545,-23.45241928100586,-0.0022393674589693546,-0.041401613503694534,0.0035129282623529434,0.0535065233707428,-0.0344168022274971,-0.42477497458457947,-0.032620642334222794,-0.39017796516418457,-18.71437644958496,0.00017164806195069104,0.5794275403022766,0.0
178491569,-0.030900565907359123,-0.47995224595069885,-23.440305709838867,-0.0022704796865582466,-0.039597708731889725,0.0035628946498036385,0.050609443336725235,-0.03437334671616554,-0.4272944927215576,-0.03241482377052307,-0.3921547532081604,-18.828521728515625,0.00014583180018234998,0.5794234275817871,0.0
178501645,-0.03568968176841736,-0.5007460117340088,-23.441879272460938,-0.0022071232087910175,-0.03754406049847603,0.0034486528020352125,0.04690638557076454,-0.03446958214044571,-0.4304139018058777,-0.032433800399303436,-0.39520931243896484,-18.949357986450195,0.00011042663390981033,0.5794177055358887,0.0
178511884,-0.03849368542432785,-0.5063813924789429,-23.4500732421875,-0.002098984085023403,-0.035570643842220306,0.003229718189686537,0.04291108250617981,-0.03464885056018829,-0.4336853623390198,-0.03259050473570824,-0.3986552655696869,-19.07685089111328,8.202874596463516e-05,0.5794131755828857,0.0
178521922,-0.03130541741847992,-0.49976009130477905,-23.448015213012695,-0.0021180524490773678,-0.03389459103345871,0.0032731201499700546,0.03909618407487869,-0.0346142016351223,-0.43673089146614075,-0.0324186235666275,-0.40191271901130676,-19.210111618041992,4.920521314488724e-05,0.5794078707695007,0.0
178531558,-0.031237313523888588,-0.4788679778575897,-23.453535079956055,-0.0021341796964406967,-0.03270908445119858,0.0033144988119602203,0.036054447293281555,-0.03458191081881523,-0.4391045570373535,-0.03225193917751312,-0.40428292751312256,-19.349014282226562,2.2651347535429522e-05,0.5794036388397217,0.0
178541614,-0.03193993121385574,-0.4711197018623352,-23.456924438476562,-0.0021369310561567545,-0.03176255151629448,0.0033224900253117085,0.03330531716346741,-0.034575801342725754,-0.44120633602142334,-0.03212812542915344,-0.4063771069049835,-19.492916107177734,-8.696972145116888e-06,0.5793985724449158,0.0
178551555,-0.037123214453458786,-0.48202529549598694,-23.440074920654297,-0.0020723294001072645,-0.03079194203019142,0.0031088197138160467,0.030095024034380913,-0.034736160188913345,-0.4436156451702118,-0.03226963430643082,-0.40910255908966064,-19.64021873474121,-4.115170304430649e-05,0.5793933272361755,0.0
178561843,-0.04264945909380913,-0.501086413860321,-23.441131591796875,-0.001953190891072154,-0.029735896736383438,0.0026563755236566067,0.026084545999765396,-0.03507007285952568,-0.44657546281814575,-0.032696790993213654,-0.41286569833755493,-19.79117202758789,-6.659916107309982e-05,0.5793892741203308,0.0
178571784,-0.04438377916812897,-0.5058541893959045,-23.451204299926758,-0.001834752270951867,-0.028792718425393105,0.002134147100150585,0.02192581631243229,-0.035449668765068054,-0.4495983421802521,-0.033217355608940125,-0.41693115234375,-19.945571899414062,-0.00010163551633013412,0.5793836116790771,0.0
178581623,-0.03777216374874115,-0.49348971247673035,-23.45163345336914,-0.0017943886341527104,-0.02811845764517784,0.001924350275658071,0.0184212364256382,-0.035600073635578156,-0.45211079716682434,-0.03339637815952301,-0.42039379477500916,-20.10223388671875,-0.00012966459325980395,0.579379141330719,0.0
178591576,-0.03217907249927521,-0.47468724846839905,-23.452194213867188,-0.0018030389910563827,-0.02771296352148056,0.0019784795586019754,0.01588388718664646,-0.03556175157427788,-0.4539071321487427,-0.033283986151218414,-0.4228937029838562,-20.260469436645508,-0.00015880008868407458,0.5793744325637817,0.0
178601676,-0.03185700997710228,-0.4734109342098236,-23.45439910888672,-0.0018114169361069798,-0.02740410715341568,0.0020435333717614412,0.013485649600625038,-0.03551621735095978,-0.4555857479572296,-0.033160656690597534,-0.42535147070884705,-20.419673919677734,-0.0001879355841083452,0.5793697834014893,0.0
178612302,-0.0377984493970871,-0.4843522012233734,-23.438861846923828,-0.001789646572433412,-0.027129612863063812,0.0018174134893342853,0.010634588077664375,-0.03567270562052727,-0.45755887031555176,-0.03336276486515999,-0.42842432856559753,-20.578716278076172,0.00021258527704048902,0.5794341564178467,0.0
178621993,-0.04337671771645546,-0.5037783980369568,-23.42923927307129,-0.0017552003264427185,-0.02687128260731697,0.001330140745267272,0.006980287842452526,-0.036007110029459,-0.4600667357444763,-0.03387917950749397,-0.43255165219306946,-20.736160278320312,0.00017791772552300245,0.5794285535812378,0.0
178631552,-0.04795139655470848,-0.5105253458023071,-23.449514389038086,-0.001725461333990097,-0.02670704759657383,0.000640279205981642,0.003170497715473175,-0.036476537585258484,-0.46265918016433716,-0.034640487283468246,-0.4370152950286865,-20.893707275390625,0.00014951983757782727,0.5794240236282349,0.0
178641588,-0.04480190575122833,-0.49383705854415894,-23.45557975769043,-0.0017172693042084575,-0.0266614630818367,0.00013958345516584814,0.00038442533696070313,-0.03681464493274689,-0.4645405411720276,-0.0352143794298172,-0.44048818945884705,-21.049915313720703,0.00011706510122166947,0.5794187784194946,0.0
178651539,-0.03880380466580391,-0.47301560640335083,-23.44561767578125,-0.0017189785139635205,-0.026676848530769348,-3.702437970787287e-05,-0.0012053644750267267,-0.036933086812496185,-0.4656067192554474,-0.03543984144926071,-0.44273388385772705,-21.203336715698242,9.014242823468521e-05,0.5794144868850708,0.0
178661871,-0.03786880895495415,-0.47390973567962646,-23.44774627685547,-0.0017231596866622567,-0.026730328798294067,-0.00015607132809236646,-0.0027280773501843214,-0.03701243922114372,-0.4666216969490051,-0.03560815379023552,-0.4449940025806427,-21.35417366027832,5.731889541493729e-05,0.5794091820716858,0.0
178671847,-0.040502458810806274,-0.48831069469451904,-23.441726684570312,-0.0017376572359353304,-0.026857860386371613,-0.0003974084393121302,-0.004851054400205612,-0.03717243671417236,-0.4680291414260864,-0.03592388331890106,-0.44803422689437866,-21.501514434814453,2.6708186851465143e-05,0.5794042944908142,0.0
178681695,-0.04239610582590103,-0.5143563151359558,-23.434476852416992,-0.0017646371852606535,-0.027133462950587273,-0.0007162433466874063,-0.00810797419399023,-0.0373828150331974,-0.47017815709114075,-0.03634091839194298,-0.45250216126441956,-21.644906997680664,8.919255378714297e-07,0.5794001221656799,0.0
178691570,-0.04438869282603264,-0.5180944800376892,-23.45058250427246,-0.0018076518317684531,-0.027482226490974426,-0.001111411489546299,-0.011311998590826988,-0.037642501294612885,-0.4722836911678314,-0.03686175122857094,-0.45706602931022644,-21.785371780395508,-3.0456392778432928e-05,0.579395055770874,0.0
178701636,-0.039800722151994705,-0.49957817792892456,-23.46405792236328,-0.0018263949314132333,-0.027754046022892,-0.0012525049969553947,-0.01335818599909544,-0.037734903395175934,-0.47362375259399414,-0.03710052743554115,-0.46041905879974365,-21.92244529724121,-6.069830124033615e-05,0.5793902277946472,0.0
178711781,-0.033524781465530396,-0.47702810168266296,-23.447214126586914,-0.0017984092701226473,-0.0278734490275383,-0.0010738689452409744,-0.01412034872919321,-0.037618238478899,-0.4741215109825134,-0.03696544095873833,-0.4623483121395111,-22.054101943969727,-8.688336674822494e-05,0.5793859958648682,0.0
178722097,-0.03411306068301201,-0.4681490659713745,-23.44361114501953,-0.0017728179227560759,-0.02791491150856018,-0.0009319958044216037,-0.01435021311044693,-0.037525784224271774,-0.474271297454834,-0.03687475994229317,-0.46379730105400085,-22.18622589111328,-0.00012118211452616379,0.5793805122375488,-0.00012118211452616379
178731554,-0.039109185338020325,-0.486664742231369,-23.449995040893555,-0.0017941193655133247,-0.028129614889621735,-0.0010363432811573148,-0.01540196593850851,-0.03759368136525154,-0.47495564818382263,-0.03706405311822891,-0.4660511910915375,-22.303607940673828,-0.0001429415278835222,0.5793769955635071,-0.00012118211452616379
178741619,-0.04186507686972618,-0.509375274181366,-23.449310302734375,-0.0018453008960932493,-0.028586426749825478,-0.001260983059182763,-0.017406947910785675,-0.03773971274495125,-0.4762590229511261,-0.03741360083222389,-0.4696444272994995,-22.421194076538086,-0.0001639633410377428,0.5793735980987549,-0.00012118211452616379
178751577,-0.04497767612338066,-0.5114137530326843,-23.448476791381836,-0.0019336718833073974,-0.029065527021884918,-0.001612192834727466,-0.01931101456284523,-0.03796795383095741,-0.4774964153766632,-0.037931423634290695,-0.4732128083705902,-22.53380584716797,-0.0001942052476806566,0.5793687701225281,-0.00012118211452616379
178761865,-0.04152927175164223,-0.4910920560359955,-23.456493377685547,-0.001978399697691202,-0.029277492314577103,-0.0017745214281603694,-0.020080290734767914,-0.03807348012924194,-0.47799649834632874,-0.038227636367082596,-0.47544559836387634,-22.641921997070312,-0.000214120649616234,0.5793655514717102,-0.00012118211452616379
178771873,-0.03453585132956505,-0.47032713890075684,-23.447792053222656,-0.001926617231220007,-0.029189886525273323,-0.0016017141751945019,-0.01978793554008007,-0.03796103596687317,-0.4778062701225281,-0.03810349479317665,-0.4763628840446472,-22.744548797607422,-0.00023698648146819323,0.5793618559837341,-0.00012118211452616379
178781673,-0.03719056397676468,-0.47214940190315247,-23.436370849609375,-0.001912014209665358,-0.029109925031661987,-0.0015566461952403188,-0.01954115927219391,-0.0379316620528698,-0.4776454269886017,-0.03813612833619118,-0.4773269593715668,-22.841569900512695,-0.00026390913990326226,0.5793575644493103,-0.00012118211452616379
178791563,-0.04276888817548752,-0.4954920709133148,-23.443145751953125,-0.001981934765353799,-0.029369831085205078,-0.0017571643693372607,-0.020286519080400467,-0.03806263953447342,-0.4781322777271271,-0.03848850727081299,-0.47958114743232727,-22.934110641479492,-0.0002867749717552215,0.5793538689613342,-0.00012118211452616379
178801684,-0.04577987268567085,-0.5091288685798645,-23.43768882751465,-0.0020985014270991087,-0.029827425256371498,-0.0020690548699349165,-0.021510876715183258,-0.03826695308089256,-0.4789343476295471,-0.03899851441383362,-0.48250797390937805,-23.021516799926758,-0.0003085343923885375,0.5793503522872925,-0.00012118211452616379
178812314,-0.04402419924736023,-0.5012422204017639,-23.4337215423584,-0.002182612195611,-0.030123179778456688,-0.0022784413304179907,-0.022247133776545525,-0.038404665887355804,-0.4794185757637024,-0.0393955372273922,-0.4849666357040405,-23.10991668701172,0.0001012065404211171,0.5794162154197693,-0.00012118211452616379
178822031,-0.03988548368215561,-0.4868742823600769,-23.45298957824707,-0.002189558232203126,-0.03013552725315094,-0.0022947839461266994,-0.02227618359029293,-0.03841545432806015,-0.47943776845932007,-0.039526376873254776,-0.4863508343696594,-23.18886375427246,7.465267117368057e-05,0.5794119834899902,-0.00012118211452616379
178831559,-0.03419080004096031,-0.47631359100341797,-23.45446014404297,-0.002089529298245907,-0.029928555712103844,-0.0020732537377625704,-0.021817810833454132,-0.03826845437288284,-0.47913360595703125,-0.03931429609656334,-0.486914724111557,-23.25705337524414,5.1786839321721345e-05,0.5794082880020142,-0.00012118211452616379
178841594,-0.035504065454006195,-0.471243679523468,-23.44512939453125,-0.002014883328229189,-0.029604289680719376,-0.0019173084292560816,-0.02114037610590458,-0.038164377212524414,-0.4786814749240875,-0.03919277340173721,-0.4872675836086273,-23.32654571533203,2.7445794330560602e-05,0.579404354095459,-0.00012118211452616379
178851578,-0.038388941437006,-0.48946645855903625,-23.447956085205078,-0.0019971716683357954,-0.029622411355376244,-0.001882338896393776,-0.021176153793931007,-0.03814088553190231,-0.478705495595932,-0.03923575207591057,-0.48860007524490356,-23.391895294189453,-3.1649155971535947e-06,0.5793994665145874,-0.00012118211452616379
178861922,-0.038302015513181686,-0.5094991326332092,-23.440292358398438,-0.0019763114396482706,-0.030022067949175835,-0.001843353034928441,-0.02192307449877262,-0.038114503026008606,-0.4792109429836273,-0.03926944360136986,-0.4909643828868866,-23.452638626098633,-2.7505962862051092e-05,0.5793955326080322,-0.00012118211452616379
178871880,-0.042286064475774765,-0.5068238377571106,-23.441455841064453,-0.002037659054622054,-0.030327577143907547,-0.0019520282512530684,-0.022464273497462273,-0.03818865120410919,-0.47958019375801086,-0.03951989859342575,-0.49304842948913574,-23.509422302246094,-5.110940401209518e-05,0.5793917775154114,-0.00012118211452616379
178881686,-0.03846610337495804,-0.4939063787460327,-23.45639419555664,-0.0020130628254264593,-0.030318621546030045,-0.001910681021399796,-0.022449219599366188,-0.038160182535648346,-0.47956982254981995,-0.0395466610789299,-0.4942997992038727,-23.563127517700195,-7.76632732595317e-05,0.5793874859809875,-0.00012118211452616379
178891588,-0.035089537501335144,-0.4720764756202698,-23.460342407226562,-0.0019129012944176793,-0.029801081866025925,-0.0017507454613223672,-0.021622823551297188,-0.038048963993787766,-0.478995144367218,-0.03938516229391098,-0.4942722022533417,-23.613248825073242,-0.00010237312380922958,0.5793834924697876,-0.00012118211452616379
178901650,-0.03090539015829563,-0.4707558751106262,-23.440122604370117,-0.0017198675777763128,-0.02924348972737789,-0.001457732985727489,-0.02077643573284149,-0.03784296661615372,-0.4784001111984253,-0.03900146484375,-0.49414196610450745,-23.658601760864258,-0.00012671416334342211,0.5793796181678772,-0.00012118211452616379
178911830,-0.030670907348394394,-0.49040141701698303,-23.435579299926758,-0.0015263890381902456,-0.02913055196404457,-0.001178368809632957,-0.02061336487531662,-0.03764420747756958,-0.47828409075737,-0.03861972689628601,-0.49504128098487854,-23.70022201538086,-0.00015584965876769274,0.5793749094009399,-0.00012118211452616379
178921845,-0.04039229080080986,-0.5038681030273438,-23.439464569091797,-0.0015666177496314049,-0.02931120991706848,-0.0012336490908637643,-0.020861614495515823,-0.03768405318260193,-0.4784630239009857,-0.0387708805501461,-0.49658674001693726,-23.738698959350586,-0.00017945309809874743,0.5793710947036743,-0.00012118211452616379
178931543,-0.04379573464393616,-0.5048654079437256,-23.44754409790039,-0.0016853768611326814,-0.029482468962669373,-0.0013890130212530494,-0.02108566090464592,-0.03779762238264084,-0.4786267876625061,-0.03909328207373619,-0.49808409810066223,-23.77437400817871,-0.00020637577108573169,0.5793668031692505,-0.00012118211452616379
178941571,-0.04230417311191559,-0.48807185888290405,-23.457551956176758,-0.0017619570717215538,-0.029212120920419693,-0.0014844114193692803,-0.02074887976050377,-0.037868428975343704,-0.4783768057823181,-0.03932124003767967,-0.49860239028930664,-23.807449340820312,-0.0002329296403331682,0.5793625116348267,-0.00012118211452616379
178951563,-0.03985249623656273,-0.47276782989501953,-23.4567813873291,-0.0017735013971105218,-0.028547396883368492,-0.0014981067506596446,-0.019960302859544754,-0.03787876293063164,-0.4777817726135254,-0.03940960019826889,-0.498269647359848,-23.837459564208984,-0.00025505785015411675,0.5793589949607849,-0.00012118211452616379
178961855,-0.03435194119811058,-0.47878238558769226,-23.444461822509766,-0.0016451133415102959,-0.028033385053277016,-0.0013530671130865812,-0.019379625096917152,-0.037767358124256134,-0.47733575105667114,-0.039208825677633286,-0.4982273280620575,-23.863937377929688,-0.000281980523141101,0.5793546438217163,-0.00012118211452616379
178971833,-0.0414355993270874,-0.5018278360366821,-23.44243812561035,-0.0017002795357257128,-0.028100335970520973,-0.001412403304129839,-0.01945163682103157,-0.03781381621956825,-0.47739213705062866,-0.039375532418489456,-0.499327689409256,-23.887554168701172,-0.000313328841002658,0.5793495774269104,-0.00012118211452616379
178981628,-0.04615642502903938,-0.5100681185722351,-23.448062896728516,-0.0018733312608674169,-0.028352543711662292,-0.001589567051269114,-0.019709836691617966,-0.03795542195439339,-0.47759851813316345,-0.03977081552147865,-0.5007616281509399,-23.9088134765625,-0.00033988271025009453,0.5793453454971313,-0.00012118211452616379
178991579,-0.04128731042146683,-0.5029295682907104,-23.448780059814453,-0.0019112591398879886,-0.02838510274887085,-0.0016266719903796911,-0.019741689786314964,-0.037985771894454956,-0.4776245653629303,-0.03990301862359047,-0.5017411708831787,-23.927457809448242,-0.00036901820567436516,0.5793406367301941,-0.00012118211452616379
179001593,-0.03856319934129715,-0.4849311411380768,-23.453771591186523,-0.0018745508277788758,-0.027920283377170563,-0.0015917912824079394,-0.019300011917948723,-0.03795645013451576,-0.4772532880306244,-0.039889879524707794,-0.50173020362854,-23.94341278076172,-0.00040036652353592217,0.579335629940033,-0.00012118211452616379
179012338,-0.03433447331190109,-0.4746721088886261,-23.450319290161133,-0.0017252442194148898,-0.02717624045908451,-0.0014547585742548108,-0.018617132678627968,-0.037837766110897064,-0.4766618609428406,-0.039661817252635956,-0.5012199878692627,-23.96006965637207,1.3431253137241583e-05,0.5794021487236023,-0.00012118211452616379
179021994,-0.036923523992300034,-0.47887447476387024,-23.433940887451172,-0.0016512138536199927,-0.02656257152557373,-0.001388498698361218,-0.018067875877022743,-0.03777892515063286,-0.47617408633232117,-0.039561737328767776,-0.5007437467575073,-23.965721130371094,0.00019414509006310254,0.5794311761856079,-0.00012118211452616379
179031580,-0.03822193294763565,-0.4986456632614136,-23.43297576904297,-0.0016142239328473806,-0.02648673579096794,-0.0013564128894358873,-0.018002094700932503,-0.037749625742435455,-0.47611403465270996,-0.03953363746404648,-0.5013349056243896,-23.972801208496094,0.00017459849186707288,0.5794280171394348,-0.00012118211452616379
179041683,-0.04507624730467796,-0.5067653059959412,-23.44747543334961,-0.0017619570717215538,-0.026613686233758926,-0.001480473205447197,-0.018108703196048737,-0.03786613419651985,-0.47621414065361023,-0.039856698364019394,-0.5022799968719482,-23.97838020324707,0.00016279677220154554,0.5794261693954468,-0.00012118211452616379
179051583,-0.046362314373254776,-0.49383264780044556,-23.44797134399414,-0.0019359710859134793,-0.026368269696831703,-0.001621768344193697,-0.01790943183004856,-0.03800266236066818,-0.47602158784866333,-0.04022999480366707,-0.5024811625480652,-23.98186492919922,0.00012923563190270215,0.5794207453727722,-0.00012118211452616379
179061879,-0.0346030667424202,-0.478949636220932,-23.449731826782227,-0.0017831199802458286,-0.02571680210530758,-0.0015019325073808432,-0.01739867962896824,-0.037883467972278595,-0.4755135774612427,-0.039980992674827576,-0.5018709301948547,-23.983474731445312,0.00010157534416066483,0.5794162750244141,-0.00012118211452616379
179071836,-0.036110248416662216,-0.47495999932289124,-23.450380325317383,-0.0016770336078479886,-0.02497023157775402,-0.0014219308504834771,-0.01683567650616169,-0.037801843136548996,-0.47493913769721985,-0.03981650620698929,-0.501042366027832,-23.983213424682617,8.719199831830338e-05,0.5794140100479126,-0.00012118211452616379
179081699,-0.039670661091804504,-0.4868720769882202,-23.44090461730957,-0.0016721559222787619,-0.024564135819673538,-0.001418404863215983,-0.016542116180062294,-0.037798184901475906,-0.4746345281600952,-0.03983815386891365,-0.5008165240287781,-23.980533599853516,6.174454028951004e-05,0.5794098973274231,-0.00012118211452616379
179091558,-0.041173480451107025,-0.5052992701530457,-23.430789947509766,-0.001708795316517353,-0.0246761292219162,-0.0014438483631238341,-0.016619889065623283,-0.037825003266334534,-0.47471651434898376,-0.039933327585458755,-0.5015085339546204,-23.975557327270508,3.7772297218907624e-05,0.5794060230255127,-0.00012118211452616379
179101615,-0.042399853467941284,-0.5121684074401855,-23.443368911743164,-0.0017779952613636851,-0.024965519085526466,-0.0014901015674695373,-0.01681331731379032,-0.03787447512149811,-0.47492340207099915,-0.04008473455905914,-0.5024867653846741,-23.9696044921875,6.055177891539643e-06,0.5794009566307068,-0.00012118211452616379
179111860,-0.03715192899107933,-0.5001139044761658,-23.459835052490234,-0.0016933884471654892,-0.02488555572926998,-0.0014355750754475594,-0.01676178351044655,-0.03781535103917122,-0.4748675227165222,-0.03995697200298309,-0.5027649998664856,-23.962984085083008,-1.828586755436845e-05,0.5793970227241516,-0.00012118211452616379
179121898,-0.033232007175683975,-0.4760340750217438,-23.463441848754883,-0.001499093254096806,-0.024104483425617218,-0.0013146562268957496,-0.016275685280561447,-0.037682536989450455,-0.47433361411094666,-0.03963121399283409,-0.5017590522766113,-23.955121994018555,-3.820127312792465e-05,0.5793938040733337,-0.00012118211452616379
179131581,-0.03203985095024109,-0.46820124983787537,-23.459850311279297,-0.0012790124164894223,-0.023123737424612045,-0.0011822173837572336,-0.01568549871444702,-0.03753527253866196,-0.4736773669719696,-0.039257198572158813,-0.5003639459609985,-23.945762634277344,-6.475514237536117e-05,0.5793895721435547,-0.00012118211452616379
179141675,-0.03928079083561897,-0.4757343828678131,-23.448333740234375,-0.0012794535141438246,-0.022401059046387672,-0.0011824743123725057,-0.01526452787220478,-0.03753556311130524,-0.4732036888599396,-0.03926635533571243,-0.4993835687637329,-23.934629440307617,-9.13090116227977e-05,0.5793852806091309,-0.00012118211452616379
179151553,-0.04400031641125679,-0.49610888957977295,-23.431800842285156,-0.0014166627079248428,-0.02229909971356392,-0.001259908895008266,-0.015206987038254738,-0.037623707205057144,-0.4731381833553314,-0.03951062262058258,-0.4994451105594635,-23.921611785888672,-0.00011048680607927963,0.5793821811676025,-0.00012118211452616379
179161944,-0.04512634873390198,-0.5036580562591553,-23.4387264251709,-0.0015792576596140862,-0.02241533435881138,-0.001348863122984767,-0.015270577743649483,-0.03772614151239395,-0.473211407661438,-0.03979625552892685,-0.4998477101325989,-23.908035278320312,-0.00013704066805075854,0.5793779492378235,-0.00012118211452616379
179171840,-0.04047202691435814,-0.5007722973823547,-23.460453033447266,-0.001598645350895822,-0.02243718132376671,-0.0013591491151601076,-0.015282168053090572,-0.0377381257712841,-0.4732249081134796,-0.0398341603577137,-0.5000535249710083,-23.894699096679688,-0.00016322573355864733,0.5793737173080444,-0.00012118211452616379
179181633,-0.032087113708257675,-0.4825648069381714,-23.46097183227539,-0.0013758050044998527,-0.02193043753504753,-0.0012444910826161504,-0.015021433122456074,-0.037602879106998444,-0.4729173481464386,-0.039457645267248154,-0.49932554364204407,-23.880577087402344,-0.00018830438784789294,0.5793697237968445,-0.00012118211452616379
179191584,-0.028309768065810204,-0.47031858563423157,-23.444997787475586,-0.001057289307937026,-0.021098807454109192,-0.0010855860309675336,-0.014606539160013199,-0.037412989884614944,-0.4724215567111969,-0.03891744464635849,-0.49801477789878845,-23.864948272705078,-0.00021448945335578173,0.5793654918670654,-0.00012118211452616379
179201621,-0.03457031771540642,-0.4743351638317108,-23.431310653686523,-0.000934212061110884,-0.02042575739324093,-0.0010260817361995578,-0.014281138777732849,-0.03734087571501732,-0.4720272123813629,-0.038703519850969315,-0.49693766236305237,-23.848041534423828,-0.00024104332260321826,0.5793612003326416,-0.00012118211452616379
179212304,-0.034228358417749405,-0.4941018521785736,-23.431659698486328,-0.0008084969012998044,-0.020345553755760193,-0.0009676076006144285,-0.014243833720684052,-0.037268560379743576,-0.47198107838630676,-0.03848288580775261,-0.49681615829467773,-23.830724716186523,0.00017422968812752515,0.57942795753479,-0.00012118211452616379
179222092,-0.03646684065461159,-0.5098289847373962,-23.44598960876465,-0.0007526693516410887,-0.020708948373794556,-0.0009424968739040196,-0.014407285489141941,-0.03723696246743202,-0.47218674421310425,-0.03837753087282181,-0.49739184975624084,-23.81330108642578,0.0005751193384639919,0.579492449760437,-0.00012118211452616379
179231571,-0.032973192632198334,-0.5026565790176392,-23.462909698486328,-0.0006043774192221463,-0.020855100825428963,-0.0008776654722169042,-0.01447118166834116,-0.03715420514345169,-0.47226831316947937,-0.03812064230442047,-0.4975833594799042,-23.796371459960938,0.0005607359926216304,0.5794901251792908,-0.00012118211452616379
