TimeUS,PLX,PLY,PLZ,AX,AY,BX,BY,CX,CY,F,P,X,Y,SW
229347763,0.09257499873638153,0.16714216768741608,-23.531326293945312,-0.00019966000400017947,-0.0011978551046922803,0.0004672000650316477,-0.001118871965445578,0.09204961359500885,0.15897242724895477,0.5794000029563904,0.0,83.02677154541016,84.83960723876953,0
229357769,0.08902402222156525,0.15943889319896698,-23.534088134765625,-0.00021229151752777398,-0.0011933153728023171,0.00035998228122480214,-0.0010803386103361845,0.09199406206607819,0.15899239480495453,0.5794000029563904,0.0,83.1557388305664,84.82403564453125,0
229367964,0.08632776141166687,0.15769170224666595,-23.53313636779785,-0.00023733431589789689,-0.0011953182984143496,0.00017980339180212468,-0.0010947496630251408,0.0919007807970047,0.1589849293231964,0.5794000029563904,0.0,83.54535675048828,84.82979583740234,0
229377630,0.0880013033747673,0.15991289913654327,-23.520788192749023,-0.00025656065554358065,-0.0011868750443682075,6.0210379160707816e-05,-0.0010422306368127465,0.09183886647224426,0.15901212394237518,0.5794000029563904,0.0,83.96318817138672,84.80888366699219,0
229387932,0.09349659830331802,0.15805965662002563,-23.52118492126465,-0.00024842718266882,-0.0011872637551277876,0.00010461969213793054,-0.001044353237375617,0.09186187386512756,0.15901102125644684,0.5794000029563904,0.0,83.79511260986328,84.80973052978516,0
229397601,0.09243974089622498,0.15727253258228302,-23.52484703063965,-0.0002458533854223788,-0.0011919038370251656,0.00011710021499311551,-0.0010668536415323615,0.09186834841966629,0.15899935364723206,0.5794000029563904,0.0,83.74919128417969,84.81837463378906,0
229407717,0.0977165549993515,0.15881448984146118,-23.530858993530273,-0.00021024784655310214,-0.0011868569999933243,0.00027184782084077597,-0.001044919015839696,0.09194882959127426,0.15901076793670654,0.5794000029563904,0.0,83.28121948242188,84.81016540527344,0
229418380,0.09697876870632172,0.15833662450313568,-23.535888671875,-0.00017793409642763436,-0.0011844879481941462,0.00039748926064930856,-0.0010357076535001397,0.09201441705226898,0.15901558101177216,0.5794000029563904,0.0,83.0438003540039,84.8067626953125,0
229427753,0.09576161950826645,0.1617680788040161,-23.530927658081055,-0.00015374433132819831,-0.00115703244227916,0.0004838428576476872,-0.000937695789616555,0.0920596718788147,0.15906694531440735,0.5794000029563904,0.0,82.93057250976562,84.76934814453125,0
229437872,0.09555049240589142,0.16082026064395905,-23.522626876831055,-0.00013052891881670803,-0.0011358731426298618,0.0005595549591816962,-0.0008686892106197774,0.09209956228733063,0.15910330414772034,0.5794000029563904,0.0,82.85208129882812,84.74117279052734,0
229447733,0.09492377191781998,0.15786349773406982,-23.522939682006836,-0.00011191223165951669,-0.0011381267104297876,0.0006152735440991819,-0.0008754338487051427,0.09212910383939743,0.1590997278690338,0.5794000029563904,0.0,82.8028335571289,84.74394989013672,0
229457603,0.09390705078840256,0.16035014390945435,-23.52861976623535,-0.00010171202302444726,-0.0011186159681528807,0.0006433934322558343,-0.0008216465939767659,0.09214412420988083,0.15912845730781555,0.5794000029563904,0.0,82.77970123291016,84.7218017578125,0
229467883,0.09206523001194,0.16594064235687256,-23.536048889160156,-0.00010805777128553018,-0.0010476824827492237,0.0006272318423725665,-0.0006409906200133264,0.09213541448116302,0.15922582149505615,0.5794000029563904,0.0,82.79351806640625,84.63734436035156,0
229477625,0.09056290239095688,0.16530098021030426,-23.535181045532227,-0.00012872737715952098,-0.000981779769062996,0.0005784716922789812,-0.0004855241859331727,0.09210886806249619,0.1593104600906372,0.5794000029563904,0.0,82.84188079833984,84.54754638671875,0
229488146,0.09146115183830261,0.1600799262523651,-23.523574829101562,-0.00014058062515687197,-0.0009670003200881183,0.0005526987370103598,-0.0004533887258730829,0.09209465980529785,0.1593281775712967,0.5794000029563904,0.0,82.87198638916016,84.5267105102539,0
229497613,0.09200700372457504,0.1538044959306717,-23.51945686340332,-0.0001466464455006644,-0.001017240108922124,0.0005403026007115841,-0.0005560587160289288,0.09208773076534271,0.159270778298378,0.5794000029563904,0.0,82.88794708251953,84.58853912353516,0
229507645,0.08992047607898712,0.16067640483379364,-23.520763397216797,-0.00017518184904474765,-0.0009929946390911937,0.0004853398713748902,-0.0005093590007163584,0.09205630421638489,0.15929748117923737,0.5794000029563904,0.0,82.96930694580078,84.56224060058594,0
229517862,0.08788309246301651,0.16231918334960938,-23.526826858520508,-0.00022645322314929217,-0.0009499918087385595,0.00039215723518282175,-0.00043120398186147213,0.09200179576873779,0.1593431979417801,0.5794000029563904,0.0,83.14659118652344,84.5143814086914,0
229527750,0.09529531747102737,0.1599462926387787,-23.5341739654541,-0.00019150743901263922,-0.0009342789417132735,0.00045214948477223516,-0.0004042293003294617,0.09203772246837616,0.15935935080051422,0.5794000029563904,0.0,83.02355194091797,84.49662780761719,0
229537869,0.09464366734027863,0.15733346343040466,-23.5322322845459,-0.00016434361168649048,-0.0009495958220213652,0.0004962284001521766,-0.000429084146162495,0.0920647531747818,0.15934410691261292,0.5794000029563904,0.0,82.9427261352539,84.51268005371094,0
229547791,0.09106194227933884,0.15787610411643982,-23.521684646606445,-0.0001813301059883088,-0.0009578302851878107,0.00047016519238241017,-0.0004417187301442027,0.09204836934804916,0.1593361645936966,0.5794000029563904,0.0,82.99100494384766,84.52037811279297,0
229557566,0.08914262056350708,0.1633685827255249,-23.519472122192383,-0.00022234288917388767,-0.0008960967534221709,0.0004106441920157522,-0.0003521260805428028,0.0920100063085556,0.15939390659332275,0.5794000029563904,0.0,83.1191635131836,84.46269989013672,0
229567936,0.08905655890703201,0.16013933718204498,-23.520404815673828,-0.00026446583797223866,-0.0008763575460761786,0.00035325641511008143,-0.00032523361733183265,0.09197226166725159,0.15941159427165985,0.5794000029563904,0.0,83.26554870605469,84.44364929199219,0
229577605,0.08965826034545898,0.15494611859321594,-23.523073196411133,-0.0002982763107866049,-0.0009272809256799519,0.00030996676650829613,-0.0003904339682776481,0.09194323420524597,0.1593678742647171,0.5794000029563904,0.0,83.38909149169922,84.48680877685547,0
229587951,0.09226822853088379,0.1509627103805542,-23.528461456298828,-0.0002949354238808155,-0.0010342361638322473,0.00031399712315760553,-0.0005194618715904653,0.09194599092006683,0.1592796891927719,0.5794000029563904,0.0,83.37701416015625,84.55374908447266,0
229597640,0.09131227433681488,0.16417169570922852,-23.529850006103516,-0.00030532822711393237,-0.000947832188103348,0.00030215911101549864,-0.0004210426995996386,0.09193774312734604,0.1593482345342636,0.5794000029563904,0.0,83.41352081298828,84.5063247680664,0
229607694,0.0900534838438034,0.1706157773733139,-23.524946212768555,-0.00033431040355935693,-0.0007650033803656697,0.00027093346579931676,-0.00022406144125852734,0.09191558510065079,0.1594880223274231,0.5794000029563904,0.0,83.51263427734375,84.37321472167969,0
229618463,0.09377720206975937,0.16018033027648926,-23.517894744873047,-0.00030537700513377786,-0.0007439939072355628,0.00030028927722014487,-0.00020274521375540644,0.0919368714094162,0.15950347483158112,0.5794000029563904,0.0,83.41670227050781,84.35433959960938,0
229627827,0.09138365834951401,0.15422551333904266,-23.517955780029297,-0.00031431668321602046,-0.0008167863124981523,0.0002916287921834737,-0.00027326418785378337,0.09193049371242523,0.15945151448249817,0.5794000029563904,0.0,83.44572448730469,84.41114807128906,0
229637908,0.09643672406673431,0.16240185499191284,-23.528005599975586,-0.00024175294674932957,-0.0007570813177153468,0.00035841140197589993,-0.00021831585036125034,0.09198064357042313,0.15949277579784393,0.5794000029563904,0.0,83.21631622314453,84.3690414428711,0
229647791,0.09974285215139389,0.17123959958553314,-23.532529830932617,-0.00011543706932570785,-0.0005526805762201548,0.0004684174491558224,-4.0307186282007024e-05,0.09206531196832657,0.15962979197502136,0.5794000029563904,0.0,82.8645248413086,84.16109466552734,0
229657624,0.0918661579489708,0.1639994978904724,-23.52850914001465,-0.0001225264568347484,-0.0004716381663456559,0.0004626020381692797,2.617189966258593e-05,0.09206069260835648,0.15968263149261475,0.5794000029563904,0.0,82.88182067871094,84.0328598022461,0
229667912,0.08467434346675873,0.15504178404808044,-23.52263641357422,-0.00025315614766441286,-0.0005455641075968742,0.0003615674504544586,-3.1005572964204475e-05,0.09197764843702316,0.15963563323020935,0.5794000029563904,0.0,83.23373413085938,84.14506530761719,0
229677637,0.08848100900650024,0.15183335542678833,-23.518299102783203,-0.00031488650711253285,-0.0006747083971276879,0.0003165279049426317,-0.0001252314541488886,0.0919392853975296,0.1595553755760193,0.5794000029563904,0.0,83.40570068359375,84.27181243896484,0
229688119,0.09154100716114044,0.15961752831935883,-23.520326614379883,-0.00032062194077298045,-0.0006623771623708308,0.0003126045339740813,-0.00011679615272441879,0.09193579852581024,0.1595628708600998,0.5794000029563904,0.0,83.42095947265625,84.26282501220703,0
229697641,0.09193727374076843,0.16247306764125824,-23.528324127197266,-0.0003187857801094651,-0.0005982698639854789,0.0003137974417768419,-7.514772732974961e-05,0.09193689376115799,0.15960119664669037,0.5794000029563904,0.0,83.41618347167969,84.21324157714844,0
229707698,0.0896993950009346,0.15850913524627686,-23.525840759277344,-0.0003578703326638788,-0.0006081986939534545,0.00028985177050344646,-8.12307553132996e-05,0.09191390126943588,0.15959535539150238,0.5794000029563904,0.0,83.51292419433594,84.22106170654297,0
229717933,0.09017455577850342,0.15051309764385223,-23.52637481689453,-0.0003869747160933912,-0.0007664940785616636,0.0002730551641434431,-0.00017258553998544812,0.09189701825380325,0.1595035344362259,0.5794000029563904,0.0,83.57920837402344,84.30975341796875,0
229727793,0.08684683591127396,0.15264223515987396,-23.529176712036133,-0.0004775573324877769,-0.0008809524006210268,0.00022388216166291386,-0.00023471949680242687,0.09184511005878448,0.15943793952465057,0.5794000029563904,0.0,83.75531005859375,84.34867095947266,0
229737917,0.0902465358376503,0.15681061148643494,-23.524173736572266,-0.0005013141199015081,-0.0009136173757724464,0.00021177766029722989,-0.00025136288604699075,0.09183163195848465,0.15941941738128662,0.5794000029563904,0.0,83.79399108886719,84.35676574707031,0
229747806,0.09042360633611679,0.1623765081167221,-23.522459030151367,-0.0005207948852330446,-0.0008395810145884752,0.0002024895657086745,-0.00021606363588944077,0.09182067960500717,0.15946105122566223,0.5794000029563904,0.0,83.8228759765625,84.34016418457031,0
229757545,0.08858407288789749,0.1587497889995575,-23.526084899902344,-0.000574520614463836,-0.0008367022383026779,0.00017860694788396358,-0.0002147839404642582,0.09179067611694336,0.15946266055107117,0.5794000029563904,0.0,83.89228820800781,84.33956146240234,0
229767963,0.08904219418764114,0.1615438461303711,-23.5231990814209,-0.0006176487659104168,-0.0007805124041624367,0.00016082121874205768,-0.00019161167438142002,0.09176671504974365,0.15949387848377228,0.5794000029563904,0.0,83.93897247314453,84.32901763916016,0
229777620,0.09462239593267441,0.16539065539836884,-23.519651412963867,-0.0005526516470126808,-0.0006525855278596282,0.00018553834524936974,-0.00014296360313892365,0.0918026864528656,0.15956467390060425,0.5794000029563904,0.0,83.86978912353516,84.30394744873047,0
229787957,0.09480281174182892,0.1604064702987671,-23.518190383911133,-0.0004860891785938293,-0.0006238026544451714,0.0002086923341266811,-0.0001329513906966895,0.09183943271636963,0.1595805585384369,0.5794000029563904,0.0,83.78815460205078,84.29827117919922,0
229797594,0.09568490833044052,0.14979757368564606,-23.51555061340332,-0.0004047629772685468,-0.0007976758060976863,0.0002343078813282773,-0.00018771672330331057,0.09188428521156311,0.15948466956615448,0.5794000029563904,0.0,83.6689453125,84.31940460205078,0
229807725,0.08985503762960434,0.15509337186813354,-23.517637252807617,-0.00043639636714942753,-0.0008653224795125425,0.00022540285135619342,-0.00020675976702477783,0.09186683595180511,0.15944735705852509,0.5794000029563904,0.0,83.7169189453125,84.32282257080078,0
229818482,0.08801688998937607,0.16333924233913422,-23.521493911743164,-0.0005013156333006918,-0.000775363587308675,0.0002096050448017195,-0.00018486869521439075,0.09183099120855331,0.15949702262878418,0.5794000029563904,0.0,83.79766845703125,84.32234191894531,0
229827775,0.08994349092245102,0.16497232019901276,-23.51866340637207,-0.0005276738083921373,-0.0006582192145287991,0.00020402159134391695,-0.0001600539981154725,0.09181638807058334,0.1595619171857834,0.5794000029563904,0.0,83.82475280761719,84.32681274414062,0
229837905,0.09435772895812988,0.15404298901557922,-23.51652717590332,-0.00047101484960876405,-0.0007482062792405486,0.00021395501971710473,-0.00017583051521796733,0.09184789657592773,0.15951187908649445,0.5794000029563904,0.0,83.76731872558594,84.319091796875,0
229847777,0.092164546251297,0.1502271145582199,-23.520797729492188,-0.0004566523712128401,-0.0009049947839230299,0.00021592913253698498,-0.00019738104310818017,0.09185592085123062,0.15942426025867462,0.5794000029563904,0.0,83.75199890136719,84.30301666259766,0
229857714,0.09225459396839142,0.15793833136558533,-23.518280029296875,-0.000441062351455912,-0.0009155923034995794,0.0002174567780457437,-0.00019841946777887642,0.0918646827340126,0.15941829979419708,0.5794000029563904,0.0,83.73564147949219,84.30168914794922,0
229867942,0.09151096642017365,0.16072718799114227,-23.51265525817871,-0.00043932354310527444,-0.0008757738978601992,0.00021755574562121183,-0.00019615323981270194,0.0918656662106514,0.15944084525108337,0.5794000029563904,0.0,83.73389434814453,84.3086166381836,0
229877679,0.0967046245932579,0.15755371749401093,-23.51338005065918,-0.00034531118581071496,-0.0008940674597397447,0.0002188659564126283,-0.00019640818936750293,0.09191931784152985,0.1594303995370865,0.5794000029563904,0.0,83.6287841796875,84.30451965332031,0
229888123,0.09166113287210464,0.1570940613746643,-23.525630950927734,-0.0003433656529523432,-0.0009198493207804859,0.0002187985082855448,-0.00019551430887077004,0.09192043542861938,0.15941555798053741,0.5794000029563904,0.0,83.6263656616211,84.2977066040039,0
229897562,0.09386174380779266,0.16103287041187286,-23.52680206298828,-0.00030341887031681836,-0.0008767624967731535,0.00021579560416284949,-0.0001987532596103847,0.09194365888834,0.15944060683250427,0.5794000029563904,0.0,83.57549285888672,84.31119537353516,0
229907725,0.09738694131374359,0.16387805342674255,-23.519556045532227,-0.00020518987730611116,-0.0007873936556279659,0.00020388458506204188,-0.00020958992536179721,0.09200137853622437,0.1594931185245514,0.5794000029563904,0.0,83.4114990234375,84.34841918945312,0
229917901,0.09717004001140594,0.1622970849275589,-23.517608642578125,-0.00011477495718281716,-0.000728549319319427,0.0001886564859887585,-0.00021950076916255057,0.09205511957406998,0.15952809154987335,0.5794000029563904,0.0,83.16947174072266,84.38090515136719,0
229927771,0.09111905097961426,0.1564948558807373,-23.52014923095703,-0.00012749659072142094,-0.0007676769746467471,0.00019141619850415736,-0.0002110127970809117,0.09204746037721634,0.15950454771518707,0.5794000029563904,0.0,83.21050262451172,84.35651397705078,0
229937868,0.0832643136382103,0.15683884918689728,-23.526432037353516,-0.0002657483273651451,-0.0007997252978384495,0.0002283382200403139,-0.00020245385530870408,0.09196313470602036,0.15948499739170074,0.5794000029563904,0.0,83.48388671875,84.33621215820312,0
229947787,0.08312861621379852,0.16639621555805206,-23.530879974365234,-0.00039953997475095093,-0.0006802278221584857,0.000271000899374485,-0.00024055849644355476,0.09188035875558853,0.15955893695354462,0.5794000029563904,0.0,83.59770965576172,84.42818450927734,0
229957571,0.08781129866838455,0.16626077890396118,-23.525598526000977,-0.00045482779387384653,-0.0005688652745448053,0.00029160690610297024,-0.0002820638183038682,0.09184562414884567,0.15962889790534973,0.5794000029563904,0.0,83.62358856201172,84.54857635498047,0
229967903,0.09557853639125824,0.1537523865699768,-23.515522003173828,-0.00039088877383619547,-0.0006507984944619238,0.00026418035849928856,-0.0002469186729285866,0.09188644587993622,0.15957657992839813,0.5794000029563904,0.0,83.59938049316406,84.45089721679688,0
229977661,0.09657276421785355,0.14832711219787598,-23.507461547851562,-0.0003156970487907529,-0.0008079358376562595,0.00022750618518330157,-0.00017027618014253676,0.09193529188632965,0.15947449207305908,0.5794000029563904,0.0,83.56925964355469,84.29598236083984,0
229987937,0.09270671755075455,0.15695178508758545,-23.51447868347168,-0.0002992976224049926,-0.0008346737013198435,0.000218491637497209,-0.00015557871665805578,0.09194614738225937,0.15945680439472198,0.5794000029563904,0.0,83.56311798095703,84.27254486083984,0
229997637,0.08956705033779144,0.16234879195690155,-23.525102615356445,-0.0003269423032179475,-0.0007860087789595127,0.00023549687466584146,-0.0001855142618296668,0.09192748367786407,0.15948964655399323,0.5794000029563904,0.0,83.5694808959961,84.3200454711914,0
230007724,0.0869303047657013,0.15499962866306305,-23.529300689697266,-0.0003880574950017035,-0.0008381392108276486,0.00027733008028008044,-0.00014983110304456204,0.09188535064458847,0.15945370495319366,0.5794000029563904,0.0,83.57320404052734,84.26516723632812,0
230018429,0.09215328842401505,0.1502278745174408,-23.524682998657227,-0.00037852779496461153,-0.0009483830654062331,0.00027002260321751237,-6.529489473905414e-05,0.09189208596944809,0.15937578678131104,0.5794000029563904,0.0,83.5740737915039,84.15701293945312,0
230027791,0.09752333164215088,0.15550774335861206,-23.51679229736328,-0.00030322710517793894,-0.0009871532674878836,0.00020692682301159948,-3.2808609830681235e-05,0.09194650501012802,0.1593477725982666,0.5794000029563904,0.0,83.59487915039062,84.12149810791016,0
230037915,0.0971788763999939,0.16376373171806335,-23.510581970214844,-0.00023686538042966276,-0.0009258357458747923,0.0001456288737244904,-8.944723958848044e-05,0.09199574589729309,0.15939326584339142,0.5794000029563904,0.0,83.64246368408203,84.18458557128906,0
230047714,0.09549766778945923,0.1571333110332489,-23.516685485839844,-0.00019404690829105675,-0.0009440858848392963,0.00010207844752585515,-7.088514394126832e-05,0.09202843904495239,0.15937933325767517,0.5794000029563904,0.0,83.70943450927734,84.16321563720703,0
230057663,0.0875672772526741,0.15261684358119965,-23.52254867553711,-0.00023995869560167193,-0.0010101188672706485,0.0001534607436042279,3.0158200843288796e-06,0.09199227392673492,0.15932731330394745,0.5794000029563904,0.0,83.62472534179688,84.08528900146484,0
230067951,0.08584541827440262,0.15176434814929962,-23.51924705505371,-0.0003001574077643454,-0.001080268993973732,0.00022761030413676053,8.942293061409146e-05,0.09194321185350418,0.15927013754844666,0.5794000029563904,0.0,83.54491424560547,84.00568389892578,0
230077654,0.08941331505775452,0.15896576642990112,-23.515832901000977,-0.0003210827708244324,-0.0010753676760941744,0.00025601190282031894,8.277049346361309e-05,0.09192550182342529,0.15927428007125854,0.5794000029563904,0.0,83.52059173583984,84.01145935058594,0
230088052,0.0940135270357132,0.16295236349105835,-23.51668930053711,-0.00029848117264918983,-0.00103501055855304,0.00022178945073392242,2.166338890674524e-05,0.09194552898406982,0.15931002795696259,0.5794000029563904,0.0,83.5546646118164,84.06735229492188,0
230097617,0.09277331829071045,0.160489022731781,-23.516448974609375,-0.0002883412525989115,-0.001019202172756195,0.00020497785590123385,-4.546353920886759e-06,0.09195489436388016,0.15932463109493256,0.5794000029563904,0.0,83.57571411132812,84.09274291992188,0
230107697,0.09170395135879517,0.15486478805541992,-23.516679763793945,-0.00028765216120518744,-0.0010496811009943485,0.00020370841957628727,5.160179716767743e-05,0.09195556491613388,0.159294992685318,0.5794000029563904,0.0,83.5775146484375,84.0391616821289,0
230117938,0.09094811975955963,0.1596817970275879,-23.523544311523438,-0.00029258770518936217,-0.0010421138722449541,0.00021385929721873254,3.6038349207956344e-05,0.09195047616958618,0.15930278599262238,0.5794000029563904,0.0,83.56253051757812,84.0537109375,0
230127802,0.0921998918056488,0.1632814258337021,-23.52475929260254,-0.00028865403146483004,-0.0010115073528140783,0.0002047667367151007,-3.47077329934109e-05,0.091954804956913,0.15933649241924286,0.5794000029563904,0.0,83.57671356201172,84.1225814819336,0
230137879,0.09477443993091583,0.15784679353237152,-23.519704818725586,-0.0002696425362955779,-0.0010175363859161735,0.00015497578715439886,-1.8917888155556284e-05,0.09197739511728287,0.15932932496070862,0.5794000029563904,0.0,83.67206573486328,84.10687255859375,0
230147808,0.09929405897855759,0.1548127979040146,-23.509201049804688,-0.00022869533859193325,-0.001039349939674139,3.214727985323407e-05,4.651593917515129e-05,0.09203053265810013,0.1593010127544403,0.5794000029563904,0.0,84.0540542602539,84.0435562133789,0
230157544,0.09982481598854065,0.15366868674755096,-23.51336669921875,-0.0001910985738504678,-0.0010636362712830305,-9.891246008919552e-05,0.00013117659545969218,0.09208466857671738,0.15926603972911835,0.5794000029563904,0.0,84.67133331298828,83.965576171875,0
230167919,0.09600314497947693,0.15343306958675385,-23.521818161010742,-0.00017515126091893762,-0.0010851245606318116,-0.00016475230222567916,0.00021989262313582003,0.09211067855358124,0.15923099219799042,0.5794000029563904,0.0,84.94851684570312,83.88835144042969,0
230177596,0.09892421960830688,0.154626727104187,-23.52339744567871,-0.0001522085367469117,-0.0010986999841406941,-0.00027999162557534873,0.00028808071510866284,0.09215427190065384,0.15920519828796387,0.5794000029563904,0.0,85.26657104492188,83.83185577392578,0
230187986,0.09611526876688004,0.15180028975009918,-23.52425193786621,-0.00014195533003658056,-0.001117135863751173,-0.00034521223278716207,0.0004053512529935688,0.09217793494462967,0.15916264057159424,0.5794000029563904,0.0,85.3743667602539,83.7402114868164,0
230197603,0.09532342106103897,0.15774741768836975,-23.51668357849121,-0.00013608105655293912,-0.0011185206240043044,-0.00039562382153235376,0.00041723522008396685,0.09219551086425781,0.15915849804878235,0.5794000029563904,0.0,85.43321228027344,83.73124694824219,0
230207712,0.09632628411054611,0.16191090643405914,-23.511146545410156,-0.00013090399443171918,-0.0011137807741761208,-0.0004630949115380645,0.0003554615250322968,0.09221814572811127,0.159179225564003,0.5794000029563904,0.0,85.489013671875,83.77935028076172,0
230218492,0.09751652181148529,0.16001160442829132,-23.510581970214844,-0.0001279081916436553,-0.0011128907790407538,-0.000551002100110054,0.0003293465415481478,0.09224648028612137,0.15918764472007751,0.5794000029563904,0.0,85.5363998413086,83.80055236816406,0
230227747,0.09109856933355331,0.15886667370796204,-23.518930435180664,-0.00012790653272531927,-0.0011128910118713975,-0.0005209658411331475,0.00032503248075954616,0.09223709255456924,0.15918898582458496,0.5794000029563904,0.0,85.52374267578125,83.80412292480469,0
230237923,0.09165925532579422,0.15897321701049805,-23.525022506713867,-0.00012718090147245675,-0.0011130961356684566,-0.0005015187198296189,0.00031953465077094734,0.09223120659589767,0.15919065475463867,0.5794000029563904,0.0,85.51614379882812,83.80873107910156,0
230247720,0.09307857602834702,0.16046519577503204,-23.530784606933594,-0.00012768071610480547,-0.0011154650710523129,-0.0005082665593363345,0.0002875532954931259,0.09223318845033646,0.159200057387352,0.5794000029563904,0.0,85.51838684082031,83.83599090576172,0
230257674,0.09736005961894989,0.1622777283191681,-23.52477264404297,-0.000137058348627761,-0.0011225088965147734,-0.0005932474741712213,0.00022372117382474244,0.09225747734308243,0.15921829640865326,0.5794000029563904,0.0,85.5374526977539,83.89155578613281,0
230267943,0.09495902061462402,0.1532871276140213,-23.518117904663086,-0.00014275193098001182,-0.001107382820919156,-0.0006321344990283251,0.0003270319430157542,0.09226831793785095,0.15918949246406555,0.5794000029563904,0.0,85.54239654541016,83.8011245727539,0
230277580,0.08781422674655914,0.15361957252025604,-23.51700210571289,-0.00012577234883792698,-0.0010899844346567988,-0.000538982858415693,0.00042248115641996264,0.09224292635917664,0.1591634750366211,0.5794000029563904,0.0,85.53524780273438,83.718505859375,0
230288052,0.08886687457561493,0.16320033371448517,-23.519628524780273,-0.00010988226858898997,-0.0011080486001446843,-0.0004673138028010726,0.00034100611810572445,0.09222380071878433,0.15918521583080292,0.5794000029563904,0.0,85.53355407714844,83.78972625732422,0
230297546,0.08997444063425064,0.1647481769323349,-23.520326614379883,-9.729557496029884e-05,-0.0011351570719853044,-0.00041778464219532907,0.00023433320166077465,0.0922107845544815,0.15921325981616974,0.5794000029563904,0.0,85.53569030761719,83.88470458984375,0
230307699,0.09136827290058136,0.1624329686164856,-23.51508903503418,-9.063896868610755e-05,-0.0011528533650562167,-0.0003948684025090188,0.00017341141938231885,0.09220483899116516,0.15922905504703522,0.5794000029563904,0.0,85.53886413574219,83.93898010253906,0
230317883,0.09576211869716644,0.15767696499824524,-23.522607803344727,-0.00010916949395323172,-0.0011439878726378083,-0.00045150326332077384,0.00020050712919328362,0.09221936762332916,0.1592220962047577,0.5794000029563904,0.0,85.52725982666016,83.9147720336914,0
230327813,0.0960046648979187,0.16304995119571686,-23.528213500976562,-0.00013070565182715654,-0.0011689832899719477,-0.0005105778109282255,0.00013194384519010782,0.09223441779613495,0.15923956036567688,0.5794000029563904,0.0,85.51388549804688,83.97588348388672,0
230337918,0.09439750015735626,0.15884532034397125,-23.523601531982422,-0.00014229088264983147,-0.0011655861744657159,-0.0005393527681007981,0.00014038135122973472,0.09224171936511993,0.15923741459846497,0.5794000029563904,-10008549.0,-10008463.0,-10008465.0,0
230347796,0.09327061474323273,0.1540931612253189,-23.52138900756836,-0.00014941641711629927,-0.0010854119900614023,-0.0005470820469781756,0.0002273487625643611,0.0922442302107811,0.15920914709568024,0.5794000029563904,-10008549.0,80.0,78.0,0
230357590,0.09164796024560928,0.15385860204696655,-23.528764724731445,-0.000133807014208287,-0.0010052326833829284,-0.0005301500204950571,0.000314321689074859,0.09223872423171997,0.1591808795928955,0.5794000029563904,-10008549.0,80.01937866210938,77.9034194946289,0
230367899,0.09025216102600098,0.15807987749576569,-23.531721115112305,-9.979557944461703e-05,-0.000985757913440466,-0.0004932567826472223,0.0003354466171003878,0.09222672879695892,0.15917401015758514,0.5794000029563904,-10008549.0,80.06698608398438,77.87847137451172,0
230377630,0.0910491943359375,0.1608055830001831,-23.530502319335938,-7.781184831401333e-05,-0.00100364547688514,-0.0004694103554356843,0.00031604344258084893,0.09221898019313812,0.15918031334877014,0.5794000029563904,-10008549.0,80.10234069824219,77.90140533447266,0
230387939,0.09398332238197327,0.1553824096918106,-23.522642135620117,-9.55126597546041e-05,-0.0009490534430369735,-0.0004886109381914139,0.00037526109372265637,0.09222522377967834,0.1591610610485077,0.5794000029563904,-10008549.0,80.07357025146484,77.8299331665039,0
230397591,0.09666244685649872,0.15553559362888336,-23.513408660888672,-0.00014752532297279686,-0.000898512196727097,-0.0005450306343846023,0.0004300847358535975,0.09224356710910797,0.15914323925971985,0.5794000029563904,-10008549.0,80.00227355957031,77.76004028320312,0
230407722,0.09332819283008575,0.1614733189344406,-23.522375106811523,-0.00015467674529645592,-0.0009263070533052087,-0.000552788027562201,0.0003999347682110965,0.09224608540534973,0.1591530442237854,0.5794000029563904,-10008549.0,79.99378204345703,77.79889678955078,0
230418438,0.09085382521152496,0.16536784172058105,-23.530363082885742,-0.00013012319686822593,-0.0010025862138718367,-0.0005261540645733476,0.0003171924327034503,0.0922374278306961,0.1591799408197403,0.5794000029563904,-10008549.0,80.024169921875,77.90006256103516,0
230427800,0.09427253901958466,0.15987533330917358,-23.524538040161133,-0.00014933171041775495,-0.0010072423610836267,-0.0005469901370815933,0.00031214181217364967,0.09224420040845871,0.15918157994747162,0.5794000029563904,-10008549.0,80.00010681152344,77.90596008300781,0
230437887,0.09016092121601105,0.15691469609737396,-23.525854110717773,-0.00011693921987898648,-0.0009750645258463919,-0.0005118530243635178,0.0003470460942480713,0.09223277866840363,0.1591702401638031,0.5794000029563904,-10008549.0,80.04200744628906,77.86453247070312,0
230447751,0.09631799906492233,0.15664507448673248,-23.523534774780273,-0.00016098629566840827,-0.0009407005272805691,-0.0005596322589553893,0.0003843217564281076,0.09224831312894821,0.1591581255197525,0.5794000029563904,-10008549.0,79.98651123046875,77.81861877441406,0
230457638,0.09521429240703583,0.1578143835067749,-23.52025604248047,-0.00019019590399693698,-0.0009216373437084258,-0.0005913167842663825,0.0004050001734867692,0.09225860983133316,0.15915140509605408,0.5794000029563904,-10008549.0,79.95541381835938,77.79244232177734,0
230467935,0.09204361587762833,0.1580856591463089,-23.52405548095703,-0.0001805606734706089,-0.0009064526529982686,-0.0005808651330880821,0.00042147148633375764,0.09225521236658096,0.15914605557918549,0.5794000029563904,-10008549.0,79.9652328491211,77.77124786376953,0
230477605,0.09369189292192459,0.1552770584821701,-23.523008346557617,-0.0001907006517285481,-0.0008586146286688745,-0.0005918642855249345,0.0004733628302346915,0.09225878864526749,0.15912918746471405,0.5794000029563904,-10008549.0,79.95491027832031,77.70262908935547,0
230488125,0.09391666948795319,0.15055443346500397,-23.525489807128906,-0.00020313433196861297,-0.0007572138565592468,-0.0006053514662198722,0.0005833553150296211,0.09226316958665848,0.15909343957901,0.5794000029563904,-10008549.0,79.94285583496094,77.550048828125,0
230497663,0.097566619515419,0.15534742176532745,-23.5240421295166,-0.0002572966041043401,-0.000714381574653089,-0.0006641029031015933,0.0006298167281784117,0.0922822654247284,0.15907832980155945,0.5794000029563904,-10008549.0,79.89698791503906,77.4839096069336,0
230507677,0.09529182314872742,0.15766176581382751,-23.51641082763672,-0.0002837777428794652,-0.0006993241840973496,-0.0006928278016857803,0.0006461499142460525,0.09229160100221634,0.15907302498817444,0.5794000029563904,-10008549.0,79.87786865234375,77.46057891845703,0
230517888,0.0932822972536087,0.16080127656459808,-23.52061653137207,-0.00029693523538298905,-0.0007170412573032081,-0.0006871864898130298,0.0006537461304105818,0.09229932725429535,0.15908342599868774,0.5794000029563904,-10008549.0,79.85874938964844,77.46722412109375,0
230527738,0.09170577675104141,0.15710166096687317,-23.5252628326416,-0.00028200927772559226,-0.000669462897349149,-0.0006935860146768391,0.0006333469063974917,0.09229055792093277,0.15905547142028809,0.5794000029563904,-10008549.0,79.88043975830078,77.44879913330078,0
230537935,0.09096495807170868,0.15616410970687866,-23.52481460571289,-0.00025507554528303444,-0.0006079850136302412,-0.0007051338907331228,0.000606988207437098,0.0922747403383255,0.1590193659067154,0.5794000029563904,-10008549.0,79.91952514648438,77.42190551757812,0
230547790,0.09123118221759796,0.15881939232349396,-23.528160095214844,-0.00023381297069136053,-0.000593902834225446,-0.0007142502581700683,0.0006009504431858659,0.09226225316524506,0.1590110957622528,0.5794000029563904,-10008549.0,79.95026397705078,77.4151840209961,0
230557587,0.09233903139829636,0.1558908075094223,-23.52440071105957,-0.0002317991020390764,-0.0005319833871908486,-0.0007151137106120586,0.0005744024529121816,0.09226106852293015,0.15897472202777863,0.5794000029563904,-10008549.0,79.95317077636719,77.38275909423828,0
230567948,0.0951942428946495,0.15203644335269928,-23.52126121520996,-0.00027633391437120736,-0.00040997128235176206,-0.0006960193859413266,0.0005220896564424038,0.09228722751140594,0.15890304744243622,0.5794000029563904,-10008549.0,79.8886947631836,77.30136108398438,0
230577668,0.0896238163113594,0.15522640943527222,-23.51397705078125,-0.00022980755602475256,-0.0003441248554736376,-0.0007159676169976592,0.0004938579513691366,0.09225989878177643,0.158864364027977,0.5794000029563904,-10008549.0,79.95603942871094,77.2442626953125,0
230587941,0.09893637150526047,0.15594573318958282,-23.514705657958984,-0.00033200494362972677,-0.0002923082502093166,-0.0006721504032611847,0.0004716415423899889,0.09231992810964584,0.15883392095565796,0.5794000029563904,-10008549.0,79.8078384399414,77.19050598144531,0
230597647,0.09639274328947067,0.15514837205410004,-23.520357131958008,-0.0003906103374902159,-0.0002301862696185708,-0.0006470233201980591,0.0004450066771823913,0.09235435724258423,0.15879742801189423,0.5794000029563904,-10008549.0,79.72349548339844,77.11304473876953,0
230607726,0.0881090983748436,0.14931806921958923,-23.528133392333984,-0.00032017778721638024,-8.13084770925343e-05,-0.0006772213382646441,0.0003811751666944474,0.09231298416852951,0.15870997309684753,0.5794000029563904,-10008549.0,79.82499694824219,76.84584045410156,0
230618451,0.0906129777431488,0.14829446375370026,-23.526611328125,-0.0002902214473579079,7.725546311121434e-05,-0.0006900651496835053,0.00031319071422331035,0.09229538589715958,0.1586168259382248,0.5794000029563904,-10008549.0,79.86852264404297,76.39383697509766,0
230627784,0.09303172677755356,0.15838293731212616,-23.52150535583496,-0.00029736236319877207,7.981384987942874e-05,-0.0006870034849271178,0.00031209379085339606,0.09229958057403564,0.1586153209209442,0.5794000029563904,-10008549.0,79.85814666748047,76.38530731201172,0
230637860,0.09474844485521317,0.1645890474319458,-23.517885208129883,-0.0003294106281828135,-8.728226021048613e-06,-0.0006732627516612411,0.0003500563034322113,0.09231840819120407,0.15866732597351074,0.5794000029563904,-10008549.0,79.81160736083984,76.66060638427734,0
230647770,0.09045212715864182,0.163034588098526,-23.5231990814209,-0.00029812779393978417,-7.153707701945677e-05,-0.0006866753101348877,0.0003769856703002006,0.09230003505945206,0.1587042212486267,0.5794000029563904,-10008549.0,79.8570327758789,76.82321166992188,0
230657665,0.08965002000331879,0.15878592431545258,-23.540433883666992,-0.0002565192698966712,-7.141962851164863e-05,-0.0007045150268822908,0.00037693532067351043,0.09227559715509415,0.15870414674282074,0.5794000029563904,-10008549.0,79.91744995117188,76.82293701171875,0
230667962,0.09220609068870544,0.1565379947423935,-23.54069709777832,-0.00025241493131034076,-3.962016126024537e-05,-0.0007062747608870268,0.0003633012529462576,0.09227318316698074,0.15868546068668365,0.5794000029563904,-10008549.0,79.92339324951172,76.74430847167969,0
230677640,0.09399985522031784,0.1589827984571457,-23.526195526123047,-0.0002734222507569939,-4.296021506888792e-05,-0.0006972678820602596,0.0003647333069238812,0.09228552132844925,0.15868742763996124,0.5794000029563904,-10008549.0,79.89292907714844,76.7529296875,0
230688100,0.0905214175581932,0.15895217657089233,-23.516443252563477,-0.000245881819864735,-4.5764452806906775e-05,-0.0007090758881531656,0.0003659356152638793,0.09226934611797333,0.15868908166885376,0.5794000029563904,-10008549.0,79.93284606933594,76.76010131835938,0
230697570,0.09039228409528732,0.1535605639219284,-23.512107849121094,-0.00021751764870714396,2.477170892234426e-05,-0.0007212370401248336,0.0003356931556481868,0.0922526866197586,0.15864764153957367,0.5794000029563904,-10008549.0,79.97371673583984,76.56202697753906,0
230707719,0.0912184864282608,0.15560701489448547,-23.519729614257812,-0.00020119002147112042,6.548463716171682e-05,-0.0007282375008799136,0.0003182374348398298,0.09224309772253036,0.15862372517585754,0.5794000029563904,-10008549.0,79.99708557128906,76.43274688720703,0
230717918,0.09573142975568771,0.16332821547985077,-23.530977249145508,-0.00024529584334231913,2.383072569500655e-06,-0.0007093271124176681,0.00034529229742474854,0.09226900339126587,0.15866079926490784,0.5794000029563904,-10008549.0,79.9336929321289,76.6287841796875,0
230727767,0.09662893414497375,0.16343064606189728,-23.52562713623047,-0.00029975586221553385,-6.002472582622431e-05,-0.0006859773420728743,0.00037204971886239946,0.09230099618434906,0.1586974561214447,0.5794000029563904,-10008549.0,79.85466003417969,76.79563903808594,0
230737905,0.09512616693973541,0.15787050127983093,-23.51823616027832,-0.0003329766041133553,-4.827613156521693e-05,-0.0006717339274473488,0.0003670124860946089,0.0923205092549324,0.15869055688381195,0.5794000029563904,-10008549.0,79.80643463134766,76.76647186279297,0
230747716,0.09753715991973877,0.1543089598417282,-23.51645851135254,-0.0003961128822993487,8.835348126012832e-06,-0.0006446641637012362,0.00034252589102834463,0.09235759824514389,0.1586570143699646,0.5794000029563904,-10008549.0,79.71566009521484,76.60989379882812,0
230757583,0.09804800897836685,0.1596214771270752,-23.512338638305664,-0.0004637857782654464,-3.3170838378282497e-06,-0.0006156493327580392,0.0003477362624835223,0.09239734709262848,0.15866415202617645,0.5794000029563904,-10008549.0,79.62100982666016,76.64521789550781,0
230767932,0.09199744462966919,0.16184847056865692,-23.513973236083984,-0.0004533121536951512,-4.310140502639115e-05,-0.0006201398791745305,0.0003647938137874007,0.09239119291305542,0.1586875170469284,0.5794000029563904,-10008549.0,79.63542175292969,76.75328826904297,0
230777625,0.09120629727840424,0.15986403822898865,-23.522037506103516,-0.00043330638436600566,-5.6987297284649685e-05,-0.0006287173600867391,0.000370747409760952,0.09237944334745407,0.15869566798210144,0.5794000029563904,-10008549.0,79.6632080078125,76.78819274902344,0
230787928,0.09154891967773438,0.15563616156578064,-23.523761749267578,-0.00041811750270426273,-1.8356960936216637e-05,-0.0006352296331897378,0.00035418462357483804,0.09237051755189896,0.1586729735136032,0.5794000029563904,-10008549.0,79.68451690673828,76.68746185302734,0
230797682,0.09324773401021957,0.16136381030082703,-23.52729034423828,-0.0004145299317315221,-1.137139042839408e-05,-0.0005953889922238886,0.0004317604470998049,0.09239326417446136,0.15871727466583252,0.5794000029563904,-10008549.0,79.65845489501953,76.6620101928711,0
230807733,0.09278962016105652,0.16529762744903564,-23.524581909179688,-0.00041252447408623993,6.243040843401104e-06,-0.0005731182172894478,0.000627371424343437,0.09240598231554031,0.1588289737701416,0.5794000029563904,-10008549.0,79.64276123046875,76.62572479248047,0
230818484,0.09266466647386551,0.16364231705665588,-23.51664924621582,-0.0004110134323127568,1.7982247300096788e-05,-0.0005563379381783307,0.0007577370852231979,0.09241556376218796,0.15890341997146606,0.5794000029563904,-10008549.0,79.63036346435547,76.61194610595703,0
230827783,0.09395015984773636,0.15954290330410004,-23.522857666015625,-0.00040619136416353285,1.7959684555535205e-05,-0.0005027882871218026,0.0007574865012429655,0.09244614094495773,0.15890327095985413,0.5794000029563904,-10008549.0,79.58712005615234,76.61196899414062,0
230837962,0.09528987854719162,0.1601535826921463,-23.527956008911133,-0.0003982502385042608,1.9514676750986837e-05,-0.0004146006831433624,0.0007747549097985029,0.09249649941921234,0.15891313552856445,0.5794000029563904,-10008549.0,79.50135803222656,76.61048889160156,0
230847802,0.09689076244831085,0.16207513213157654,-23.52775001525879,-0.0003868363855872303,2.577899613243062e-05,-0.00028784802998416126,0.0008443211554549634,0.09256887435913086,0.15895286202430725,0.5794000029563904,-10008549.0,79.33556365966797,76.60514831542969,0
230857683,0.0925554484128952,0.16018590331077576,-23.523408889770508,-0.0003867308550979942,2.7030684577766806e-05,-0.0002866761642508209,0.0008582213777117431,0.09256954491138458,0.15896080434322357,0.5794000029563904,-10008549.0,79.333740234375,76.60418701171875,0
230867957,0.0932968407869339,0.15893912315368652,-23.513078689575195,-0.00038487493293359876,2.5247867597499862e-05,-0.0002660658792592585,0.0008384229149669409,0.09258131682872772,0.15894949436187744,0.5794000029563904,-10008549.0,79.30071258544922,76.6055679321289,0
230877609,0.09371353685855865,0.16094839572906494,-23.51704216003418,-0.00038217156543396413,2.8213340556249022e-05,-0.00023604468151461333,0.0008713549468666315,0.09259846061468124,0.15896829962730408,0.5794000029563904,-10008549.0,79.24913787841797,76.60330200195312,0
230888016,0.08940418809652328,0.16246718168258667,-23.527217864990234,-0.00038932866300456226,3.441937224124558e-05,-0.00031552548171021044,0.0009402739233337343,0.09255307912826538,0.15900765359401703,0.5794000029563904,-10008549.0,79.37692260742188,76.59908294677734,0
230897548,0.089312344789505,0.164046049118042,-23.5316104888916,-0.0003962709743063897,4.373159754322842e-05,-0.00039262109203264117,0.0010436876909807324,0.09250905364751816,0.15906670689582825,0.5794000029563904,-10008549.0,79.47662353515625,76.59379577636719,0
230907694,0.08853043615818024,0.1552380621433258,-23.53065299987793,-0.0004044973466079682,3.362664210726507e-05,-0.0004839763278141618,0.0009314704220741987,0.0924568846821785,0.1590026319026947,0.5794000029563904,-10008549.0,79.57046508789062,76.5995864868164,0
230917885,0.0865321010351181,0.1539008617401123,-23.520532608032227,-0.0004164592537563294,2.1275396647979505e-05,-0.0006168153486214578,0.0007943077944219112,0.09238103032112122,0.15892431139945984,0.5794000029563904,-10008549.0,79.67277526855469,76.60889434814453,0
230927762,0.09516166895627975,0.15794512629508972,-23.516820907592773,-0.0004100879014004022,1.7877964637591504e-05,-0.0005460604443214834,0.0007565787527710199,0.09242143481969833,0.15890276432037354,0.5794000029563904,-10008549.0,79.62251281738281,76.61204528808594,0
230937908,0.09138143062591553,0.16445113718509674,-23.51980209350586,-0.00041163491550832987,2.7712685550795868e-05,-0.0005632402026094496,0.0008657949510961771,0.09241162240505219,0.1589651256799698,0.5794000029563904,-10008549.0,79.63552856445312,76.60367584228516,0
230947777,0.0893431231379509,0.15954738855361938,-23.525075912475586,-0.00041710861842148006,2.740901618381031e-05,-0.0006240266957320273,0.0008624226320534945,0.09237691015005112,0.15896320343017578,0.5794000029563904,-10008549.0,79.67743682861328,76.6039047241211,0
230957585,0.09312251955270767,0.15111014246940613,-23.520898818969727,-0.0004150311287958175,1.0871311133087147e-05,-0.000600955740083009,0.000678768556099385,0.09239008277654648,0.15885832905769348,0.5794000029563904,-10008549.0,79.66224670410156,76.61965942382812,0
230967925,0.09586223214864731,0.15299338102340698,-23.526165008544922,-0.00040788069600239396,-1.3057103842584183e-06,-0.0005215490818955004,0.0005435405764728785,0.09243542701005936,0.15878111124038696,0.5794000029563904,-10008549.0,79.60294342041016,76.63807678222656,0
230977673,0.10236476361751556,0.15899331867694855,-23.524621963500977,-0.00038902153028175235,-1.7868472923510126e-06,-0.00031211486202664673,0.0005381974624469876,0.09255501627922058,0.15877805650234222,0.5794000029563904,-10008549.0,79.37199401855469,76.63899230957031,0
230987931,0.09626182913780212,0.15947476029396057,-23.517688751220703,-0.00038213952211663127,-1.3699005876333104e-06,-0.00023568897449877113,0.0005428277072496712,0.09259865432977676,0.15878069400787354,0.5794000029563904,-10008549.0,79.24850463867188,76.63819885253906,0
230997714,0.09039301425218582,0.15454447269439697,-23.519962310791016,-0.0003860551805701107,-9.780048458196688e-06,-0.0002791731967590749,0.0004494315362535417,0.09257382154464722,0.15872736275196075,0.5794000029563904,-10008549.0,79.32194519042969,76.65743255615234,0
231007723,0.09081889688968658,0.15430817008018494,-23.521326065063477,-0.00038904897519387305,-1.8230844943900593e-05,-0.0003124196664430201,0.0003555839939508587,0.09255483746528625,0.15867377817630768,0.5794000029563904,-10008549.0,79.37244415283203,76.68689727783203,0
231018454,0.0940081924200058,0.1542869657278061,-23.526601791381836,-0.00038640774437226355,-2.6350042389822192e-05,-0.0002830882731359452,0.0002654189302120358,0.09257158637046814,0.15862229466438293,0.5794000029563904,-10008549.0,79.32814025878906,76.73462677001953,0
231027765,0.08955447375774384,0.16013948619365692,-23.532073974609375,-0.00039143991307355464,-2.4187364033423364e-05,-0.00033897123648785055,0.0002894358185585588,0.09253967553377151,0.15863600373268127,0.5794000029563904,-10008549.0,79.4095458984375,76.71904754638672,0
231037897,0.08561419695615768,0.15870121121406555,-23.518543243408203,-0.00040284349233843386,-2.4517723431927152e-05,-0.0004656098026316613,0.00028576713521033525,0.09246736019849777,0.15863390266895294,0.5794000029563904,-10008549.0,79.55340576171875,76.72126007080078,0
231047783,0.09052915871143341,0.15786676108837128,-23.511648178100586,-0.0004056970064993948,-2.6206684196949936e-05,-0.0004972987226210535,0.00026701093884184957,0.09244926273822784,0.15862318873405457,0.5794000029563904,-10008549.0,79.58235168457031,76.73350524902344,0
231057634,0.0932702124118805,0.157419353723526,-23.520410537719727,-0.00040399684803560376,-2.855216371244751e-05,-0.00047841810737736523,0.00024096400011330843,0.09246004372835159,0.1586083173751831,0.5794000029563904,-10008549.0,79.56539154052734,76.75360870361328,0
231067901,0.0970611721277237,0.1588316112756729,-23.531049728393555,-0.0002674749121069908,-2.7962762032984756e-05,-0.0003551073605194688,0.000241496367380023,0.09255591034889221,0.15860873460769653,0.5794000029563904,-10008549.0,79.62109375,76.75094604492188,0
231077687,0.08992213755846024,0.15431974828243256,-23.543190002441406,-0.00032269410439766943,-0.00014090891636442393,-0.0004049830022267997,0.00013947997649665922,0.09251713752746582,0.15852943062782288,0.5794000029563904,-10008549.0,79.59386444091797,77.42616271972656,0
231088047,0.08506107330322266,0.14949655532836914,-23.531343460083008,-0.0004908256814815104,-0.0003609183768276125,-0.0005568445194512606,-5.9239231632091105e-05,0.09239907562732697,0.15837493538856506,0.5794000029563904,-10008549.0,79.544189453125,78.36914825439453,0
231097645,0.08704891055822372,0.1507238745689392,-23.515100479125977,-0.0005988096818327904,-0.0005342641961760819,-0.000654378964100033,-0.0002158104325644672,0.09232325106859207,0.15825320780277252,0.5794000029563904,-10008549.0,79.52557373046875,78.59036254882812,0
231107702,0.09502536058425903,0.15680614113807678,-23.51659393310547,-0.0005187155911698937,-0.0005569867207668722,-0.0005811548908241093,-0.00023658394638914615,0.09238027781248093,0.158237025141716,0.5794000029563904,-10008549.0,79.53797149658203,78.6081314086914,0
231117968,0.08942581713199615,0.15951374173164368,-23.522335052490234,-0.0005665401695296168,-0.0005190908559598029,-0.0006255892221815884,-0.0002013744815485552,0.09234559535980225,0.15826450288295746,0.5794000029563904,-10008549.0,79.53075408935547,78.57653045654297,0
231127786,0.08575545996427536,0.1510748565196991,-23.53142547607422,-0.0006879100110381842,-0.0006614380981773138,-0.0007401579641737044,-0.0003357450768817216,0.09225597977638245,0.15815940499305725,0.5794000029563904,-10008549.0,79.51782989501953,78.67617797851562,0
231137919,0.0892132818698883,0.152567058801651,-23.52653694152832,-0.0007299961871467531,-0.0007629389292560518,-0.0007805096684023738,-0.0004330629308242351,0.0922243520617485,0.15808312594890594,0.5794000029563904,-10008549.0,79.51468658447266,78.72274017333984,0
231147781,0.09590806812047958,0.15912483632564545,-23.517383575439453,-0.0006371521740220487,-0.0007279239362105727,-0.0006901175365783274,-0.0003989726537838578,0.09229534864425659,0.1581099033355713,0.5794000029563904,-10008549.0,79.5211410522461,78.70784759521484,0
231157572,0.09117668122053146,0.15686938166618347,-23.512704849243164,-0.0006412147777155042,-0.000738451664801687,-0.000694132933858782,-0.00040937800076790154,0.0922921895980835,0.15810170769691467,0.5794000029563904,-10008549.0,79.52086639404297,78.71266174316406,0
231167973,0.0867791399359703,0.15380580723285675,-23.51477813720703,-0.000726455997209996,-0.0008050004253163934,-0.0007796421414241195,-0.00047613598871976137,0.09222476929426193,0.158049076795578,0.5794000029563904,-10008549.0,79.51655578613281,78.74059295654297,0
231177691,0.08767225593328476,0.14874914288520813,-23.514835357666016,-0.0007898592157289386,-0.0009579648030921817,-0.0008441804093308747,-0.0006318388041108847,0.09217379242181778,0.15792609751224518,0.5794000029563904,-10008549.0,79.51448822021484,78.78953552246094,0
231187909,0.0889168456196785,0.1565942019224167,-23.522417068481445,-0.0008273082203231752,-0.0009637299808673561,-0.0008828522404655814,-0.0006377922836691141,0.09214319288730621,0.15792138874530792,0.5794000029563904,-10008549.0,79.51372528076172,78.79109191894531,0
231197607,0.09193937480449677,0.16855207085609436,-23.530548095703125,-0.0008109965128824115,-0.0007660935516469181,-0.0008657673606649041,-0.000430787680670619,0.09215673804283142,0.15808546543121338,0.5794000029563904,-10008549.0,79.51390838623047,78.71871948242188,0
231207758,0.09625062346458435,0.16034065186977386,-23.526819229125977,-0.0007236180827021599,-0.000716190435923636,-0.0007734647369943559,-0.00037807232001796365,0.09222963452339172,0.158127099275589,0.5794000029563904,-10008549.0,79.51454162597656,78.69218444824219,0
231218435,0.0941164419054985,0.14991864562034607,-23.52144432067871,-0.0006756880902685225,-0.0008405816624872386,-0.000722540367860347,-0.0005102347349748015,0.09226962178945541,0.15802332758903503,0.5794000029563904,-10008549.0,79.51475524902344,78.75202178955078,0
231227764,0.09213956445455551,0.1517374962568283,-23.512372970581055,-0.0006622842629440129,-0.0009293438633903861,-0.0007082190713845193,-0.0006050728843547404,0.0922808051109314,0.1579492837190628,0.5794000029563904,-10008549.0,79.51476287841797,78.78359985351562,0
231237892,0.09056948125362396,0.16031712293624878,-23.511276245117188,-0.0006748162559233606,-0.0008756440947763622,-0.0007216821541078389,-0.0005473835044540465,0.09227035194635391,0.1579940766096115,0.5794000029563904,-10008549.0,79.51480865478516,78.76515197753906,0
231247726,0.0857066959142685,0.15917524695396423,-23.516632080078125,-0.0007642371929250658,-0.0008426610729657114,-0.0008182572200894356,-0.0005117616965435445,0.0921957790851593,0.15802158415317535,0.5794000029563904,-10008549.0,79.515380859375,78.75225067138672,0
231257635,0.08453960716724396,0.15466080605983734,-23.523439407348633,-0.0008678955491632223,-0.0008823504322208464,-0.0009307874133810401,-0.0005548479384742677,0.09210934489965439,0.15798848867416382,0.5794000029563904,-10008549.0,79.5162124633789,78.76781463623047,0
231267926,0.08875488489866257,0.1514270007610321,-23.528039932250977,-0.000901079794857651,-0.0009706289856694639,-0.0009669929277151823,-0.0006511637475341558,0.09208168089389801,0.1579148918390274,0.5794000029563904,-10008549.0,79.51653289794922,78.79737091064453,0
231277673,0.09469024091959,0.1557394564151764,-23.519533157348633,-0.0008412034949287772,-0.0009883773745968938,-0.0009013456874527037,-0.0006706227432005107,0.0921315997838974,0.15790009498596191,0.5794000029563904,-10008549.0,79.51576232910156,78.80261993408203,0
231288088,0.1010155975818634,0.15867337584495544,-23.508699417114258,-0.0006874565733596683,-0.0009605396189726889,-0.0007319778669625521,-0.0006399566191248596,0.09225975722074509,0.15792329609394073,0.5794000029563904,-10008549.0,79.51261901855469,78.79417419433594,0
231297678,0.10018618404865265,0.15975730121135712,-23.514551162719727,-0.000553078600205481,-0.0009175601880997419,-0.0005832607275806367,-0.0005923909484408796,0.09237175434827805,0.15795911848545074,0.5794000029563904,-10008549.0,79.50782012939453,78.77974700927734,0
231307709,0.0976259782910347,0.15103498101234436,-23.518497467041016,-0.00046291545731946826,-0.0010069654090330005,-0.00048302605864591897,-0.0006917830905877054,0.09244689345359802,0.1578846126794815,0.5794000029563904,-10008549.0,79.50252532958984,78.80840301513672,0
231317889,0.09249518066644669,0.15246166288852692,-23.51878547668457,-0.0004526907578110695,-0.0010713415686041117,-0.0004716092371381819,-0.0007636650116182864,0.0924554169178009,0.15783096849918365,0.5794000029563904,-10008549.0,79.5017318725586,78.82572937011719,0
231327711,0.08642935007810593,0.16104277968406677,-23.522436141967773,-0.0005319110932759941,-0.0010070317657664418,-0.0005604450707323849,-0.0006915495032444596,0.09238941222429276,0.15788455307483673,0.5794000029563904,-10008549.0,79.50738525390625,78.80821228027344,0
231337898,0.09071630984544754,0.15798062086105347,-23.514102935791016,-0.0005454394849948585,-0.000989974825643003,-0.000575678888708353,-0.0006723424303345382,0.09237813949584961,0.15789876878261566,0.5794000029563904,-10008549.0,79.50823974609375,78.80304718017578,0
231347783,0.08949533104896545,0.15586118400096893,-23.51104164123535,-0.0006042363820597529,-0.0010154253104701638,-0.0005836252821609378,-0.0006757820374332368,0.09234897047281265,0.15788614749908447,0.5794000029563904,-10008549.0,79.46392059326172,78.79365539550781,0
231357589,0.09230831265449524,0.15932737290859222,-23.51694107055664,-0.0005888603627681732,-0.0009525448549538851,-0.0005814769538119435,-0.0006669965223409235,0.0923565998673439,0.1579173505306244,0.5794000029563904,-10008549.0,79.47496032714844,78.81732940673828,0
231367937,0.09483716636896133,0.16013109683990479,-23.518735885620117,-0.000512906291987747,-0.000874078890774399,-0.0005705180228687823,-0.0006556751322932541,0.09239427745342255,0.15795627236366272,0.5794000029563904,-10008549.0,79.53439331054688,78.85003662109375,0
231377712,0.09813322871923447,0.15878285467624664,-23.51654815673828,-0.0003634491586126387,-0.000832400459330529,-0.0005482714041136205,-0.0006494713015854359,0.09246841818094254,0.15797695517539978,0.5794000029563904,-10008549.0,79.6812744140625,78.86902618408203,0
231387979,0.09213142842054367,0.15499530732631683,-23.52277946472168,-0.0003617014444898814,-0.0008807996055111289,-0.0005480032996274531,-0.0006568964454345405,0.09246928244829178,0.1579529494047165,0.5794000029563904,-10008549.0,79.68326568603516,78.84725952148438,0
231397703,0.08727387338876724,0.1541270911693573,-23.5207462310791,-0.00046970267430879176,-0.0009459921857342124,-0.0005650652456097305,-0.0006671955343335867,0.0924157127737999,0.15792061388492584,0.5794000029563904,-10008549.0,79.57316589355469,78.82071685791016,0
231407717,0.0841614380478859,0.15862944722175598,-23.512136459350586,-0.0006402431754395366,-0.0009082333417609334,-0.0005927855963818729,-0.0006610580603592098,0.09233111888170242,0.1579393446445465,0.5794000029563904,-10008549.0,79.44279479980469,78.83562469482422,0
231418440,0.09071455895900726,0.158240407705307,-23.513277053833008,-0.0006601662025786936,-0.0008809336577542126,-0.0005961149581708014,-0.0006564960349351168,0.0923212394118309,0.15795288980007172,0.5794000029563904,-10008549.0,79.4303207397461,78.84689331054688,0
231427791,0.0940241664648056,0.15385465323925018,-23.5173282623291,-0.0006091719260439277,-0.0009476576815359294,-0.0005873713525943458,-0.0006679366924799979,0.09234656393527985,0.1579197496175766,0.5794000029563904,-10008549.0,79.46304321289062,78.8204116821289,0
231437889,0.09223652631044388,0.1555650383234024,-23.515138626098633,-0.0005976754473522305,-0.0009758222149685025,-0.0005853683105669916,-0.0006728438311256468,0.09235233068466187,0.15790562331676483,0.5794000029563904,-10008549.0,79.47085571289062,78.81010437011719,0
231447760,0.08865051716566086,0.16273163259029388,-23.51340103149414,-0.0006606784882023931,-0.0008548802579753101,-0.0005965202581137419,-0.0006514362758025527,0.09232040494680405,0.15796691179275513,0.5794000029563904,-10008549.0,79.43026733398438,78.85759735107422,0
231457709,0.09112012386322021,0.16768154501914978,-23.50679588317871,-0.0006706260028295219,-0.0006379666738212109,-0.0005983086884953082,-0.0006124376086518168,0.09231531620025635,0.1580778956413269,0.5794000029563904,-10008549.0,79.42432403564453,78.971435546875,0
231467953,0.09339053183794022,0.16102665662765503,-23.515138626098633,-0.0006343110580928624,-0.0005644470220431685,-0.0005916783702559769,-0.0005990145727992058,0.0923340767621994,0.15811587870121002,0.5794000029563904,-10008549.0,79.44649505615234,79.02155303955078,0
231477723,0.09373956173658371,0.1568554788827896,-23.522247314453125,-0.0005925134755671024,-0.0005772957811132073,-0.0005839301738888025,-0.000601396372076124,0.0923558697104454,0.1581091731786728,0.5794000029563904,-10008549.0,79.47396087646484,79.01229858398438,0
231487771,0.08516686409711838,0.1698153167963028,-23.518644332885742,-0.0007219479884952307,-0.00033332951716147363,-0.0006082868203520775,-0.000555487466044724,0.09228775650262833,0.1582375466823578,0.5794000029563904,-10008549.0,79.3960189819336,79.23678588867188,0
231497911,0.08333655446767807,0.12886448204517365,-23.533016204833984,-0.0008820018265396357,-0.0009008267661556602,-0.0006388552137650549,-0.0006638728082180023,0.09220277518033981,0.157936230301857,0.5794000029563904,-10008549.0,79.32272338867188,78.84156036376953,0
231507711,0.09128761291503906,0.34652790427207947,-23.499231338500977,-0.0008815733599476516,0.0027729044668376446,-0.0006387721514329314,4.8123092710739e-05,0.09220300614833832,0.15990394353866577,0.5794000029563904,-10008549.0,79.32289123535156,81.36540222167969,0
231517894,0.02118622697889805,-0.3029802143573761,-23.528972625732422,-0.0022265776060521603,-0.006164041813462973,-0.0009032462839968503,-0.0017091883346438408,0.09147639572620392,0.15507593750953674,0.5794000029563904,-10008549.0,79.08123779296875,78.47694396972656,0
231527721,0.06052612140774727,0.6462959051132202,-23.497617721557617,-0.00277117476798594,0.0032931289169937372,-0.0010118770878762007,0.00017723371274769306,0.09117970615625381,0.16022808849811554,0.5794000029563904,-10008549.0,79.04595947265625,81.40181732177734,0
231537607,0.028503434732556343,0.007924593985080719,-23.520307540893555,-0.003897663438692689,0.0003631670551840216,-0.0012397818500176072,-0.00041553948540240526,0.09056093543767929,0.15861868858337402,0.5794000029563904,-10008549.0,79.00382232666016,80.49549865722656,0
231548114,0.06112673133611679,-0.12304560840129852,-23.534238815307617,-0.004372260067611933,-0.004897736478596926,-0.0013371536042541265,-0.0014949061442166567,0.090298131108284,0.1557055115699768,0.5794000029563904,-10008549.0,78.9926528930664,78.50270080566406,0
231557594,0.15812897682189941,0.6727124452590942,-23.47697639465332,-0.003035468515008688,0.004753129556775093,-0.0010590607998892665,0.0005127637414261699,0.09104423969984055,0.16109201312065125,0.5794000029563904,-10008549.0,79.03154754638672,81.45551300048828,0
231567972,0.17125795781612396,-0.3508148193359375,-23.518714904785156,-0.001508544897660613,-0.004714086651802063,-0.0007370295934379101,-0.0014838908100500703,0.09190310537815094,0.15576688945293427,0.5794000029563904,-10008549.0,79.15032196044922,78.51141357421875,0
231577688,0.19162873923778534,0.48235973715782166,-23.515710830688477,0.000331259798258543,0.001305461977608502,-0.00034370936919003725,-0.0001970095472643152,0.09294585883617401,0.15917859971523285,0.5794000029563904,-10008549.0,81.03361511230469,81.1982650756836,0
231587763,0.1187557503581047,0.1116156131029129,-23.510234832763672,0.0007906410610303283,0.0004259355191607028,-0.00024417275562882423,-0.00038758126902393997,0.09320817142724991,0.1586763709783554,0.5794000029563904,-10008549.0,81.53791809082031,80.60975646972656,0
