TimeUS,PLX,PLY,PLZ,AX,AY,BX,BY,CX,CY,F,P,X,Y,SW
2178770570,0.26852279901504517,0.08929800987243652,-23.468488693237305,0.003941505681723356,0.0009786885930225253,0.0012081657769158483,-0.0004988446016795933,0.2673306465148926,0.08712570369243622,0.5794000029563904,0.0,-49.567237854003906,-50.62053680419922,0
2178780660,0.2691159248352051,0.08814108371734619,-23.468297958374023,0.0038883965462446213,0.0009660641080699861,0.001133427140302956,-0.00051661062752828,0.2673652172088623,0.08713392168283463,0.5794000029563904,0.0,-49.58103942871094,-50.640220642089844,0
2178791313,0.27243733406066895,0.08535533398389816,-23.470518112182617,0.003797278506681323,0.0009826775640249252,0.0010164874838665128,-0.0004952892195433378,0.26742100715637207,0.08712375164031982,0.5794000029563904,0.0,-49.60311508178711,-50.61601257324219,0
2178800907,0.265936940908432,0.08342208713293076,-23.476961135864258,0.003776846919208765,0.0010206871666014194,0.00099219661206007,-0.00045009973109699786,0.26743292808532715,0.08710158616304398,0.5794000029563904,0.0,-49.60777282714844,-50.56447982788086,0
2178810617,0.2626361548900604,0.08275129646062851,-23.477197647094727,0.003793535754084587,0.0010665076551958919,0.0010104748653247952,-0.0003999150940217078,0.2674236595630646,0.08707612007856369,0.5794000029563904,0.0,-49.60435104370117,-50.507904052734375,0
2178820615,0.2675537168979645,0.08124435693025589,-23.470104217529297,0.0037506131920963526,0.0011303928913548589,0.0009671944426372647,-0.00033549737418070436,0.26744648814201355,0.08704213052988052,0.5794000029563904,0.0,-49.61229705810547,-50.43767166137695,0
2178830692,0.2673386335372925,0.08170682936906815,-23.47040557861328,0.0037092287093400955,0.0011885545682162046,0.0009287816938012838,-0.00028151224250905216,0.2674676477909088,0.0870123878121376,0.5794000029563904,0.0,-49.61932373046875,-50.38172149658203,0
2178840911,0.26603955030441284,0.08123432844877243,-23.468496322631836,0.0036834103520959616,0.0012524818303063512,0.0009067146456800401,-0.00022687355522066355,0.26748040318489075,0.08698081225156784,0.5794000029563904,0.0,-49.623313903808594,-50.32835006713867,0
2178850823,0.27301737666130066,0.0868629589676857,-23.468114852905273,0.0035661044530570507,0.0012428147019818425,0.000814422033727169,-0.00023447936109732836,0.26753661036491394,0.08698544651269913,0.5794000029563904,0.0,-49.6401481628418,-50.335628509521484,0
2178860625,0.2720039188861847,0.09359243512153625,-23.476240158081055,0.0034616836346685886,0.0011432409519329667,0.0007391569088213146,-0.00030625067302025855,0.26758527755737305,0.08703186362981796,0.5794000029563904,0.0,-49.6543083190918,-50.410884857177734,0
2178870540,0.26899486780166626,0.08779600262641907,-23.476490020751953,0.003397781867533922,0.0011221509194001555,0.0006970515241846442,-0.0003201470826752484,0.2676143944263458,0.0870414674282074,0.5794000029563904,0.0,-49.66233444213867,-50.427066802978516,0
2178880637,0.26611557602882385,0.08847690373659134,-23.47517204284668,0.003373319748789072,0.0010913603473454714,0.0006824053125455976,-0.00033858238020911813,0.2676253318786621,0.08705522119998932,0.5794000029563904,0.0,-49.66507339477539,-50.449974060058594,0
2178891267,0.2635665535926819,0.09133291244506836,-23.46817398071289,0.003384112846106291,0.0010202671401202679,0.0006881786393932998,-0.0003766108420677483,0.26762059330940247,0.08708645403385162,0.5794000029563904,0.0,-49.66405487060547,-50.50276565551758,0
2178900873,0.26609736680984497,0.08863424509763718,-23.459671020507812,0.0033585173077881336,0.0009878679411485791,0.0006757676601409912,-0.0003923207987099886,0.2676317095756531,0.08710053563117981,0.5794000029563904,0.0,-49.666114807128906,-50.52718734741211,0
2178910580,0.2740913927555084,0.08999898284673691,-23.470172882080078,0.0032185500022023916,0.000935949559789151,0.0006156775634735823,-0.0004146101709920913,0.2676919996738434,0.08712290227413177,0.5794000029563904,0.0,-49.67566680908203,-50.56615447998047,0
2178920669,0.2687092125415802,0.09090784937143326,-23.483713150024414,0.0031576871406286955,0.0008712765411473811,0.0005928919417783618,-0.00043882225872948766,0.2677180767059326,0.08715062588453293,0.5794000029563904,0.0,-49.679073333740234,-50.615718841552734,0
2178930644,0.2743380665779114,0.08907441794872284,-23.48116111755371,0.0030159882735460997,0.0008338195038959384,0.0005474865902215242,-0.0004508248239289969,0.2677787244319916,0.08716665953397751,0.5794000029563904,0.0,-49.68510055541992,-50.644805908203125,0
2178940932,0.2738628089427948,0.09173005074262619,-23.47340202331543,0.0028834673576056957,0.0007580649107694626,0.0005122940056025982,-0.0004709423810709268,0.2678355276584625,0.0871991366147995,0.5794000029563904,0.0,-49.6888427734375,-50.70504379272461,0
2178951491,0.2689363658428192,0.09793983399868011,-23.465253829956055,0.002824989380314946,0.0005928524769842625,0.0005003176629543304,-0.0005047779995948076,0.2678607404232025,0.08727036416530609,0.5794000029563904,0.0,-49.689388275146484,-50.8544807434082,0
2178960630,0.2729489207267761,0.09493669122457504,-23.463191986083984,0.0027093340177088976,0.00047475669998675585,0.0004824183415621519,-0.0005230550304986537,0.2679109573364258,0.08732165396213531,0.5794000029563904,0.0,-49.6884651184082,-50.98291778564453,0
2178970565,0.27082085609436035,0.08977159112691879,-23.4736385345459,0.0026271683163940907,0.0004340433224570006,0.00047442017239518464,-0.000527018157299608,0.2679470479488373,0.08733953535556793,0.5794000029563904,0.0,-49.68601989746094,-51.0309944152832,0
2178980645,0.27054426074028015,0.08793648332357407,-23.481809616088867,0.002551028737798333,0.0004205598379485309,0.00047143473057076335,-0.000527546857483685,0.2679809629917145,0.08734554052352905,0.5794000029563904,0.0,-49.68193817138672,-51.04692077636719,0
2178990915,0.2705754339694977,0.08995375037193298,-23.47478485107422,0.002476494526490569,0.0003781328850891441,0.0004730300570372492,-0.000526638759765774,0.26801472902297974,0.08736475557088852,0.5794000029563904,0.0,-49.67594528198242,-51.09724044799805,0
2179000924,0.2681381106376648,0.08585456758737564,-23.474050521850586,0.002438909839838743,0.00039506913162767887,0.0004761585732921958,-0.0005280485493130982,0.26803210377693176,0.08735693246126175,0.5794000029563904,0.0,-49.671871185302734,-51.0776252746582,0
2179010604,0.26635876297950745,0.07793807983398438,-23.479000091552734,0.0024277265183627605,0.0005230699898675084,0.00047778827138245106,-0.0005467014852911234,0.2680373787879944,0.08729647099971771,0.5794000029563904,0.0,-49.67035675048828,-50.956642150878906,0
2179020678,0.2664310932159424,0.0818394348025322,-23.474872589111328,0.002416072180494666,0.0005922242417000234,0.00048024559509940445,-0.0005612826789729297,0.26804301142692566,0.08726297318935394,0.5794000029563904,0.0,-49.66846466064453,-50.907737731933594,0
2179030622,0.2623448669910431,0.08688528090715408,-23.472278594970703,0.002461370313540101,0.0005892103654332459,0.0004676886019296944,-0.0005604472244158387,0.2680204510688782,0.08726447075605392,0.5794000029563904,0.0,-49.67690658569336,-50.909542083740234,0
2179040939,0.2683846354484558,0.08783281594514847,-23.475948333740234,0.0024233218282461166,0.0005731691489927471,0.00048089015763252974,-0.0005548814660869539,0.2680399715900421,0.08727270364761353,0.5794000029563904,0.0,-49.66878128051758,-50.9183464050293,0
2179050863,0.27279141545295715,0.08776011317968369,-23.476085662841797,0.0023282424081116915,0.0005584520986303687,0.0005207920330576599,-0.0005487051676027477,0.26809045672416687,0.0872805193066597,0.5794000029563904,0.0,-49.644615173339844,-50.92575454711914,0
2179060643,0.2735888361930847,0.08896651118993759,-23.476125717163086,0.002226904733106494,0.0005283193313516676,0.0005709321703761816,-0.0005337960319593549,0.26814621686935425,0.08729709684848785,0.5794000029563904,0.0,-49.613704681396484,-50.93971252441406,0
2179070588,0.26954731345176697,0.09067356586456299,-23.469560623168945,0.0021819735411554575,0.00047743855975568295,0.0005967635661363602,-0.0005045442376285791,0.26817193627357483,0.08732621371746063,0.5794000029563904,0.0,-49.59770965576172,-50.96215057373047,0
2179080696,0.26572227478027344,0.09334418177604675,-23.467470169067383,0.002187203150242567,0.00039539640420116484,0.000593313539866358,-0.0004504194366745651,0.2681688070297241,0.0873752012848854,0.5794000029563904,0.0,-49.599788665771484,-50.999515533447266,0
2179091303,0.2724522054195404,0.08895175158977509,-23.470096588134766,0.0021112614776939154,0.00037042610347270966,0.000650926842354238,-0.0004314756370149553,0.26821646094322205,0.08739087730646133,0.5794000029563904,0.0,-49.565616607666016,-51.01054000854492,0
2179101017,0.2717044949531555,0.08820340782403946,-23.47551918029785,0.002048497786745429,0.0003553809074219316,0.0007045590900816023,-0.00041861936915665865,0.26825782656669617,0.08740079402923584,0.5794000029563904,0.0,-49.533416748046875,-51.01607894897461,0
2179110644,0.27303197979927063,0.0872480496764183,-23.47813606262207,0.001974421786144376,0.0003518619341775775,0.0007746652700006962,-0.00041528898873366416,0.26830893754959106,0.08740322291851044,0.5794000029563904,0.0,-49.490787506103516,-51.01704788208008,0
2179120648,0.27120205760002136,0.08996161818504333,-23.47235679626465,0.001925201970152557,0.00031878112349659204,0.0008267348166555166,-0.00038029285497032106,0.26834484934806824,0.08742734789848328,0.5794000029563904,0.0,-49.459068298339844,-51.02231979370117,0
2179130642,0.27081766724586487,0.08425036817789078,-23.470312118530273,0.0018836511299014091,0.0003474995319265872,0.0008758286130614579,-0.0004142246616538614,0.26837703585624695,0.08740510046482086,0.5794000029563904,0.0,-49.4294548034668,-51.02193069458008,0
2179140953,0.26845860481262207,0.08603570610284805,-23.4727840423584,0.0018690264550969005,0.00035635416861623526,0.0008951046038419008,-0.0004258954431861639,0.26838913559913635,0.08739778399467468,0.5794000029563904,0.0,-49.41804504394531,-51.023223876953125,0
2179151428,0.2643325626850128,0.08598199486732483,-23.477197647094727,0.0018950976664200425,0.00036495408858172596,0.0008563852752558887,-0.00043866754276677966,0.26836588978767395,0.08739011734724045,0.5794000029563904,0.0,-49.44025421142578,-51.02602767944336,0
2179160606,0.2661128342151642,0.0908200666308403,-23.480520248413086,0.0019037728197872639,0.00032950774766504765,0.0008421678212471306,-0.00038057586061768234,0.26835760474205017,0.08742392808198929,0.5794000029563904,0.0,-49.44819259643555,-51.006351470947266,0
2179170596,0.266879677772522,0.08767548948526382,-23.480016708374023,0.0019057785393670201,0.0003234022296965122,0.0008384948596358299,-0.00036939504207111895,0.26835551857948303,0.08743023872375488,0.5794000029563904,0.0,-49.4501953125,-51.00084686279297,0
2179180532,0.2679567039012909,0.08155378699302673,-23.47587776184082,0.001899654045701027,0.00036574143450707197,0.0008510894258506596,-0.00045646310900337994,0.268362432718277,0.08738245815038681,0.5794000029563904,0.0,-49.44347381591797,-51.04445266723633,0
2179190892,0.2689093351364136,0.07966337352991104,-23.47305679321289,0.0018877106485888362,0.00041750812670215964,0.0008788076229393482,-0.0005766034009866416,0.26837727427482605,0.08731812238693237,0.5794000029563904,0.0,-49.42898178100586,-51.0932502746582,0
2179200966,0.27289682626724243,0.08501417934894562,-23.468421936035156,0.0018511096714064479,0.0004282730515114963,0.0009751562029123306,-0.0006049409857951105,0.2684277892112732,0.0873032659292221,0.5794000029563904,0.0,-49.37982940673828,-51.10390853881836,0
2179210632,0.2733522653579712,0.08886833488941193,-23.46649742126465,0.0018165726214647293,0.0004146897990722209,0.001079391804523766,-0.000563945563044399,0.26848140358924866,0.087324358522892,0.5794000029563904,0.0,-49.32854461669922,-51.085906982421875,0
2179220655,0.27417469024658203,0.08765888214111328,-23.47364616394043,0.0017826450057327747,0.0004093004681635648,0.0011982254218310118,-0.0005450691096484661,0.268541544675827,0.08733391016721725,0.5794000029563904,0.0,-49.272884368896484,-51.075870513916016,0
2179230558,0.27277669310569763,0.0875554159283638,-23.478776931762695,0.001760586048476398,0.00040516702574677765,0.0012891696533188224,-0.0005280278855934739,0.2685869336128235,0.08734241873025894,0.5794000029563904,0.0,-49.232643127441406,-51.065460205078125,0
2179240882,0.2765378952026367,0.08276135474443436,-23.47606658935547,0.0017277691513299942,0.00042065090383403003,0.001452443189918995,-0.0006050645024515688,0.2686674892902374,0.08730441331863403,0.5794000029563904,0.0,-49.16564178466797,-51.11244583129883,0
2179250909,0.27352118492126465,0.08554396778345108,-23.466936111450195,0.0017115796217694879,0.00042399601079523563,0.0015529157826676965,-0.000625824264716357,0.26871657371520996,0.08729427307844162,0.5794000029563904,0.0,-49.127845764160156,-51.124488830566406,0
2179260646,0.2742069661617279,0.08820540457963943,-23.465484619140625,0.0016977529739961028,0.0004197950183879584,0.0016651256009936333,-0.0005917313392274082,0.2687709927558899,0.0873108059167862,0.5794000029563904,0.0,-49.08898162841797,-51.10292434692383,0
2179270605,0.26749327778816223,0.08517321199178696,-23.47583770751953,0.0017004207475110888,0.0004223395371809602,0.0016341098817065358,-0.0006213138112798333,0.26875603199005127,0.08729654550552368,0.5794000029563904,0.0,-49.09916305541992,-51.122947692871094,0
2179280708,0.2652759253978729,0.08485852926969528,-23.47496223449707,0.0017044260166585445,0.00042414525523781776,0.0015545012429356575,-0.0006572038982994854,0.26871782541275024,0.0872793197631836,0.5794000029563904,0.0,-49.12525177001953,-51.14683532714844,0
2179291468,0.26524028182029724,0.09136268496513367,-23.4777774810791,0.0017053852789103985,0.0004229065671097487,0.001472989097237587,-0.000551953911781311,0.26867881417274475,0.08732970803976059,0.5794000029563904,0.0,-49.15226745605469,-51.066165924072266,0
2179300898,0.2668225169181824,0.09406787157058716,-23.474807739257812,0.0017044651322066784,0.00042608179501257837,0.0014259606832638383,-0.0003896669077221304,0.26865631341934204,0.08740735054016113,0.5794000029563904,0.0,-49.16801452636719,-50.88994598388672,0
2179310588,0.27042144536972046,0.08678236603736877,-23.4697208404541,0.001706139650195837,0.0004259984416421503,0.0014574353117495775,-0.00039123385795392096,0.2686713933944702,0.08740659803152084,0.5794000029563904,0.0,-49.15773391723633,-50.89204406738281,0
2179320637,0.26822465658187866,0.08098217099905014,-23.474117279052734,0.001704416936263442,0.00041464640526100993,0.001437606755644083,-0.0005218967562541366,0.26866188645362854,0.08734390884637833,0.5794000029563904,0.0,-49.16399383544922,-51.048580169677734,0
2179330541,0.27080991864204407,0.08553379774093628,-23.47635841369629,0.0017088305903598666,0.0004115324991289526,0.0014743057545274496,-0.0005477885715663433,0.26867955923080444,0.08733144402503967,0.5794000029563904,0.0,-49.15282440185547,-51.07564926147461,0
2179340951,0.2669333517551422,0.09652693569660187,-23.47641944885254,0.0017007003771141171,0.00044546270510181785,0.0014211825327947736,-0.0003260858647990972,0.26865383982658386,0.08743873238563538,0.5794000029563904,0.0,-49.168575286865234,-50.78105163574219,0
2179351471,0.2616320550441742,0.08869099617004395,-23.481101989746094,0.00166788708884269,0.0004528308636508882,0.0012478086864575744,-0.0002871551550924778,0.26856932044029236,0.08745770901441574,0.5794000029563904,0.0,-49.22237014770508,-50.714298248291016,0
2179360625,0.26272454857826233,0.08751528710126877,-23.474445343017578,0.001636280445381999,0.0004552263126242906,0.001103145768865943,-0.000276191218290478,0.2684983015060425,0.08746308833360672,0.5794000029563904,0.0,-49.27149200439453,-50.69449996948242,0
2179370560,0.27171337604522705,0.08483158051967621,-23.47643280029297,0.0016515249153599143,0.0004426433879416436,0.0011640563607215881,-0.00032646741601638496,0.26852861046791077,0.08743807673454285,0.5794000029563904,0.0,-49.25071334838867,-50.784637451171875,0
2179380630,0.2706770598888397,0.08723655343055725,-23.473604202270508,0.0016611450118944049,0.00044416365562938154,0.0011983162257820368,-0.0003210533468518406,0.2685460150241852,0.08744082599878311,0.5794000029563904,0.0,-49.23974609375,-50.77503967285156,0
2179390883,0.2686557471752167,0.08759693056344986,-23.466693878173828,0.0016566262347623706,0.0004482792573980987,0.0011837859638035297,-0.0003078194858971983,0.2685384750366211,0.08744769543409348,0.5794000029563904,0.0,-49.24423599243164,-50.75088119506836,0
2179400901,0.2655954360961914,0.08385046571493149,-23.467130661010742,0.0016273625660687685,0.00042325761751271784,0.0010978474747389555,-0.0003813004004769027,0.2684928774833679,0.08740869909524918,0.5794000029563904,0.0,-49.27119064331055,-50.88245391845703,0
2179410523,0.26006022095680237,0.08202791959047318,-23.47536849975586,0.001548844389617443,0.00038127985317260027,0.0008858569199219346,-0.0004946356639266014,0.2683776915073395,0.087347112596035,0.5794000029563904,0.0,-49.34514236450195,-51.063255310058594,0
2179420640,0.2637859880924225,0.0819268673658371,-23.474109649658203,0.0015006707981228828,0.00033650410478003323,0.0007653555949218571,-0.0006066376809030771,0.2683106064796448,0.08728474378585815,0.5794000029563904,0.0,-49.3930549621582,-51.21350860595703,0
2179430594,0.26618027687072754,0.08496343344449997,-23.467153549194336,0.0014737913152202964,0.00031994449091143906,0.0007028041291050613,-0.0006451737717725337,0.26827487349510193,0.08726273477077484,0.5794000029563904,0.0,-49.41970443725586,-51.25959014892578,0
2179440917,0.2718842327594757,0.08558505028486252,-23.467199325561523,0.0015053857350721955,0.0003093367558903992,0.0007715109386481345,-0.0006682419334538281,0.2683151662349701,0.08724921196699142,0.5794000029563904,0.0,-49.39107894897461,-51.286415100097656,0
2179450909,0.2710375487804413,0.08137239515781403,-23.472095489501953,0.0015276209451258183,0.0002516471722628921,0.0008169097127392888,-0.0007860298501327634,0.2683424949645996,0.0871783047914505,0.5794000029563904,0.0,-49.37361145019531,-51.41011428833008,0
2179460686,0.26956480741500854,0.07966906577348709,-23.47323226928711,0.0015323294792324305,0.0001729813520796597,0.0008259541937150061,-0.0009371345513500273,0.2683480978012085,0.0870848298072815,0.5794000029563904,0.0,-49.370304107666016,-51.53742218017578,0
2179470581,0.26155439019203186,0.08622086048126221,-23.4693660736084,0.0014380415668711066,0.00017378943448420614,0.0006551288533955812,-0.0009356705122627318,0.26823943853378296,0.08708576112985611,0.5794000029563904,0.0,-49.43720245361328,-51.53630828857422,0
2179480661,0.2635684311389923,0.08832705020904541,-23.468242645263672,0.0013683721190318465,0.00020151285571046174,0.0005357133341021836,-0.0008881516987457871,0.2681613266468048,0.08711683750152588,0.5794000029563904,0.0,-49.49152374267578,-51.49684143066406,0
2179491267,0.27456775307655334,0.08599625527858734,-23.469329833984375,0.0014452484901994467,0.00019799903384409845,0.00065969442948699,-0.0008938185637816787,0.2682449221611023,0.08711301535367966,0.5794000029563904,0.0,-49.436466217041016,-51.501953125,0
2179500937,0.2790994346141815,0.07995651662349701,-23.47119903564453,0.0015837288228794932,0.00011064601130783558,0.0008730115951038897,-0.0010283784940838814,0.2683926522731781,0.08701983094215393,0.5794000029563904,0.0,-49.36088562011719,-51.61277389526367,0
2179510511,0.26801303029060364,0.08720961958169937,-23.473342895507812,0.0015617982717230916,0.00012759279343299568,0.0008409484289586544,-0.0010036018211394548,0.26836979389190674,0.08703749626874924,0.5794000029563904,0.0,-49.37074661254883,-51.59349822998047,0
2179520633,0.26219049096107483,0.09037891030311584,-23.47654914855957,0.001452952274121344,0.00019123578385915607,0.0006897850544191897,-0.0009152155835181475,0.2682587504386902,0.08710242062807083,0.5794000029563904,0.0,-49.42143630981445,-51.51396560668945,0
2179530599,0.2680370509624481,0.08834443241357803,-23.47823715209961,0.0014337061438709497,0.00022303950390778482,0.0006644089007750154,-0.0008732822025194764,0.2682395577430725,0.08713413774967194,0.5794000029563904,0.0,-49.430721282958984,-51.46989440917969,0
2179540845,0.2703165113925934,0.08016650378704071,-23.478857040405273,0.0014501396799460053,0.0001238210388692096,0.0006847316981293261,-0.0009959823219105601,0.2682553231716156,0.08703889697790146,0.5794000029563904,0.0,-49.42353057861328,-51.59626770019531,0
2179551477,0.2693388760089874,0.07790976762771606,-23.46944808959961,0.0014495003269985318,-1.4187428860168438e-05,0.0006839920533820987,-0.001155648147687316,0.26825472712516785,0.08691149950027466,0.5794000029563904,0.0,-49.42377853393555,-51.73223114013672,0
2179560628,0.26260170340538025,0.08314601331949234,-23.46599578857422,0.0013314962852746248,-6.064587796572596e-05,0.0005543126026168466,-0.0012067032512277365,0.2681490480899811,0.08686988800764084,0.5794000029563904,0.0,-49.470191955566406,-51.770172119140625,0
2179570596,0.26548507809638977,0.09098188579082489,-23.468395233154297,0.0012652067234739661,3.344488504808396e-05,0.00048539324779994786,-0.0011088796891272068,0.2680915594100952,0.08695150166749954,0.5794000029563904,0.0,-49.498348236083984,-51.68980407714844,0
2179580625,0.2735591530799866,0.0866842046380043,-23.47515106201172,0.001348263118416071,4.680360507336445e-05,0.0005673548439517617,-0.0010956970509141684,0.26816147565841675,0.0869627445936203,0.5794000029563904,0.0,-49.466365814208984,-51.67726516723633,0
2179590847,0.2794899642467499,0.0789424479007721,-23.47745704650879,0.0015424559824168682,-8.766326936893165e-05,0.0007495207828469574,-0.001221835962496698,0.268320232629776,0.08685280382633209,0.5794000029563904,0.0,-49.412349700927734,-51.79158020019531,0
2179600947,0.27047422528266907,0.08487149327993393,-23.468555450439453,0.0015569914830848575,-0.00010467650281498209,0.000762529787607491,-0.00123706238809973,0.2683317959308624,0.08683926612138748,0.5794000029563904,0.0,-49.409263610839844,-51.80437088012695,0
2179610547,0.27309292554855347,0.08536867052316666,-23.459470748901367,0.0016227710293605924,-0.0001118550353567116,0.0008187189232558012,-0.0012431943323463202,0.2683827877044678,0.08683370053768158,0.5794000029563904,0.0,-49.39741897583008,-51.809688568115234,0
2179620659,0.2698453962802887,0.0910765752196312,-23.461008071899414,0.0016204307321459055,-3.2666569040884497e-06,0.0008168060448952019,-0.001154439290985465,0.2683810293674469,0.08691577613353729,0.5794000029563904,0.0,-49.39777755737305,-51.72278594970703,0
2179630630,0.26778528094291687,0.08389771729707718,-23.47548484802246,0.0015748728765174747,-4.62273383163847e-05,0.0007811457617208362,-0.0011880665551871061,0.2683474123477936,0.08688408136367798,0.5794000029563904,0.0,-49.40422821044922,-51.758846282958984,0
2179640963,0.2710093557834625,0.08197364211082458,-23.47321891784668,0.001597575843334198,-0.00012894005340058357,0.0007982008391991258,-0.0012502025347203016,0.2683637738227844,0.0868244618177414,0.5794000029563904,0.0,-49.40132141113281,-51.82272720336914,0
2179650808,0.2708209753036499,0.08657290786504745,-23.4730224609375,0.0016150519950315356,-0.00011209877266082913,0.0008108065230771899,-0.0012380547123029828,0.26837608218193054,0.0868363305926323,0.5794000029563904,0.0,-49.3994026184082,-51.81025314331055,0
2179660609,0.2674659490585327,0.08572135865688324,-23.47494888305664,0.0015594003489241004,-0.00011462470138212666,0.000772223575040698,-0.0012398059479892254,0.2683376967906952,0.08683458715677261,0.5794000029563904,0.0,-49.404869079589844,-51.8121452331543,0
2179670599,0.2698167860507965,0.08175968378782272,-23.463865280151367,0.0015559680759906769,-0.00020342599600553513,0.0007699328125454485,-0.0012990727555006742,0.26833537220954895,0.08677458763122559,0.5794000029563904,0.0,-49.405174255371094,-51.87528610229492,0
2179680646,0.2695194482803345,0.08312386274337769,-23.465129852294922,0.0015457292320206761,-0.0002601126325316727,0.0007633556961081922,-0.0013354865368455648,0.26832860708236694,0.08673705160617828,0.5794000029563904,0.0,-49.40596008300781,-51.912315368652344,0
2179691327,0.26618707180023193,0.09021636843681335,-23.476181030273438,0.0014623079914599657,-0.00016004823555704206,0.000712040753569454,-0.0012739339144900441,0.2682745158672333,0.0868019238114357,0.5794000029563904,0.0,-49.411537170410156,-51.844932556152344,0
2179700976,0.2695813775062561,0.09157862514257431,-23.481029510498047,0.0014563389122486115,-3.467305941740051e-05,0.0007084825774654746,-0.001199197955429554,0.26827070116996765,0.0868818610906601,0.5794000029563904,0.0,-49.41189956665039,-51.74885940551758,0
2179710638,0.2684152126312256,0.08698420226573944,-23.479312896728516,0.0014247022336348891,-1.5706076737842523e-05,0.0006903278408572078,-0.0011883137049153447,0.26825088262557983,0.08689373731613159,0.5794000029563904,0.0,-49.41347122192383,-51.73316955566406,0
2179720649,0.27082324028015137,0.08626647293567657,-23.48121452331543,0.0014469140442088246,-1.3985156328999437e-05,0.0007026022649370134,-0.0011873627081513405,0.2682645618915558,0.08689479529857635,0.5794000029563904,0.0,-49.41262435913086,-51.73173141479492,0
2179730615,0.2688803970813751,0.08652987331151962,-23.472265243530273,0.0014254966517910361,-7.343758170463843e-06,0.0006912240642122924,-0.0011838343925774097,0.26825159788131714,0.0868988186120987,0.5794000029563904,0.0,-49.41318130493164,-51.726158142089844,0
2179740943,0.27218106389045715,0.08648832887411118,-23.470935821533203,0.0014768281253054738,-2.6774237085192e-06,0.0007174086640588939,-0.0011814540484920144,0.2682821750640869,0.08690159767866135,0.5794000029563904,0.0,-49.412471771240234,-51.72222137451172,0
2179751509,0.26904645562171936,0.0872996374964714,-23.475107192993164,0.001457804930396378,1.8552838810137473e-05,0.0007081658695824444,-0.0011711388360708952,0.2682710289955139,0.08691403269767761,0.5794000029563904,0.0,-49.412471771240234,-51.7041130065918,0
2179760670,0.2687380313873291,0.07998354732990265,-23.47464370727539,0.0014329287223517895,-0.00011971041385550052,0.0006965179345570505,-0.001235879142768681,0.26825663447380066,0.08683409541845322,0.5794000029563904,-1384000.75,-1384050.125,-1384052.625,0
2179770614,0.2666010856628418,0.0777580738067627,-23.47346305847168,0.001435963436961174,5.384368705563247e-05,0.0006968004163354635,-0.0012197232572361827,0.26825541257858276,0.08676440268754959,0.5794000029563904,-1384000.75,-55.625,-58.0,0
2179780637,0.26616132259368896,0.08455252647399902,-23.477848052978516,0.0014483998529613018,9.268026042263955e-05,0.0006964118801988661,-0.001220936537720263,0.26825031638145447,0.08674853295087814,0.5794000029563904,-1384000.75,-55.628597259521484,-57.968353271484375,0
2179790889,0.27286627888679504,0.08909742534160614,-23.46782684326172,0.001339511713013053,4.8033649363787845e-05,0.0006998137105256319,-0.0012195417657494545,0.2682948112487793,0.08676677942276001,0.5794000029563904,-1384000.75,-55.595340728759766,-58.0047492980957,0
2179800894,0.27455684542655945,0.090451180934906,-23.463029861450195,0.0012049964861944318,-1.8842898498405702e-05,0.0007040161290206015,-0.0012174524599686265,0.2683497667312622,0.08679410815238953,0.5794000029563904,-1384000.75,-55.54802322387695,-58.059593200683594,0
2179810575,0.2683335244655609,0.08724049478769302,-23.47159194946289,0.0011845878325402737,-2.6949919629259966e-05,0.0007046537357382476,-0.001217199140228331,0.26835811138153076,0.08679742366075516,0.5794000029563904,-1384000.75,-55.54015350341797,-58.066253662109375,0
2179820618,0.26473161578178406,0.08968806266784668,-23.472684860229492,0.001227836706675589,-7.840990292606875e-05,0.000697100127581507,-0.0012082114117220044,0.2683396339416504,0.08681941032409668,0.5794000029563904,-1384000.75,-55.5604133605957,-58.108924865722656,0
2179830607,0.27313268184661865,0.08909399062395096,-23.467897415161133,0.00112976657692343,-0.0001180327744805254,0.0007142286049202085,-0.0012012911029160023,0.2683815360069275,0.08683633804321289,0.5794000029563904,-1384000.75,-55.51302719116211,-58.142059326171875,0
2179840809,0.27284061908721924,0.09279812127351761,-23.465091705322266,0.0010401562321931124,-0.00021690627909265459,0.0007298795389942825,-0.0011840222869068384,0.2684198319911957,0.08687858283519745,0.5794000029563904,-1384000.75,-55.46491241455078,-58.225303649902344,0
2179850820,0.27382323145866394,0.0885675698518753,-23.466068267822266,0.0009441635920666158,-0.0002448818413540721,0.000762609823141247,-0.0011744835646823049,0.26846402883529663,0.08689146488904953,0.5794000029563904,-1384000.75,-55.39735412597656,-58.24967575073242,0
2179860653,0.2730070650577545,0.09061120450496674,-23.473018646240234,0.0008641339954920113,-0.000303050153888762,0.0007899586344137788,-0.001154605532065034,0.2685008943080902,0.08691826462745667,0.5794000029563904,-1384000.75,-55.3361930847168,-58.30080032348633,0
2179870552,0.2751481533050537,0.08352117240428925,-23.48804473876953,0.0007546987617388368,-0.0002522554714232683,0.0008275533327832818,-0.0011720552574843168,0.26855137944221497,0.08689484000205994,0.5794000029563904,-1384000.75,-55.24536895751953,-58.25611114501953,0
2179880671,0.2737836539745331,0.08564571291208267,-23.48600959777832,0.0006694337935186923,-0.0002348723792238161,0.0008569959900341928,-0.0011780577478930354,0.2685907483100891,0.08688681572675705,0.5794000029563904,-1384000.75,-55.16911697387695,-58.24091339111328,0
2179891315,0.2683064043521881,0.08232711255550385,-23.473539352416992,0.0006695213378407061,-0.0001759691076586023,0.0008569473866373301,-0.001210766495205462,0.26859068870544434,0.08685629069805145,0.5794000029563904,-1384000.75,-55.16920852661133,-58.188446044921875,0
2179900885,0.26464393734931946,0.07774916291236877,-23.47127342224121,0.0007190135656856,-5.7360251958016306e-05,0.0008293020655401051,-0.0012770189205184579,0.26856496930122375,0.0867946669459343,0.5794000029563904,-1384000.75,-55.22026824951172,-58.08900833129883,0
2179910594,0.2687668800354004,0.08473002910614014,-23.471540451049805,0.0007118671201169491,-3.5846507671521977e-05,0.0008333171717822552,-0.0012891060905531049,0.2685686945915222,0.08678346127271652,0.5794000029563904,-1384000.75,-55.21294021606445,-58.071922302246094,0
2179920652,0.27015724778175354,0.09161563962697983,-23.47803497314453,0.0006908330833539367,-0.00010021321941167116,0.0008509400067850947,-0.0012351779732853174,0.2685815989971161,0.08682291209697723,0.5794000029563904,-1384000.75,-55.187904357910156,-58.12507629394531,0
2179930615,0.2746453285217285,0.08461977541446686,-23.482595443725586,0.0006181967910379171,-8.07945616543293e-05,0.000912184827029705,-0.0012515512062236667,0.26862630248069763,0.08681095391511917,0.5794000029563904,-1384000.75,-55.10158920288086,-58.108585357666016,0
2179940952,0.27673837542533875,0.0780937597155571,-23.48064613342285,0.0005239268066361547,1.3128750651958399e-05,0.00099217239767313,-0.001331244595348835,0.26868459582328796,0.08675287663936615,0.5794000029563904,-1384000.75,-54.9918212890625,-58.03425598144531,0
2179951427,0.2713472843170166,0.07668110728263855,-23.477567672729492,0.0004999098600819707,0.00010292783554177731,0.0010220842668786645,-0.0014430847950279713,0.2687031626701355,0.08668341487646103,0.5794000029563904,-1384000.75,-54.96087646484375,-57.9729118347168,0
2179960650,0.2654373347759247,0.07838863134384155,-23.471851348876953,0.0005333799053914845,0.00017323388601653278,0.0009801136329770088,-0.0015312469331547618,0.26867708563804626,0.08662866801023483,0.5794000029563904,-1384000.75,-55.00436019897461,-57.931461334228516,0
2179970546,0.26302310824394226,0.08805657923221588,-23.460166931152344,0.0005885538994334638,0.0001495864853495732,0.0009104566415771842,-0.0015013921074569225,0.2686338424682617,0.08664720505475998,0.5794000029563904,-1384000.75,-55.0798454284668,-57.94480895996094,0
2179980559,0.26351532340049744,0.08633934706449509,-23.458723068237305,0.0006372431525960565,0.00014280574396252632,0.0008485720027238131,-0.001492773648351431,0.268595427274704,0.08665255457162857,0.5794000029563904,-1384000.75,-55.15009307861328,-57.94873809814453,0
2179990912,0.2665589451789856,0.0847315862774849,-23.468059539794922,0.0006530407117679715,0.00014838507922831923,0.0008178555872291327,-0.0015036219265311956,0.26857826113700867,0.08664649724960327,0.5794000029563904,-1384000.75,-55.17979049682617,-57.94574737548828,0
2180000971,0.2698605954647064,0.0882440060377121,-23.478904724121094,0.000644658925011754,0.00012864072050433606,0.0008342725923284888,-0.0014649496879428625,0.2685874402523041,0.08666814118623734,0.5794000029563904,-1384000.75,-55.16386032104492,-57.95652770996094,0
2180010616,0.2697106897830963,0.09285520017147064,-23.483150482177734,0.0006376312812790275,7.70277765695937e-05,0.0008481378317810595,-0.0013631199253723025,0.26859521865844727,0.08672522753477097,0.5794000029563904,-1384000.75,-55.150630950927734,-57.987667083740234,0
2180020595,0.27579429745674133,0.08651438355445862,-23.471843719482422,0.000605033419560641,7.275204552570358e-05,0.0009586390806362033,-0.0013486258685588837,0.26865333318710327,0.08673284947872162,0.5794000029563904,-1384000.75,-55.06897735595703,-57.9902229309082,0
2180030635,0.2783701717853546,0.08376509696245193,-23.463062286376953,0.00056169816525653,8.139618876157328e-05,0.001106708194129169,-0.0013781613670289516,0.2687315344810486,0.08671725541353226,0.5794000029563904,-1384000.75,-54.97563934326172,-57.98512268066406,0
2180040878,0.2759908437728882,0.08326587826013565,-23.471996307373047,0.000530862424056977,9.20048332773149e-05,0.0012129052774980664,-0.001414697035215795,0.26878783106803894,0.08669789135456085,0.5794000029563904,-1384000.75,-54.91853713989258,-57.97917175292969,0
2180050875,0.2712191939353943,0.08550238609313965,-23.47769546508789,0.0005227087531238794,9.212388977175578e-05,0.0012412085197865963,-0.0014151103096082807,0.2688028812408447,0.08669766783714294,0.5794000029563904,-1384000.75,-54.904563903808594,-57.97910690307617,0
2180060681,0.26878196001052856,0.08945497125387192,-23.480453491210938,0.0005242732004262507,8.441700629191473e-05,0.0012269571889191866,-0.0013449048856273293,0.26879552006721497,0.086733877658844,0.5794000029563904,-1384000.75,-54.9097900390625,-57.98143005371094,0
2180070571,0.26703301072120667,0.08703447878360748,-23.478363037109375,0.0005290802218951285,8.158878335962072e-05,0.0011827887501567602,-0.0013189180754125118,0.26877260208129883,0.08674735575914383,0.5794000029563904,-1384000.75,-54.926597595214844,-57.98233413696289,0
2180080653,0.27016550302505493,0.08231570571660995,-23.47252655029297,0.0005278674070723355,8.765500388108194e-05,0.0011940289987251163,-0.0013751391088590026,0.2687784731388092,0.08671803027391434,0.5794000029563904,-1384000.75,-54.92223358154297,-57.98046112060547,0
2180091311,0.27465590834617615,0.08439633250236511,-23.469791412353516,0.000532396137714386,8.672322292113677e-05,0.0012878681300207973,-0.001394446357153356,0.2688271403312683,0.08670801669359207,0.5794000029563904,-1384000.75,-54.89797592163086,-57.98200607299805,0
2180100932,0.2705758810043335,0.08933517336845398,-23.472259521484375,0.000533096375875175,9.023155143950135e-05,0.0013025151565670967,-0.001321063027717173,0.26883479952812195,0.08674634993076324,0.5794000029563904,-1384000.75,-54.89445877075195,-57.975921630859375,0
2180110530,0.27172592282295227,0.08523694425821304,-23.474172592163086,0.000534774677362293,8.999968849821016e-05,0.001337951747700572,-0.0013259586412459612,0.26885345578193665,0.08674377202987671,0.5794000029563904,-1384000.75,-54.88622283935547,-57.97634506225586,0
2180120562,0.2627735435962677,0.0822235494852066,-23.47687339782715,0.0005286654341034591,8.718018216313794e-05,0.001207738183438778,-0.0013860544422641397,0.2687844932079315,0.08671194314956665,0.5794000029563904,-1384000.75,-54.918582916259766,-57.981300354003906,0
2180130639,0.267471581697464,0.08400045335292816,-23.475141525268555,0.0005199139704927802,8.205065387301147e-05,0.0011623568134382367,-0.0014126540627330542,0.268760085105896,0.08669764548540115,0.5794000029563904,-1384000.75,-54.926578521728516,-57.98609924316406,0
2180140810,0.26832807064056396,0.08604079484939575,-23.472543716430664,0.0005147389601916075,8.471895125694573e-05,0.00113524473272264,-0.0013986746780574322,0.26874539256095886,0.08670522272586823,0.5794000029563904,-1384000.75,-54.931671142578125,-57.983619689941406,0
2180151382,0.26425617933273315,0.08753374218940735,-23.474807739257812,0.0004949814756400883,9.26986540434882e-05,0.0010306674521416426,-0.0013564376858994365,0.26868829131126404,0.0867282897233963,0.5794000029563904,-1384000.75,-54.953704833984375,-57.97588348388672,0
2180160625,0.26429852843284607,0.08715084940195084,-23.46832275390625,0.00045977483387105167,0.00010443985229358077,0.0009235411998815835,-0.0013207118026912212,0.26862797141075134,0.08674841374158859,0.5794000029563904,-1384000.75,-54.9678955078125,-57.96520233154297,0
2180170536,0.2648563086986542,0.09040816873311996,-23.468849182128906,0.00042992783710360527,0.00013670411135535687,0.0008317077881656587,-0.0012214409653097391,0.2685758173465729,0.08680478483438492,0.5794000029563904,-1384000.75,-54.983070373535156,-57.93265914916992,0
2180180650,0.266187846660614,0.08903653174638748,-23.470735549926758,0.00041000661440193653,0.00015866901958361268,0.0007697298424318433,-0.001153104822151363,0.26854032278060913,0.08684390783309937,0.5794000029563904,-1384000.75,-54.99541091918945,-57.907371520996094,0
2180190782,0.26978591084480286,0.08777503669261932,-23.474950790405273,0.0004146062128711492,0.000178152447915636,0.0007797176949679852,-0.0011107971658930182,0.26854628324508667,0.08686921000480652,0.5794000029563904,-1384000.75,-54.99468994140625,-57.88508605957031,0
2180200844,0.26928049325942993,0.085910364985466,-23.475488662719727,0.0004143526603002101,0.00017959621618501842,0.0007791605312377214,-0.001107624382711947,0.2685459554195404,0.08687112480401993,0.5794000029563904,-1384000.75,-54.99473190307617,-57.88336944580078,0
2180210514,0.2656622529029846,0.08463643491268158,-23.46419334411621,0.0003818357945419848,0.0001695997198112309,0.0007068478153087199,-0.0011298550525680184,0.26850202679634094,0.0868576169013977,0.5794000029563904,-1384000.75,-55.001258850097656,-57.89512252807617,0
2180220620,0.2711298167705536,0.08322703093290329,-23.466665267944336,0.00039874526555649936,0.00014782423386350274,0.0007449008408002555,-0.001178858452476561,0.2685253322124481,0.08682762086391449,0.5794000029563904,-1384000.75,-54.99746322631836,-57.91937255859375,0
2180230616,0.2673385441303253,0.0863405168056488,-23.473403930664062,0.0003758323146030307,0.00015570771938655525,0.0007061500800773501,-0.0011655257549136877,0.26850026845932007,0.08683624118566513,0.5794000029563904,-1384000.75,-54.99507141113281,-57.91130828857422,0
2180240844,0.26989972591400146,0.0856754407286644,-23.476667404174805,0.0003834070230368525,0.0001555661001475528,0.0007191232871264219,-0.001165768364444375,0.2685087025165558,0.0868360847234726,0.5794000029563904,-1384000.75,-54.99579620361328,-57.91145324707031,0
2180250830,0.2702086865901947,0.0869070366024971,-23.475065231323242,0.00039400358218699694,0.0001691516808932647,0.0007375013083219528,-0.0011422063689678907,0.2685207426548004,0.08685152977705002,0.5794000029563904,-1384000.75,-54.996639251708984,-57.897090911865234,0
2180260664,0.2712898254394531,0.08370494842529297,-23.47551155090332,0.00042149494402110577,0.00014028462464921176,0.0007749639335088432,-0.0011815436882898211,0.2685469388961792,0.08682401478290558,0.5794000029563904,-1384000.75,-55.00411605834961,-57.92593765258789,0
2180270621,0.2693007290363312,0.08054567873477936,-23.467010498046875,0.0004202438867650926,7.002706115599722e-05,0.0007732365047559142,-0.0012785554863512516,0.2685457170009613,0.08675580471754074,0.5794000029563904,-1384000.75,-55.003807067871094,-57.98939895629883,0
2180280679,0.26755258440971375,0.08073863387107849,-23.462976455688477,0.00039580496377311647,6.413124083337607e-06,0.0007390465470962226,-0.0013675512745976448,0.2685215473175049,0.0866929143667221,0.5794000029563904,-1384000.75,-54.9976692199707,-58.039424896240234,0
2180291269,0.26704540848731995,0.08173112571239471,-23.46949577331543,0.0003661807859316468,-4.0666018321644515e-05,0.000697060429956764,-0.0014342762297019362,0.2684917151927948,0.08664552867412567,0.5794000029563904,-1384000.75,-54.98967742919922,-58.07246017456055,0
2180300891,0.2685650885105133,0.0857032835483551,-23.477148056030273,0.00035509507870301604,-3.3967193303396925e-05,0.0006845236057415605,-0.0014267005026340485,0.26848211884498596,0.08665133267641068,0.5794000029563904,-1384000.75,-54.98451232910156,-58.06791687011719,0
2180310535,0.27026328444480896,0.0905599519610405,-23.47813606262207,0.0003706930438056588,4.6738667151657864e-05,0.0007024023798294365,-0.001334193628281355,0.2684958577156067,0.08672241121530533,0.5794000029563904,-1384000.75,-54.991580963134766,-58.00909423828125,0
2180320648,0.26865172386169434,0.09101727604866028,-23.471242904663086,0.00036129297222942114,0.00012950331438332796,0.000691483321134001,-0.0012380549451336265,0.26848745346069336,0.08679649978876114,0.5794000029563904,-1384000.75,-54.987457275390625,-57.93988800048828,0
2180330609,0.2703845500946045,0.08624083548784256,-23.465473175048828,0.0003809970512520522,0.0001382685441058129,0.0007098806672729552,-0.0012298710644245148,0.2685028612613678,0.08680335432291031,0.5794000029563904,-1384000.75,-54.998558044433594,-57.93215560913086,0
2180340990,0.26858434081077576,0.08290861546993256,-23.46320915222168,0.0003683833056129515,8.853727194946259e-05,0.0006980254547670484,-0.0012766116997227073,0.26849299669265747,0.08676448464393616,0.5794000029563904,-1384000.75,-54.991580963134766,-57.97486877441406,0
2180351507,0.27020132541656494,0.08677423000335693,-23.471113204956055,0.00038422024226747453,0.00010774575639516115,0.0007130058947950602,-0.0012584420619532466,0.26850536465644836,0.08677949756383896,0.5794000029563904,-1384000.75,-55.000240325927734,-57.958702087402344,0
2180360653,0.26687419414520264,0.08858449012041092,-23.4792423248291,0.00034265636350028217,0.0001568864390719682,0.0006734436610713601,-0.001211667899042368,0.2684728801250458,0.08681789040565491,0.5794000029563904,-1384000.75,-54.97665023803711,-57.915348052978516,0
2180370564,0.2698667645454407,0.08331777155399323,-23.48103904724121,0.00035522395046427846,0.00010655220103217289,0.0006832062499597669,-0.001250767963938415,0.26848161220550537,0.08678296953439713,0.5794000029563904,-1384000.75,-54.98544692993164,-57.95912551879883,0
2180380622,0.2723740041255951,0.08451057970523834,-23.47344207763672,0.0004154381458647549,8.17545223981142e-05,0.0007305128965526819,-0.0012702499516308308,0.26852336525917053,0.08676577359437943,0.5794000029563904,-1384000.75,-55.0230598449707,-57.979835510253906,0
2180390805,0.2760210335254669,0.08500584214925766,-23.466114044189453,0.0005418714717961848,6.760571704944596e-05,0.0008309409604407847,-0.0012814885703846812,0.26861104369163513,0.08675596117973328,0.5794000029563904,-1384000.75,-55.083839416503906,-57.99140167236328,0
2180400908,0.26913702487945557,0.08809388428926468,-23.465652465820312,0.0005321925273165107,0.00011555701348697767,0.0008245881763286889,-0.0012500158045440912,0.26860496401786804,0.08678603917360306,0.5794000029563904,-1384000.75,-55.0791130065918,-57.951927185058594,0
2180410579,0.26545602083206177,0.08951842039823532,-23.46902847290039,0.0004464945232030004,0.00019053957657888532,0.0007674329099245369,-0.0012000070419162512,0.268551230430603,0.08683305978775024,0.5794000029563904,-1384000.75,-55.03290557861328,-57.88664245605469,0
2180420624,0.26697006821632385,0.08500876277685165,-23.473970413208008,0.0003963079070672393,0.00016932612925302237,0.0007334370748139918,-0.0012143767671659589,0.2685197591781616,0.08681976050138474,0.5794000029563904,-1384000.75,-55.001373291015625,-57.90556716918945,0
2180430597,0.2661820352077484,0.08476246893405914,-23.47496795654297,0.0003268531581852585,0.0001389430253766477,0.0006943868356756866,-0.0012314593186601996,0.2684798240661621,0.08680228888988495,0.5794000029563904,-1384000.75,-54.94591522216797,-57.93175506591797,0
2180440937,0.27065661549568176,0.08752771466970444,-23.477724075317383,0.0003588666149880737,0.00017056266369763762,0.0007127531571313739,-0.0012133189011365175,0.2684982419013977,0.08682046830654144,0.5794000029563904,-1384000.75,-54.972412109375,-57.904449462890625,0
2180450968,0.26950502395629883,0.08708027005195618,-23.473913192749023,0.00036447434104047716,0.00019086699467152357,0.0007160340319387615,-0.0012014395324513316,0.2685014605522156,0.08683214336633682,0.5794000029563904,-1384000.75,-54.976810455322266,-57.88656234741211,0
2180460609,0.2659434676170349,0.08698170632123947,-23.473285675048828,0.0002949459885712713,0.00020800330094061792,0.0006745728314854205,-0.001191220828332007,0.2684614956378937,0.08684199303388596,0.5794000029563904,-1384000.75,-54.91815948486328,-57.871238708496094,0
2180470590,0.2683277428150177,0.08914656192064285,-23.477277755737305,0.0002778629132080823,0.0002711364650167525,0.0006661615916527808,-0.0011601358419284225,0.26845240592956543,0.08687559515237808,0.5794000029563904,-1384000.75,-54.90114212036133,-57.814517974853516,0
2180480673,0.2665073871612549,0.0875120684504509,-23.47976303100586,0.00022178141807671636,0.0002948615001514554,0.0006379059050232172,-0.0011481824330985546,0.26842257380485535,0.08688821643590927,0.5794000029563904,-1384000.75,-54.840572357177734,-57.79273223876953,0
2180491341,0.2691585123538971,0.09028284251689911,-23.47442054748535,0.00022582638484891504,0.00037691296893171966,0.000639989972114563,-0.001105907023884356,0.26842471957206726,0.08693186938762665,0.5794000029563904,-1384000.75,-54.845191955566406,-57.71563720703125,0
2180500813,0.2758406400680542,0.08287576586008072,-23.47687339782715,0.00038156300433911383,0.0002897385857068002,0.0007052934379316866,-0.0011424609692767262,0.26850226521492004,0.08688846230506897,0.5794000029563904,-1384000.75,-55.00187683105469,-57.79573440551758,0
2180510508,0.2737228274345398,0.08275464922189713,-23.468358993530273,0.00048194194096140563,0.0002047472953563556,0.0007484685047529638,-0.0011790174758061767,0.2685522437095642,0.08684615045785904,0.5794000029563904,-1384000.75,-55.07804870605469,-57.872161865234375,0
2180520629,0.2660692036151886,0.08589643985033035,-23.460485458374023,0.00041154903010465205,0.00019224139396101236,0.0007174322381615639,-0.0011845313711091876,0.2685171961784363,0.08683992922306061,0.5794000029563904,-1384000.75,-55.02678298950195,-57.883216857910156,0
2180530610,0.26998013257980347,0.0839495062828064,-23.46913719177246,0.00042788023711182177,0.00013863857020623982,0.0007247311295941472,-0.0012084880145266652,0.2685253918170929,0.08681304007768631,0.5794000029563904,-1384000.75,-55.03929901123047,-57.92988586425781,0
2180540969,0.2655554413795471,0.08119353652000427,-23.476652145385742,0.0003472985699772835,2.040465915342793e-05,0.0006965998909436166,-0.001249763765372336,0.26848676800727844,0.0867563784122467,0.5794000029563904,-1384000.75,-54.968467712402344,-58.02778244018555,0
2180551544,0.26854294538497925,0.08297647535800934,-23.472461700439453,0.00033597895526327193,-5.3334777476266026e-05,0.0006925828056409955,-0.0012759322999045253,0.2684812843799591,0.08672069758176804,0.5794000029563904,-1384000.75,-54.95763397216797,-58.08588409423828,0
2180560642,0.2765296995639801,0.09131066501140594,-23.47341537475586,0.0004986913991160691,5.728944597649388e-05,0.0007512678275816143,-0.0012360337423160672,0.2685607671737671,0.08677473664283752,0.5794000029563904,-1384000.75,-55.091983795166016,-57.9977912902832,0
2180570549,0.2736673355102539,0.09234675765037537,-23.473464965820312,0.0005972517537884414,0.00018602244381327182,0.0007774692494422197,-0.001201811246573925,0.2686075270175934,0.08683580160140991,0.5794000029563904,-1384000.75,-55.161014556884766,-57.890541076660156,0
2180580631,0.26664865016937256,0.09108424186706543,-23.47187042236328,0.0005376258050091565,0.00028130601276643574,0.0007613354246132076,-0.0011760290944948792,0.2685789465904236,0.08688148111104965,0.5794000029563904,-1384000.75,-55.12081527709961,-57.80931854248047,0
2180590856,0.2674294412136078,0.0847659632563591,-23.48104476928711,0.0004975571064278483,0.00023556107771582901,0.0007503028027713299,-0.0011886246502399445,0.2685595452785492,0.0868593230843544,0.5794000029563904,-1384000.75,-55.09152603149414,-57.84846115112305,0
2180600940,0.26775801181793213,0.08628156781196594,-23.486595153808594,0.00046628399286419153,0.00022426577925216407,0.000741542608011514,-0.0011917887022718787,0.2685442268848419,0.08685379475355148,0.5794000029563904,-1384000.75,-55.06729507446289,-57.85810470581055,0
2180610546,0.26681533455848694,0.09053106606006622,-23.48111915588379,0.00041738871368579566,0.00030136783607304096,0.0007326671038754284,-0.001177793019451201,0.26852065324783325,0.08689097315073013,0.5794000029563904,-1384000.75,-55.02379608154297,-57.79360580444336,0
2180620656,0.2666194438934326,0.09590715169906616,-23.47413444519043,0.0003664590185508132,0.0004893050063401461,0.0007232669740915298,-0.0011431054444983602,0.2684958279132843,0.08698256313800812,0.5794000029563904,-1384000.75,-54.974937438964844,-57.63965606689453,0
2180630658,0.27072763442993164,0.09015849977731705,-23.468393325805664,0.0004039770574308932,0.0005484585999511182,0.0007303063757717609,-0.0011320066405460238,0.2685143053531647,0.08701169490814209,0.5794000029563904,-1384000.75,-55.011234283447266,-57.592933654785156,0
2180640924,0.27234947681427,0.09136245399713516,-23.473352432250977,0.00047544093104079366,0.0006271236925385892,0.0007362307514995337,-0.0011254852870479226,0.26854944229125977,0.08705038577318192,0.5794000029563904,-1384000.75,-55.079368591308594,-57.53574752807617,0
2180650924,0.2699344754219055,0.09198416024446487,-23.476703643798828,0.0004943220410495996,0.000715276226401329,0.0007378117879852653,-0.0011181036243215203,0.2685588300228119,0.08709419518709183,0.5794000029563904,-1384000.75,-55.09626388549805,-57.4749870300293,0
2180660681,0.2624134123325348,0.09026121348142624,-23.47281265258789,0.000359629571903497,0.0007647881866432726,0.0007264218875207007,-0.0011139167472720146,0.2684912085533142,0.08711905032396317,0.5794000029563904,-1384000.75,-54.96566390991211,-57.44244384765625,0
2180670571,0.25959718227386475,0.08686431497335434,-23.47137451171875,0.00017383412341587245,0.0007440050248987973,0.000710559543222189,-0.0011156911496073008,0.2683970332145691,0.08710851520299911,0.5794000029563904,-1384000.75,-54.74589920043945,-57.455970764160156,0
2180680638,0.2624262571334839,0.08566628396511078,-23.473003387451172,5.536227399716154e-05,0.0006982880877330899,0.000714364810846746,-0.0011142226867377758,0.2683362662792206,0.0870850682258606,0.5794000029563904,-1384000.75,-54.58331298828125,-57.48427963256836,0
2180691255,0.268763929605484,0.08188913017511368,-23.472627639770508,6.450495857279748e-05,0.000581068976316601,0.0007140740053728223,-0.0011104943696409464,0.2683410048484802,0.08702439814805984,0.5794000029563904,-1384000.75,-54.5960578918457,-57.56202697753906,0
2180700850,0.26967746019363403,0.08238823711872101,-23.469764709472656,9.084726480068639e-05,0.0004779851296916604,0.0007132443133741617,-0.0011072475463151932,0.26835477352142334,0.08697056770324707,0.5794000029563904,-1384000.75,-54.632659912109375,-57.63658142089844,0
2180710513,0.26857948303222656,0.08575884997844696,-23.468719482421875,9.679921640781686e-05,0.00044178840471431613,0.000712280860170722,-0.0011013884795829654,0.2683579623699188,0.08695118874311447,0.5794000029563904,-1384000.75,-54.64104461669922,-57.66263198852539,0
2180720640,0.2731919288635254,0.08707691729068756,-23.474828720092773,0.00018688914133235812,0.00043104682117700577,0.0006978370947763324,-0.0010996663477271795,0.26840656995773315,0.08694539219141006,0.5794000029563904,-1384000.75,-54.767642974853516,-57.670528411865234,0
2180730515,0.2766771912574768,0.0911790207028389,-23.477584838867188,0.0003368335892446339,0.000495062384288758,0.0006740256794728339,-0.001109832082875073,0.2684880495071411,0.0869801789522171,0.5794000029563904,-1384000.75,-54.96940612792969,-57.62451934814453,0
2180740940,0.27452003955841064,0.09061583876609802,-23.474430084228516,0.0004390924295876175,0.0005422518588602543,0.0006427397020161152,-0.0011242696782574058,0.26854580640792847,0.0870068296790123,0.5794000029563904,-1384000.75,-55.10530471801758,-57.59469985961914,0
2180751464,0.2704261243343353,0.08974979817867279,-23.470104217529297,0.0004682350845541805,0.0005730655393563211,0.0006339061073958874,-0.0011336097959429026,0.268562376499176,0.08702433854341507,0.5794000029563904,-1384000.75,-55.14216995239258,-57.57604217529297,0
2180760583,0.26689383387565613,0.0920044407248497,-23.472030639648438,0.00043688967707566917,0.0006407486507669091,0.0006433196249417961,-0.001153936143964529,0.268544465303421,0.0870630145072937,0.5794000029563904,-1384000.75,-55.10254669189453,-57.53721618652344,0
2180770530,0.2652539312839508,0.0911693200469017,-23.473024368286133,0.0003792518109548837,0.0006921251770108938,0.0006604699301533401,-0.0011692233383655548,0.2685113251209259,0.08709254115819931,0.5794000029563904,-1384000.75,-55.027217864990234,-57.50961685180664,0
2180780661,0.2719796299934387,0.08847799152135849,-23.474468231201172,0.0004326928756199777,0.0006953435367904603,0.0006351975607685745,-0.0011707453522831202,0.2685437500476837,0.0870944932103157,0.5794000029563904,-1384000.75,-55.103965759277344,-57.50815200805664,0
2180790866,0.2781582176685333,0.08953293412923813,-23.475252151489258,0.0005789831629954278,0.0007146145799197257,0.0005666314973495901,-0.0011797776678577065,0.2686328887939453,0.08710623532533646,0.5794000029563904,-1384000.75,-55.30215072631836,-57.49948501586914,0
2180800962,0.2799053192138672,0.08918556571006775,-23.472270965576172,0.000746952835470438,0.0007279596175067127,0.0004886008100584149,-0.0011859771329909563,0.2687356173992157,0.08711439371109009,0.5794000029563904,-1384000.75,-55.49749755859375,-57.49359130859375,0
2180810614,0.27357152104377747,0.08666142076253891,-23.471019744873047,0.0008089992916211486,0.0007040544878691435,0.0004464630037546158,-0.0011697423178702593,0.2687765061855316,0.08709864318370819,0.5794000029563904,-1384000.75,-55.57249069213867,-57.50229263305664,0
2180820662,0.2672710418701172,0.088644839823246,-23.476106643676758,0.00078328896779567,0.0007079178467392921,0.0004637760575860739,-0.0011723438510671258,0.268759548664093,0.08710119128227234,0.5794000029563904,-1384000.75,-55.54218673706055,-57.5008544921875,0
2180830569,0.26851794123649597,0.0831683874130249,-23.476476669311523,0.000775255321059376,0.000637651770375669,0.0004691403592005372,-0.0011254249839112163,0.268754243850708,0.08705472946166992,0.5794000029563904,-1384000.75,-55.53257751464844,-57.52861022949219,0
2180840946,0.2743362784385681,0.08807875961065292,-23.475936889648438,0.0008455654606223106,0.0006355240475386381,0.00042258395114913583,-0.0011240161256864667,0.2688008248806,0.0870533213019371,0.5794000029563904,-1384000.75,-55.613311767578125,-57.52950668334961,0
2180850811,0.274409681558609,0.0892549380660057,-23.47444725036621,0.0009073843248188496,0.0006468065548688173,0.0003641850489657372,-0.0011346744140610099,0.26884615421295166,0.08706159889698029,0.5794000029563904,-1384000.75,-55.69509506225586,-57.526004791259766,0
2180860646,0.2748437225818634,0.09248430281877518,-23.47616195678711,0.0009723100811243057,0.0006952208350412548,0.000303333334159106,-0.0011800507782027125,0.2688937783241272,0.08709710836410522,0.5794000029563904,-1384000.75,-55.77436828613281,-57.51170349121094,0
2180870601,0.2727319002151489,0.09147538244724274,-23.475318908691406,0.0010108815040439367,0.000730507483240217,0.00026746399817056954,-0.0012128654634580016,0.2689220607280731,0.08712298423051834,0.5794000029563904,-1384000.75,-55.818115234375,-57.50199508666992,0
2180880674,0.268102765083313,0.09250126779079437,-23.471208572387695,0.0009988979436457157,0.0007686429307796061,0.0002833590260706842,-0.0012634486192837358,0.2689119279384613,0.08715521544218063,0.5794000029563904,-1384000.75,-55.80036163330078,-57.49755096435547,0
2180891358,0.27253246307373047,0.08809607475996017,-23.469247817993164,0.0010294768726453185,0.0007636481896042824,0.00024309090804308653,-0.0012568712700158358,0.26893773674964905,0.08715099841356277,0.5794000029563904,-1384000.75,-55.84489059448242,-57.49812698364258,0
2180900996,0.2708902359008789,0.08264139294624329,-23.474563598632812,0.001043591764755547,0.0007071883883327246,0.00022463590721599758,-0.0011830511502921581,0.26894962787628174,0.0871034488081932,0.5794000029563904,-1384000.75,-55.8647575378418,-57.50532531738281,0
2180910623,0.2778990864753723,0.08892696350812912,-23.478437423706055,0.0011231808457523584,0.0007115080952644348,0.0001213075447594747,-0.001188659225590527,0.2690165340900421,0.08710707724094391,0.5794000029563904,-1384000.75,-55.96918869018555,-57.50472640991211,0
2180920632,0.24009989202022552,0.07597047835588455,-23.49408721923828,0.0009096845169551671,0.0006206034449860454,0.0005341764190234244,-0.001012863707728684,0.2687951922416687,0.08701282739639282,0.5794000029563904,-1384000.75,-55.545814514160156,-57.494380950927734,0
2180930683,0.30783286690711975,0.13416153192520142,-23.48037338256836,0.0011909239692613482,0.0009519590530544519,-6.284183200477855e-06,-0.0016496330499649048,0.2690858840942383,0.08735531568527222,0.5794000029563904,-1384000.75,-56.082054138183594,-57.52070999145508,0
2180940918,0.2915014326572418,-0.010502840392291546,-23.453306198120117,0.0013468860415741801,0.0002375849144300446,-0.0003041436430066824,-0.0002853076148312539,0.2692466080188751,0.08661917597055435,0.5794000029563904,-1384000.75,-56.298866271972656,-57.34971618652344,0
2180951502,0.26665011048316956,0.3304198384284973,-23.479877471923828,0.0013301675207912922,0.0014216264244168997,-0.00025161262601614,-0.004005668684840202,0.26922255754470825,0.08832331001758575,0.5794000029563904,-1384000.75,-56.263729095458984,-57.70306396484375,0
2180960671,0.32936909794807434,-0.08492067456245422,-23.46576690673828,0.0016166450222954154,0.0005651110550388694,-0.001147193368524313,-0.0013280463172122836,0.26963338255882263,0.0870949849486351,0.5794000029563904,-1384000.75,-56.69392776489258,-57.641788482666016,0
2180970662,0.2308046966791153,-0.055488768965005875,-23.465559005737305,0.0014224399346858263,-0.00012470412184484303,-0.0005430864985100925,0.0008177371928468347,0.2693558633327484,0.08610919862985611,0.5794000029563904,-1384000.75,-56.441497802734375,-54.75117492675781,0
2180980654,0.22766312956809998,0.4231851100921631,-23.458877563476562,0.00132134766317904,0.0006763628334738314,0.00014952752098906785,-0.004670616239309311,0.26907944679260254,0.08829955756664276,0.5794000029563904,-1384000.75,-55.96409606933594,-51.617103576660156,0
2180990942,0.22558073699474335,-0.2929075360298157,-23.484708786010742,0.001218667603097856,-0.00022911527776159346,0.0008513550274074078,0.0015184103976935148,0.2687992751598358,0.08582891523838043,0.5794000029563904,-1384000.75,-55.46699905395508,-54.75274658203125,0
2181000959,0.23491229116916656,0.5207011699676514,-23.45677947998047,0.0011409727158024907,0.0007846529479138553,0.001381217036396265,-0.005395267158746719,0.26858770847320557,0.08858952671289444,0.5794000029563904,-1384000.75,-55.19641876220703,-51.616493225097656,0
