TimeUS,PLX,PLY,PLZ,AX,AY,BX,BY,CX,CY,F,P,X,Y,SW
332700883,0.20380908250808716,0.16331470012664795,-23.46805763244629,0.00022111924772616476,3.147726602037437e-05,0.0011754953302443027,-0.00030403307755477726,0.20831142365932465,0.16760565340518951,0.5794000029563904,0.0,-48.880733489990234,-26.600404739379883,0
332711290,0.20376728475093842,0.16846296191215515,-23.46207046508789,0.00014969198673497885,4.6052547986619174e-05,0.0010529274586588144,-0.00027902217698283494,0.20823004841804504,0.16762225329875946,0.5794000029563904,0.0,-48.836021423339844,-26.539995193481445,0
332721289,0.20948916673660278,0.17238479852676392,-23.467226028442383,0.0001525133557152003,0.00011273443669779226,0.0010574471671134233,-0.0001722001179587096,0.2082330882549286,0.16769424080848694,0.5794000029563904,0.0,-48.83803939819336,-26.123918533325195,0
332731973,0.20873670279979706,0.16905082762241364,-23.46921730041504,0.0001448328112019226,0.00013397748989518732,0.001045931363478303,-0.0001403494388796389,0.20822520554065704,0.16771605610847473,0.5794000029563904,0.0,-48.8323974609375,-25.941394805908203,0
332741623,0.20434564352035522,0.16867943108081818,-23.46503448486328,7.316084520425647e-05,0.00014996383106335998,0.0009451619698666036,-0.00011787295079557225,0.20815497636795044,0.16773171722888947,0.5794000029563904,0.0,-48.77205276489258,-25.798925399780273,0
332751229,0.20166867971420288,0.1680956780910492,-23.45924186706543,-3.9535018004244193e-05,0.00015711135347373784,0.0007958549540489912,-0.00010840343020390719,0.20804886519908905,0.16773845255374908,0.5794000029563904,0.0,-48.645164489746094,-25.73674201965332,0
332761276,0.20607486367225647,0.16946567595005035,-23.456165313720703,-8.303976937895641e-05,0.00018576458387542516,0.0007408649544231594,-7.218574319267645e-05,0.2080087959766388,0.1677648425102234,0.5794000029563904,0.0,-48.58317947387695,-25.503402709960938,0
332771264,0.20841725170612335,0.1670648455619812,-23.463272094726562,-8.815588807919994e-05,0.00017508519522380084,0.0007346871425397694,-8.508125029038638e-05,0.2080041766166687,0.16775520145893097,0.5794000029563904,0.0,-48.57537841796875,-25.585111618041992,0
332781577,0.20298394560813904,0.16847960650920868,-23.4717960357666,-0.00018463174637872726,0.0001881791395135224,0.0006232395535334945,-6.995530566200614e-05,0.20791873335838318,0.16776679456233978,0.5794000029563904,0.0,-48.40679168701172,-25.488691329956055,0
332791625,0.2010803073644638,0.16808614134788513,-23.471881866455078,-0.0003131190605927259,0.00019421352772042155,0.0004811930120922625,-6.32841038168408e-05,0.20780694484710693,0.16777203977108002,0.5794000029563904,0.0,-48.117923736572266,-25.447772979736328,0
332801325,0.20626425743103027,0.17341217398643494,-23.469884872436523,-0.0003475212724879384,0.00029489753069356084,0.00044476872426457703,4.3317813833709806e-05,0.20777751505374908,0.16785816848278046,0.5794000029563904,0.0,-48.031532287597656,-24.986927032470703,0
332811233,0.20503678917884827,0.17179282009601593,-23.471744537353516,-0.0004035315942019224,0.0003644198877736926,0.000387967680580914,0.00011382168304407969,0.20773038268089294,0.1679166704416275,0.5794000029563904,0.0,-47.889739990234375,-24.830039978027344,0
332821286,0.20163780450820923,0.16809624433517456,-23.463943481445312,-0.0005216399440541863,0.0003636039618868381,0.0002731882268562913,0.00011302874190732837,0.20763252675533295,0.16791599988937378,0.5794000029563904,0.0,-47.60643768310547,-24.831388473510742,0
332831568,0.21007417142391205,0.16605092585086823,-23.456390380859375,-0.00047655976959504187,0.00032366940286010504,0.000315149431116879,7.58571331971325e-05,0.20766930282115936,0.16788342595100403,0.5794000029563904,0.0,-47.708282470703125,-24.902565002441406,0
332841611,0.2173914611339569,0.1729268729686737,-23.46211814880371,-0.00029024144168943167,0.00041763391345739365,0.00048124269233085215,0.0001596217043697834,0.20781899988651276,0.16795893013477325,0.5794000029563904,0.0,-48.152099609375,-24.767704010009766,0
332851311,0.21479162573814392,0.17812559008598328,-23.47175407409668,-0.00015872609219513834,0.00061217718757689,0.0005933185457251966,0.00032540917163714767,0.2079227715730667,0.16811244189739227,0.5794000029563904,0.0,-48.43339920043945,-24.64419937133789,0
332861204,0.20731759071350098,0.17012125253677368,-23.47140121459961,-0.00018034612003248185,0.0006415066891349852,0.0005757847102358937,0.0003491953539196402,0.20790620148181915,0.1681349128484726,0.5794000029563904,0.0,-48.39126205444336,-24.63429069519043,0
332871199,0.20046678185462952,0.1635972410440445,-23.46574592590332,-0.0003442902525421232,0.0005339690251275897,0.00044899265049025416,0.0002660272584762424,0.20778407156467438,0.16805480420589447,0.5794000029563904,0.0,-48.04063034057617,-24.670562744140625,0
332881743,0.2007916420698166,0.16364219784736633,-23.4592227935791,-0.00049800262786448,0.0004290312936063856,0.000335370801622048,0.00018845887097995728,0.207672581076622,0.1679786890745163,0.5794000029563904,0.0,-47.7166748046875,-24.718883514404297,0
332892058,0.20419825613498688,0.1684730499982834,-23.45871925354004,-0.000574098143260926,0.0004312485980335623,0.00028180956724099815,0.00019001956388819963,0.20761892199516296,0.16798025369644165,0.5794000029563904,0.0,-47.580322265625,-24.717742919921875,0
332901321,0.2044650763273239,0.17177854478359222,-23.459184646606445,-0.00064176443265751,0.0005064685828983784,0.00023586716270074248,0.00024109057267196476,0.20757225155830383,0.16803213953971863,0.5794000029563904,0.0,-47.4762077331543,-24.688491821289062,0
332911300,0.2053973227739334,0.16785913705825806,-23.468908309936523,-0.0006861627334728837,0.000491372193209827,0.000206904107471928,0.00023124249128159136,0.2075423300266266,0.16802196204662323,0.5794000029563904,0.0,-47.4168701171875,-24.692916870117188,0
332921367,0.20951347053050995,0.16583141684532166,-23.472274780273438,-0.0006350281182676554,0.0004303343594074249,0.00023898383369669318,0.00019294991216156632,0.20757600665092468,0.16798175871372223,0.5794000029563904,0.0,-47.483943939208984,-24.711275100708008,0
332931519,0.20973823964595795,0.16551975905895233,-23.46732521057129,-0.0005797609919682145,0.0003638344642240554,0.00027237102040089667,0.00015277694910764694,0.20761162042617798,0.16793890297412872,0.5794000029563904,0.0,-47.56319808959961,-24.735225677490234,0
332941618,0.20777657628059387,0.16803309321403503,-23.457931518554688,-0.0005712683196179569,0.00035764355561695993,0.0002773157029878348,0.00014917242515366524,0.20761698484420776,0.16793499886989594,0.5794000029563904,0.0,-47.575931549072266,-24.73761749267578,0
332951278,0.2082781344652176,0.16713932156562805,-23.46147918701172,-0.0005508637987077236,0.00033069701748900115,0.00028877309523522854,0.00013404162018559873,0.20762960612773895,0.1679183393716812,0.5794000029563904,0.0,-47.606834411621094,-24.747682571411133,0
332961193,0.20606568455696106,0.16753874719142914,-23.463010787963867,-0.000582502456381917,0.0003139713953714818,0.0002716358576435596,0.00012498210708145052,0.20761042833328247,0.1679082065820694,0.5794000029563904,0.0,-47.56034851074219,-24.753934860229492,0
332971275,0.20600001513957977,0.16795292496681213,-23.46257209777832,-0.0006139773176982999,0.000307503214571625,0.00025518439360894263,0.00012160127516835928,0.2075916975736618,0.16790436208248138,0.5794000029563904,0.0,-47.517906188964844,-24.75619888305664,0
332981626,0.20191369950771332,0.16858896613121033,-23.46403694152832,-0.0007396336877718568,0.0003161346248816699,0.0001918130146805197,0.00012595429143402725,0.2075182944536209,0.1679093986749649,0.5794000029563904,0.0,-47.37774658203125,-24.753631591796875,0
332991613,0.20657850801944733,0.16936606168746948,-23.466541290283203,-0.0007503009983338416,0.00034255869104526937,0.00018662544607650489,0.00013880444748792797,0.20751217007637024,0.16792456805706024,0.5794000029563904,0.0,-47.36779022216797,-24.74779510498047,0
333001348,0.20851664245128632,0.1616886854171753,-23.464519500732422,-0.0007147138239815831,0.0001883097575046122,0.0002033078926615417,6.649608258157969e-05,0.20753225684165955,0.16783753037452698,0.5794000029563904,0.0,-47.40114212036133,-24.793323516845703,0
333011198,0.20404721796512604,0.15879729390144348,-23.46060562133789,-0.0007842309423722327,-2.6710897145676427e-05,0.00017194241809193045,-3.051926614716649e-05,0.20749366283416748,0.16771817207336426,0.5794000029563904,0.0,-47.33983612060547,-24.793323516845703,0
333021233,0.20127955079078674,0.16813306510448456,-23.45716094970703,-0.00091433065244928,-1.6217098163906485e-05,0.0001155177378677763,-2.5968070985982195e-05,0.20742256939411163,0.1677239090204239,0.5794000029563904,0.0,-47.24967575073242,-24.793323516845703,0
333031590,0.20623137056827545,0.1671803593635559,-23.45840072631836,-0.0009243496460840106,-2.8107177058700472e-05,0.00011134907981613651,-3.091523103648797e-05,0.20741717517375946,0.16771750152111053,0.5794000029563904,0.0,-47.2438850402832,-24.793323516845703,0
333041610,0.20960034430027008,0.16224828362464905,-23.465435028076172,-0.0008566549513489008,-0.00015196006279438734,0.00013830303214490414,-8.022963447729126e-05,0.20745310187339783,0.16765178740024567,0.5794000029563904,0.0,-47.28406524658203,-27.788599014282227,0
333051203,0.2081393152475357,0.1630638688802719,-23.463455200195312,-0.0008246545330621302,-0.00025176117196679115,0.00015045538020785898,-0.00011812971206381917,0.2074698507785797,0.16759955883026123,0.5794000029563904,0.0,-47.30446243286133,-27.835651397705078,0
333061301,0.20571358501911163,0.17033705115318298,-23.460281372070312,-0.0008480017422698438,-0.0001843349018599838,0.00014202941383700818,-9.379567200085148e-05,0.2074577957391739,0.16763439774513245,0.5794000029563904,0.0,-47.289947509765625,-27.803678512573242,0
333071200,0.2072778195142746,0.16852949559688568,-23.451417922973633,-0.000835339305922389,-0.00016001217591110617,0.00014635195839218795,-8.549270569346845e-05,0.20746426284313202,0.16764681041240692,0.5794000029563904,0.0,-47.29743957519531,-27.783666610717773,0
333081744,0.21598318219184875,0.16683998703956604,-23.458030700683594,-0.0006328507442958653,-0.00017373909940943122,0.0002113364898832515,-8.989807975012809e-05,0.20756642520427704,0.16763988137245178,0.5794000029563904,0.0,-47.4463005065918,-27.796871185302734,0
333092117,0.211994007229805,0.17018254101276398,-23.4656925201416,-0.0005253834533505142,-0.00011479295790195465,0.00024322574608959258,-7.240672857733443e-05,0.2076200246810913,0.16766928136348724,0.5794000029563904,0.0,-47.55757141113281,-27.71163558959961,0
333101343,0.214676633477211,0.16934950649738312,-23.459596633911133,-0.00036503965384326875,-7.619615644216537e-05,0.00028746973839588463,-6.175663293106481e-05,0.20769968628883362,0.16768845915794373,0.5794000029563904,0.0,-47.79107666015625,-27.71163558959961,0
333111325,0.20758533477783203,0.1673130989074707,-23.46205711364746,-0.0003610322892200202,-8.232484105974436e-05,0.00028847140492871404,-6.328853487502784e-05,0.2077016830444336,0.167685404419899,0.5794000029563904,0.0,-47.79814529418945,-27.618961334228516,0
333121242,0.20498217642307281,0.1653776913881302,-23.461578369140625,-0.0004117935604881495,-0.00012905345647595823,0.0002771427098196,-7.37172449589707e-05,0.20767635107040405,0.16766208410263062,0.5794000029563904,0.0,-47.71638870239258,-27.755380630493164,0
333131568,0.20785737037658691,0.16163542866706848,-23.456640243530273,-0.00040015351260080934,-0.00025221926625818014,0.0002794212778098881,-9.782729466678575e-05,0.20768217742443085,0.16760039329528809,0.5794000029563904,0.0,-47.733577728271484,-27.90436363220215,0
333141567,0.21137191355228424,0.16543389856815338,-23.46229362487793,-0.00031592740560881793,-0.0002917301026172936,0.00029349749092943966,-0.00010443050268804654,0.20772458612918854,0.1675805002450943,0.5794000029563904,0.0,-47.87261199951172,-27.93060874938965,0
333151210,0.21366101503372192,0.17153535783290863,-23.46194076538086,-0.00018801943224389106,-0.00020456267520785332,0.00031108007533475757,-9.244823013432324e-05,0.2077893763780594,0.16762465238571167,0.5794000029563904,0.0,-48.151145935058594,-27.84990692138672,0
333161199,0.2105976939201355,0.17155103385448456,-23.465742111206055,-0.00012735495693050325,-0.00012081119348295033,0.0003175424935761839,-8.352641452802345e-05,0.207820326089859,0.16766738891601562,0.5794000029563904,0.0,-48.313377380371094,-27.669448852539062,0
333171197,0.2120608240365982,0.16555023193359375,-23.46746253967285,-3.97671501559671e-05,-0.00016081331705208868,0.00032404015655629337,-8.649395749671385e-05,0.207865372300148,0.16764681041240692,0.5794000029563904,0.0,-48.572689056396484,-27.78089714050293,0
333181630,0.2097642421722412,0.16641612350940704,-23.46531867980957,-1.0932645864158985e-06,-0.0001820502511691302,0.0003255944757256657,-8.734747098060325e-05,0.20788544416427612,0.16763578355312347,0.5794000029563904,0.0,-48.691444396972656,-27.827011108398438,0
333191610,0.20567212998867035,0.1711987555027008,-23.460472106933594,-4.3520434701349586e-05,-0.00010935731552308425,0.0003253936010878533,-8.700332546140999e-05,0.2078631967306137,0.16767390072345734,0.5794000029563904,0.0,-48.56184387207031,-27.602323532104492,0
333201345,0.20257525146007538,0.1706809401512146,-23.456531524658203,-0.00014316696615424007,-4.989416629541665e-05,0.00032855267636477947,-8.8888467871584e-05,0.2078103870153427,0.16770541667938232,0.5794000029563904,0.0,-48.28385925292969,-27.215059280395508,0
333211213,0.2056311070919037,0.1668916940689087,-23.460124969482422,-0.00018051515507977456,-6.458496500272304e-05,0.00033113168319687247,-8.787402475718409e-05,0.20779035985469818,0.16769753396511078,0.5794000029563904,0.0,-48.1956901550293,-27.337387084960938,0
333221295,0.20927059650421143,0.16585734486579895,-23.465185165405273,-0.0001485844695707783,-9.781114931683987e-05,0.0003277132927905768,-8.43169545987621e-05,0.20780770480632782,0.16767948865890503,0.5794000029563904,0.0,-48.26912307739258,-27.56292724609375,0
333231625,0.20926961302757263,0.16756367683410645,-23.46864891052246,-0.00011797928891610354,-9.856047836365178e-05,0.00032323357299901545,-8.42072768136859e-05,0.20782454311847687,0.1676790714263916,0.5794000029563904,0.0,-48.344825744628906,-27.56734275817871,0
333241606,0.20697806775569916,0.16770119965076447,-23.46735382080078,-0.00012943404726684093,-9.68959357123822e-05,0.00032537273364141583,-8.451812755083665e-05,0.2078181505203247,0.16767999529838562,0.5794000029563904,0.0,-48.31618881225586,-27.55709457397461,0
333251277,0.2082471251487732,0.16919544339179993,-23.455320358276367,-0.00011805639951489866,-6.935866258572787e-05,0.00032277300488203764,-9.081021562451497e-05,0.20782460272312164,0.16769559681415558,0.5794000029563904,0.0,-48.34415817260742,-27.355831146240234,0
333261270,0.20757324993610382,0.16406692564487457,-23.45076560974121,-0.00011854938929900527,-0.00013054015289526433,0.00032290699891746044,-7.418140739900991e-05,0.20782431960105896,0.16766037046909332,0.5794000029563904,0.0,-48.34294509887695,-27.757610321044922,0
333271323,0.20195244252681732,0.16297516226768494,-23.462451934814453,-0.00021219147311057895,-0.000206798329600133,0.0003525945940054953,-5.000508826924488e-05,0.2077694982290268,0.16761572659015656,0.5794000029563904,0.0,-48.15305709838867,-28.03711700439453,0
333281713,0.20121079683303833,0.16803725063800812,-23.468849182128906,-0.00031279667746275663,-0.0001972683530766517,0.000389228283893317,-5.3475268941838294e-05,0.20770953595638275,0.1676214039325714,0.5794000029563904,0.0,-48.017845153808594,-28.00965118408203,0
333292002,0.20440009236335754,0.16729754209518433,-23.462173461914062,-0.00035771759576164186,-0.00019996050104964525,0.0004078049387317151,-5.2361952839419246e-05,0.20768225193023682,0.1676197648048401,0.5794000029563904,0.0,-47.974735260009766,-28.01825714111328,0
333301326,0.20602639019489288,0.16859641671180725,-23.448083877563477,-0.00037522224010899663,-0.00018275249749422073,0.0004159582022111863,-6.037704588379711e-05,0.2076714038848877,0.1676304191350937,0.5794000029563904,0.0,-47.96084213256836,-27.955280303955078,0
333311215,0.20732133090496063,0.16992075741291046,-23.451969146728516,-0.00037248892476782203,-0.0001470138959120959,0.0004145345592405647,-7.899153570178896e-05,0.20767313241958618,0.16765303909778595,0.5794000029563904,0.0,-47.962772369384766,-27.781322479248047,0
333321232,0.21005494892597198,0.17474453151226044,-23.46138572692871,-0.0003307612787466496,-4.4495212932815775e-05,0.00039035751251503825,-0.00013839102757629007,0.20770013332366943,0.16771939396858215,0.5794000029563904,0.0,-47.99185562133789,-27.014650344848633,0
333331614,0.21227535605430603,0.17152953147888184,-23.47016143798828,-0.00026088563026860356,7.433849987137364e-06,0.0003454997786320746,-0.00017172767547890544,0.2077464610338211,0.16775381565093994,0.5794000029563904,0.0,-48.04804229736328,-26.660308837890625,0
333341621,0.20725388824939728,0.1661529839038849,-23.466615676879883,-0.0002618989092297852,-1.5231912584567908e-05,0.00034621861414052546,-0.00015564779459964484,0.2077457755804062,0.1677383929491043,0.5794000029563904,0.0,-48.047176361083984,-26.80112075805664,0
333351202,0.20972062647342682,0.16344068944454193,-23.462013244628906,-0.00023143122962210327,-7.09706946508959e-05,0.0003223982057534158,-0.00011206982162548229,0.2077670842409134,0.1676994115114212,0.5794000029563904,0.0,-48.07219696044922,-27.268095016479492,0
333361373,0.20919105410575867,0.16606208682060242,-23.45533561706543,-0.0002094262163154781,-9.11183888092637e-05,0.0003034487599506974,-9.47197841014713e-05,0.20778293907642365,0.1676848977804184,0.5794000029563904,0.0,-48.0907096862793,-27.46959114074707,0
333371293,0.21480971574783325,0.17338111996650696,-23.460445404052734,-0.00012386360322125256,-2.512218452466186e-05,0.00022235940559767187,-0.00015726567653473467,0.20784662663936615,0.1677340269088745,0.5794000029563904,0.0,-48.186561584472656,-26.861974716186523,0
333381629,0.21768271923065186,0.17299452424049377,-23.464672088623047,-1.3020934602536727e-05,3.168292096233927e-05,0.00010671887139324099,-0.00021652961731888354,0.20793209969997406,0.16777783632278442,0.5794000029563904,0.0,-48.57338333129883,-26.558279037475586,0
333391637,0.21271634101867676,0.1685752272605896,-23.459354400634766,3.759907485800795e-05,3.809052941505797e-05,4.850202094530687e-05,-0.0002238988527096808,0.2079726755619049,0.1677829772233963,0.5794000029563904,0.0,-48.57338333129883,-26.535058975219727,0
333401376,0.20862913131713867,0.16505193710327148,-23.46225929260254,4.413680289871991e-05,9.491216587775853e-06,4.020120468339883e-05,-0.00018758689111564308,0.20797814428806305,0.16775904595851898,0.5794000029563904,0.0,-48.57338333129883,-26.653017044067383,0
333411286,0.21106436848640442,0.1667540818452835,-23.463382720947266,7.239539991132915e-05,-1.0956408686979557e-06,4.826914619115996e-07,-0.00017270667012780905,0.20800292491912842,0.16774976253509521,0.5794000029563904,0.0,-48.57338333129883,-26.70991325378418,0
333421362,0.2119884043931961,0.16787955164909363,-23.461166381835938,0.00010591546015348285,-1.1686083780659828e-06,-5.186687485547736e-05,-0.0001725927140796557,0.20803391933441162,0.16774968802928925,0.5794000029563904,0.0,-50.72096633911133,-26.71034049987793,0
333431567,0.20535674691200256,0.17035312950611115,-23.45701026916504,8.41125802253373e-05,1.8138563973479904e-05,-1.3830735042574815e-05,-0.0002062749699689448,0.20801252126693726,0.16776862740516663,0.5794000029563904,0.0,-50.72096633911133,-26.615861892700195,0
333441605,0.20582525432109833,0.16376283764839172,-23.45888328552246,6.80064331390895e-05,-1.193708067148691e-05,1.7731583284330554e-05,-0.00014733739953953773,0.20799562335014343,0.16773706674575806,0.5794000029563904,0.0,-50.72096633911133,-26.784412384033203,0
333451228,0.20966601371765137,0.16908633708953857,-23.461551666259766,7.873684080550447e-05,-3.959756213589571e-06,-6.104609838075703e-06,-0.00016505797975696623,0.2080077826976776,0.16774611175060272,0.5794000029563904,0.0,-50.72096633911133,-26.727556228637695,0
333461297,0.20831109583377838,0.1738327592611313,-23.465364456176758,8.025208808248863e-05,3.05543580907397e-05,-9.959461749531329e-06,-0.00025286313029937446,0.20800966024398804,0.16778887808322906,0.5794000029563904,0.0,-50.72096633911133,-26.58332061767578,0
333471217,0.20383372902870178,0.16685429215431213,-23.459609985351562,5.869341839570552e-05,2.4550152375013568e-05,5.374368265620433e-05,-0.00023512146435678005,0.2079799920320511,0.16778062283992767,0.5794000029563904,0.0,-50.72096633911133,-26.599533081054688,0
333481693,0.2050010859966278,0.15570786595344543,-23.455839157104492,4.5695451262872666e-05,-2.9569830076070502e-05,9.920748561853543e-05,-4.5822605898138136e-05,0.20795972645282745,0.16769622266292572,0.5794000029563904,0.0,-49.126434326171875,-26.599533081054688,0
333492070,0.20789678394794464,0.16125637292861938,-23.457870483398438,4.5740634959656745e-05,-5.295843584463e-05,9.901102748699486e-05,5.5872831580927595e-05,0.20795981585979462,0.1676529347896576,0.5794000029563904,0.0,-49.1275634765625,-26.599533081054688,0
333501309,0.20512166619300842,0.16994735598564148,-23.46170997619629,3.756672595045529e-05,-4.595564678311348e-05,0.00014294710126705468,1.823169986892026e-05,0.20794178545475006,0.1676683872938156,0.5794000029563904,0.0,-48.951786041259766,-26.599533081054688,0
333511212,0.2006901353597641,0.17401565611362457,-23.466623306274414,2.1655685486621223e-05,-3.171505522914231e-05,0.0002579812426120043,-8.472537592751905e-05,0.2078963667154312,0.16770903766155243,0.5794000029563904,0.0,-48.778541564941406,-26.599533081054688,0
333521215,0.2027537226676941,0.16567109525203705,-23.462141036987305,1.4321892194857355e-05,-3.4874770790338516e-05,0.0003380499256309122,-5.022833647672087e-05,0.207865908741951,0.16769590973854065,0.5794000029563904,0.0,-48.73713684082031,-26.599533081054688,0
333531604,0.2035345733165741,0.15682870149612427,-23.4554386138916,1.1267321497143712e-05,-4.3192289012949914e-05,0.00040419423021376133,0.0001298809511354193,0.20784160494804382,0.16762974858283997,0.5794000029563904,0.0,-48.72266387939453,-29.52411651611328,0
333541598,0.2075057327747345,0.16414479911327362,-23.459564208984375,1.126880852098111e-05,-4.32779015682172e-05,0.0004032249271403998,0.00018566982180345803,0.20784194767475128,0.16760991513729095,0.5794000029563904,0.0,-48.72273254394531,-29.61616325378418,0
333551305,0.2110067903995514,0.16473087668418884,-23.456504821777344,8.755137969274074e-06,-4.137987707508728e-05,0.000343489897204563,0.00023077460355125368,0.20786254107952118,0.16759437322616577,0.5794000029563904,0.0,-48.72027587890625,-29.667741775512695,0
333561256,0.2139432728290558,0.1615341603755951,-23.459030151367188,-4.6356481675502437e-07,-3.3014581276802346e-05,0.00023521184630226344,0.0003290289605502039,0.207898810505867,0.16756147146224976,0.5794000029563904,0.0,-48.69282150268555,-29.745161056518555,0
333571296,0.20714399218559265,0.15507423877716064,-23.461000442504883,6.585509026990621e-07,-6.806802502978826e-06,0.00024402054259553552,0.0005347620462998748,0.2078959345817566,0.16749434173107147,0.5794000029563904,0.0,-48.69749069213867,-29.83243751525879,0
333581628,0.20358023047447205,0.16305840015411377,-23.462200164794922,1.236544267158024e-05,4.409915163705591e-06,0.00031306251185014844,0.0006009131902828813,0.20787394046783447,0.16747325658798218,0.5794000029563904,0.0,-48.73426818847656,-29.85250473022461,0
333591578,0.2073771208524704,0.1686021089553833,-23.467620849609375,1.3024996405874845e-05,-1.7899319573189132e-06,0.00031618241337127984,0.0005715858424082398,0.20787297189235687,0.1674824059009552,0.5794000029563904,0.0,-48.7359619140625,-29.8420352935791,0
333601344,0.2085009515285492,0.173794224858284,-23.472850799560547,8.977287507150322e-06,-3.129282777081244e-05,0.0003001970471814275,0.0004550718585960567,0.20787787437438965,0.16751809418201447,0.5794000029563904,0.0,-48.72468566894531,-29.77651023864746,0
333611286,0.2125113308429718,0.1644776612520218,-23.466840744018555,-1.5599100152030587e-05,-1.8401829947833903e-05,0.00021697263582609594,0.0004987253923900425,0.2079029679298401,0.1675049364566803,0.5794000029563904,0.0,-48.62302017211914,-29.808284759521484,0
333621229,0.21303698420524597,0.16257129609584808,-23.458263397216797,-4.589342643157579e-05,6.73922340865829e-06,0.00012722722021862864,0.0005732044810429215,0.20792968571186066,0.16748276352882385,0.5794000029563904,0.0,-48.34859848022461,-29.856922149658203,0
333631580,0.21006600558757782,0.1645214706659317,-23.458332061767578,-6.019004649715498e-05,2.1894007659284398e-05,8.963418804341927e-05,0.0006130540859885514,0.20794077217578888,0.1674710065126419,0.5794000029563904,0.0,-48.10344314575195,-29.880863189697266,0
333641643,0.20611092448234558,0.1722080111503601,-23.462902069091797,-4.7938767238520086e-05,-1.549734042782802e-05,0.0001185482760774903,0.0005248072557151318,0.20793229341506958,0.16749687492847443,0.5794000029563904,0.0,-48.31051254272461,-29.815643310546875,0
333651202,0.2086765617132187,0.17005585134029388,-23.471294403076172,-5.4442301916424185e-05,-3.896526322932914e-05,0.0001046561956172809,0.00047467785771004856,0.2079363465309143,0.16751152276992798,0.5794000029563904,0.0,-48.21511459350586,-29.763259887695312,0
333661197,0.2112101912498474,0.16305886209011078,-23.462894439697266,-8.226693898905069e-05,-5.861878889845684e-06,5.045605939812958e-05,0.0005391605664044619,0.20795218646526337,0.16749267280101776,0.5794000029563904,0.0,-48.21511459350586,-29.834291458129883,0
333671276,0.21254345774650574,0.1683124303817749,-23.454126358032227,-0.00012333880295045674,-1.775486089172773e-05,-2.2857093426864594e-05,0.0005179316503927112,0.20797371864318848,0.1674989014863968,0.5794000029563904,0.0,-46.94075393676758,-29.810895919799805,0
333681723,0.20920588076114655,0.16980081796646118,-23.455297470092773,-0.00013447499077301472,-4.4246473407838494e-05,-4.115762931178324e-05,0.0004743969184346497,0.20797914266586304,0.16751179099082947,0.5794000029563904,0.0,-46.82698440551758,-29.75216293334961,0
333692104,0.20587772130966187,0.1690651774406433,-23.458662033081055,-0.00011227907089050859,-6.438366835936904e-05,-7.720031135249883e-06,0.0004440607444848865,0.20796909928321838,0.1675208956003189,0.5794000029563904,0.0,-47.05534362792969,-29.7011775970459,0
333701317,0.21110989153385162,0.16817903518676758,-23.464664459228516,-0.00014520599506795406,-7.552092574769631e-05,-5.402026363299228e-05,0.00042840008973143995,0.20798321068286896,0.16752566397190094,0.5794000029563904,0.0,-46.7678337097168,-29.670669555664062,0
333711316,0.2117946743965149,0.17088685929775238,-23.463512420654297,-0.0001866784441517666,-0.00011720115435309708,-0.00010814877168741077,0.00037400040309876204,0.208000048995018,0.16754259169101715,0.5794000029563904,0.0,-46.59891128540039,-29.541484832763672,0
333721292,0.20875941216945648,0.1728256642818451,-23.45767593383789,-0.00019348137720953673,-0.00018250435823574662,-0.00011640198499662802,0.00029477555654011667,0.20800268650054932,0.1675678789615631,0.5794000029563904,0.0,-46.5823860168457,-29.290796279907227,0
333731640,0.21000038087368011,0.16710349917411804,-23.45295524597168,-0.0002155584516003728,-0.00017893982294481248,-0.0001413205754943192,0.00029879887006245553,0.20801088213920593,0.16756655275821686,0.5794000029563904,0.0,-46.5436897277832,-29.305580139160156,0
333741663,0.20939280092716217,0.16124695539474487,-23.455549240112305,-0.00023021435481496155,-0.00010060425847768784,-0.00015671354776713997,0.0003810740599874407,0.20801612734794617,0.16753849387168884,0.5794000029563904,0.0,-46.52631759643555,-29.587051391601562,0
333751274,0.2024955153465271,0.15867134928703308,-23.466793060302734,-0.00015397040988318622,1.2903024980914779e-05,-8.216890273615718e-05,0.000492051534820348,0.2079896628856659,0.1674990952014923,0.5794000029563904,0.0,-46.63377380371094,-29.871381759643555,0
333761202,0.2032778114080429,0.16304832696914673,-23.468875885009766,-8.7548432929907e-05,6.801439303671941e-05,-2.1778956579510123e-05,0.0005421580281108618,0.20796720683574677,0.16748046875,0.5794000029563904,0.0,-46.63377380371094,-29.9699649810791,0
333771201,0.2072935402393341,0.16785532236099243,-23.46518325805664,-7.70880506024696e-05,5.604490070254542e-05,-1.2942492503498215e-05,0.0005320467171259224,0.2079637497663498,0.16748443245887756,0.5794000029563904,0.0,-46.63377380371094,-29.950117111206055,0
333781586,0.21279792487621307,0.17112556099891663,-23.458282470703125,-0.00014620646834373474,-3.1676015623816056e-06,-6.710483285132796e-05,0.0004856468294747174,0.2079862356185913,0.16750368475914001,0.5794000029563904,0.0,-46.69369888305664,-29.83864402770996,0
333791581,0.21183589100837708,0.16821488738059998,-23.460344314575195,-0.00020119798136875033,-1.9158325812895782e-05,-0.00010698960250010714,0.00047404892393387854,0.20800389349460602,0.1675088256597519,0.5794000029563904,0.0,-46.635257720947266,-29.804773330688477,0
333801380,0.2080698013305664,0.16771003603935242,-23.458768844604492,-0.0001989268494071439,-2.7301090085529722e-05,-0.00010546980774961412,0.0004685999592766166,0.20800316333770752,0.16751141846179962,0.5794000029563904,0.0,-46.63648223876953,-29.786970138549805,0
333811300,0.20756211876869202,0.16890621185302734,-23.46079444885254,-0.00018873521185014397,-5.38133826921694e-05,-9.919889271259308e-05,0.00045228697126731277,0.20799992978572845,0.16751982271671295,0.5794000029563904,0.0,-46.64007568359375,-29.726741790771484,0
333821250,0.20420241355895996,0.17246536910533905,-23.462488174438477,-0.00012535475252661854,-0.00013636912626679987,-6.350672629196197e-05,0.0004057963960804045,0.20797987282276154,0.16754594445228577,0.5794000029563904,0.0,-46.65506362915039,-29.52096939086914,0
333831565,0.2058248668909073,0.1684221476316452,-23.466289520263672,-8.844215335557237e-05,-0.0001531004236312583,-4.45979785581585e-05,0.0003972256672568619,0.20796816051006317,0.16755124926567078,0.5794000029563904,0.0,-46.65506362915039,-29.47728729248047,0
333841586,0.20278622210025787,0.16889308393001556,-23.467737197875977,-2.0883896922896383e-06,-0.00017716895672492683,-4.639192411559634e-06,0.00038608835893683136,0.20794060826301575,0.1675589233636856,0.5794000029563904,0.0,-46.65506362915039,-29.414949417114258,0
333851290,0.2066076397895813,0.16610205173492432,-23.460899353027344,2.0086597942281514e-05,-0.00015448377234861255,4.544931471173186e-06,0.0003954838030040264,0.2079334706068039,0.16755162179470062,0.5794000029563904,0.0,-46.65506362915039,-29.47277069091797,0
333861276,0.20513315498828888,0.16934262216091156,-23.45815658569336,6.674126780126244e-05,-0.00018616388842929155,2.1636484234477393e-05,0.00038387803942896426,0.20791825652122498,0.16756194829940796,0.5794000029563904,0.0,-46.65506362915039,-29.393625259399414,0
333871214,0.20264951884746552,0.16865898668766022,-23.459062576293945,0.00015485758194699883,-0.00020558814867399633,4.973736577085219e-05,0.00037768352194689214,0.20788909494876862,0.1675683706998825,0.5794000029563904,0.0,-43.67162322998047,-29.346677780151367,0
333881718,0.20691454410552979,0.16598550975322723,-23.47036361694336,0.0001687917101662606,-0.0001787954242900014,5.3529456636169925e-05,0.000384974991902709,0.20788440108299255,0.16755934059619904,0.5794000029563904,0.0,-43.675296783447266,-29.41037368774414,0
333892117,0.20489704608917236,0.17258034646511078,-23.474390029907227,0.00021723908139392734,-0.0002656743163242936,6.421691796276718e-05,0.00036580953747034073,0.20786769688129425,0.16758929193019867,0.5794000029563904,0.0,-43.694976806640625,-29.217029571533203,0
333901363,0.20491670072078705,0.17532560229301453,-23.46626091003418,0.00026434333994984627,-0.00039795006159693,7.262993312906474e-05,0.00034218456130474806,0.2078511118888855,0.16763584315776825,0.5794000029563904,0.0,-43.714256286621094,-28.98456573486328,0
333911255,0.2006610929965973,0.17106002569198608,-23.45716094970703,0.0003841712314169854,-0.0004533924220595509,8.840880036586896e-05,0.0003348839527461678,0.20780785381793976,0.1676558554172516,0.5794000029563904,0.0,-43.75620651245117,-28.910547256469727,0
333921242,0.20495504140853882,0.1697862148284912,-23.46392250061035,0.00042688738903962076,-0.00048523093573749065,9.200738713843748e-05,0.0003322017437312752,0.2077919989824295,0.1676676720380783,0.5794000029563904,0.0,-43.77011489868164,-28.87470245361328,0
333931613,0.2082081437110901,0.16829977929592133,-23.47167205810547,0.00041218026308342814,-0.0004902536165900528,9.14715274120681e-05,0.00033201873884536326,0.20779761672019958,0.16766959428787231,0.5794000029563904,0.0,-43.764015197753906,-28.86965560913086,0
333941601,0.2086103856563568,0.169001966714859,-23.470260620117188,0.0003908644139301032,-0.0005069892504252493,9.172932186629623e-05,0.00033222115598618984,0.2078060358762741,0.1676761955022812,0.5794000029563904,0.0,-43.75188446044922,-28.854450225830078,0
333951226,0.2075241059064865,0.1724155843257904,-23.465879440307617,0.0003888136416207999,-0.0005817377823404968,9.185552335111424e-05,0.0003368211619090289,0.20780687034130096,0.16770672798156738,0.5794000029563904,0.0,-43.750404357910156,-28.799198150634766,0
333961276,0.20566251873970032,0.17326687276363373,-23.459312438964844,0.00041866788524203,-0.0006685732514597476,8.85034678503871e-05,0.00034657109063118696,0.2077942192554474,0.1677435040473938,0.5794000029563904,0.0,-43.774070739746094,-28.752609252929688,0
333971265,0.2027183622121811,0.16565489768981934,-23.45592498779297,0.0004975599003955722,-0.0006231994484551251,7.556294440291822e-05,0.00033912851358763874,0.20775951445102692,0.16772355139255524,0.5794000029563904,0.0,-43.83168029785156,-28.772729873657227,0
333981620,0.2059262990951538,0.1657503992319107,-23.461528778076172,0.0005199118168093264,-0.0005806609988212585,7.069631101330742e-05,0.000329866714309901,0.20774927735328674,0.16770407557487488,0.5794000029563904,0.0,-43.84724807739258,-28.790996551513672,0
333991585,0.20327770709991455,0.1671900451183319,-23.462478637695312,0.0005854520131833851,-0.0005632804241031408,5.279616379993968e-05,0.00032511979225091636,0.20771798491477966,0.1676957756280899,0.5794000029563904,0.0,-43.892459869384766,-28.7978515625,0
334001356,0.2054060846567154,0.16894643008708954,-23.459152221679688,0.0006136805168353021,-0.0005750784766860306,4.3461557652335614e-05,0.0003290211607236415,0.20770390331745148,0.16770166158676147,0.5794000029563904,0.0,-43.91169357299805,-28.794050216674805,0
334011285,0.20713624358177185,0.1696905642747879,-23.462936401367188,0.0006129153189249337,-0.0005981753347441554,4.37607268395368e-05,0.0003380511770956218,0.2077043056488037,0.1677137166261673,0.5794000029563904,0.0,-43.9111213684082,-28.78876495361328,0
334021326,0.2108829915523529,0.16853496432304382,-23.470035552978516,0.0005529540940187871,-0.0006018202984705567,7.098032074281946e-05,0.0003397058171685785,0.20773713290691376,0.16771571338176727,0.5794000029563904,0.0,-43.85472869873047,-28.788253784179688,0
334031630,0.212119460105896,0.16623754799365997,-23.46127700805664,0.000476566405268386,-0.000569542869925499,0.00011072484630858526,0.0003229118592571467,0.2077810913324356,0.16769713163375854,0.5794000029563904,0.0,-43.75410842895508,-28.790149688720703,0
334041550,0.211796835064888,0.16645610332489014,-23.454607009887695,0.0004087391134817153,-0.0005419293302111328,0.0001507785200374201,0.0003066053905058652,0.20782220363616943,0.16768039762973785,0.5794000029563904,0.0,-43.628997802734375,-28.789241790771484,0
334051251,0.2027842253446579,0.16387085616588593,-23.455650329589844,0.0004771243839059025,-0.00047748739598318934,0.00010526859114179388,0.0002637197030708194,0.2077784538269043,0.16763916611671448,0.5794000029563904,0.0,-43.7652473449707,-28.778987884521484,0
334061286,0.20042522251605988,0.16701321303844452,-23.46025276184082,0.0005756925093010068,-0.0004612940829247236,3.1792864319868386e-05,0.00025164871476590633,0.20771172642707825,0.1676281988620758,0.5794000029563904,0.0,-43.92723083496094,-28.773778915405273,0
334071269,0.2019796073436737,0.16651813685894012,-23.465280532836914,0.0006472489912994206,-0.00043906643986701965,-2.7702588340616785e-05,0.00023316759325098246,0.20766034722328186,0.1676122397184372,0.5794000029563904,0.0,-44.02517318725586,-28.762556076049805,0
334081677,0.20629867911338806,0.17083483934402466,-23.46851348876953,0.0006568855023942888,-0.0004757489077746868,-3.661239315988496e-05,0.0002670838439371437,0.2076529860496521,0.16764025390148163,0.5794000029563904,0.0,-44.03807830810547,-28.785926818847656,0
334092172,0.21020223200321198,0.16681557893753052,-23.462800979614258,0.0006159511976875365,-0.0004584627167787403,5.8252849157724995e-06,0.00024916278198361397,0.20768655836582184,0.16762606799602509,0.5794000029563904,0.0,-43.97294235229492,-28.77219581604004,0
334101329,0.20612141489982605,0.16887128353118896,-23.454246520996094,0.0006279117660596967,-0.00046752209891565144,-7.778224244248122e-06,0.0002594666148070246,0.20767612755298615,0.16763396561145782,0.5794000029563904,0.0,-43.99478530883789,-28.781036376953125,0
334111236,0.20905061066150665,0.1712902933359146,-23.466726303100586,0.0006047657807357609,-0.0005042212433181703,2.141512777598109e-05,0.0003057541325688362,0.2076978236436844,0.16766835749149323,0.5794000029563904,0.0,-43.94700241088867,-28.81947898864746,0
334121215,0.21296754479408264,0.17586037516593933,-23.47129249572754,0.0005399525398388505,-0.000588840339332819,0.00011210561206098646,0.0004241581482347101,0.20776334404945374,0.1677538901567459,0.5794000029563904,0.0,-43.777687072753906,-28.89861297607422,0
334131609,0.21078281104564667,0.16961796581745148,-23.464475631713867,0.0005034739733673632,-0.0006010022480040789,0.0001688291085883975,0.00044306970085017383,0.20780330896377563,0.1677672117948532,0.5794000029563904,0.0,-43.65885543823242,-28.909645080566406,0
334141548,0.20977845788002014,0.16815757751464844,-23.46401023864746,0.000480207905638963,-0.0005976780084893107,0.00020915732602588832,0.00043730760808102787,0.20783109962940216,0.16776324808597565,0.5794000029563904,0.0,-43.571624755859375,-28.90604591369629,0
334151207,0.21057935059070587,0.16841988265514374,-23.457304000854492,0.00045195361599326134,-0.0005970196798443794,0.0002639403101056814,0.0004360312013886869,0.20786809921264648,0.1677623838186264,0.5794000029563904,0.0,-43.45383071899414,-28.90517807006836,0
334161285,0.21022583544254303,0.17083890736103058,-23.459365844726562,0.00042971872608177364,-0.0006168190739117563,0.000312416726956144,0.0004791977407876402,0.207900270819664,0.16779102385044098,0.5794000029563904,0.0,-43.35376739501953,-28.934860229492188,0
334171209,0.21001450717449188,0.17219305038452148,-23.465431213378906,0.00041173252975568175,-0.0006448287749662995,0.00035681313602253795,0.0005483357235789299,0.20792926847934723,0.16783617436885834,0.5794000029563904,0.0,-43.268341064453125,-28.979076385498047,0
334181665,0.20392656326293945,0.16926565766334534,-23.469520568847656,0.00043853968963958323,-0.0006489558145403862,0.0002811870363075286,0.0005599785363301635,0.20788055658340454,0.16784366965293884,0.5794000029563904,0.0,-43.41224670410156,-28.986305236816406,0
334191623,0.20227937400341034,0.16757681965827942,-23.46532440185547,0.00047207335592247546,-0.0006420065183192492,0.0001718820130918175,0.0005373269086703658,0.20781101286411285,0.1678292602300644,0.5794000029563904,0.0,-43.63322448730469,-28.971242904663086,0
334201339,0.20126467943191528,0.16911202669143677,-23.46259117126465,0.0005061231204308569,-0.0006444362225010991,4.147241997998208e-05,0.0005466325674206018,0.20772892236709595,0.16783511638641357,0.5794000029563904,0.0,-43.9006462097168,-28.977842330932617,0
334211304,0.20778650045394897,0.1645323783159256,-23.461164474487305,0.0005041352706030011,-0.0006251979502849281,5.0608916353667155e-05,0.0004582091933116317,0.207734614610672,0.16777996718883514,0.5794000029563904,0.0,-43.88235092163086,-28.906843185424805,0
334221279,0.21469999849796295,0.16180069744586945,-23.466350555419922,0.0004761016461998224,-0.00059932452859357,0.00021008540352340788,0.0003110215475317091,0.20783330500125885,0.16768887639045715,0.5794000029563904,0.0,-43.56684112548828,-28.753068923950195,0
334231603,0.2067084163427353,0.16117125749588013,-23.46806526184082,0.0004788608639501035,-0.0005777362384833395,0.00018970516975969076,0.00015156592417042702,0.20782077312469482,0.16759085655212402,0.5794000029563904,0.0,-43.6052131652832,-28.53093719482422,0
334241527,0.20879854261875153,0.16174210608005524,-23.466093063354492,0.00047627283493056893,-0.0005638339789584279,0.00021653941075783223,7.418205768772168e-06,0.20783717930316925,0.16750271618366241,0.5794000029563904,0.0,-43.555686950683594,-28.28753089904785,0
334251308,0.20852473378181458,0.16660255193710327,-23.46326446533203,0.00047511770389974117,-0.0005620911251753569,0.0002362385712331161,-2.230381141998805e-05,0.2078491747379303,0.16748462617397308,0.5794000029563904,0.0,-43.52098083496094,-28.234716415405273,0
334261297,0.2073708325624466,0.16357697546482086,-23.460506439208984,0.0004752923268824816,-0.000559923704713583,0.00022823084145784378,-0.00012169652472948655,0.2078443169593811,0.1674243062734604,0.5794000029563904,0.0,-43.53472900390625,-28.060359954833984,0
334271343,0.20829808712005615,0.16589415073394775,-23.458837509155273,0.00047548708971589804,-0.0005605281912721694,0.00024183816276490688,-0.00016392965335398912,0.2078525573015213,0.16739873588085175,0.5794000029563904,0.0,-43.51189041137695,-27.98985481262207,0
334281717,0.2059943675994873,0.1728598177433014,-23.461349487304688,0.0004734036047011614,-0.0005543256993405521,0.00019974540919065475,-3.861976074404083e-05,0.2078271061182022,0.16747452318668365,0.5794000029563904,0.0,-43.583133697509766,-28.204818725585938,0
334292009,0.20582512021064758,0.1725548952817917,-23.46174430847168,0.00046956015285104513,-0.0005445997230708599,0.00015417711983900517,7.669217302463949e-05,0.20779955387115479,0.16754424571990967,0.5794000029563904,0.0,-43.66515350341797,-28.41427993774414,0
334301308,0.2105858474969864,0.16964365541934967,-23.46567153930664,0.00047792005352675915,-0.000539604399818927,0.00022465591609943658,0.00011880558304255828,0.20784220099449158,0.16756972670555115,0.5794000029563904,0.0,-43.54298782348633,-28.491090774536133,0
334311286,0.21227136254310608,0.17040342092514038,-23.467824935913086,0.0004945583059452474,-0.000530485063791275,0.0003336525696795434,0.0001785462663974613,0.2079082578420639,0.1676059365272522,0.5794000029563904,0.0,-43.38889694213867,-28.59903907775879,0
334321309,0.20993337035179138,0.1731947958469391,-23.466053009033203,0.0005035078502260149,-0.0005069589824415743,0.00038171440246514976,0.00030488811898976564,0.20793744921684265,0.1676826924085617,0.5794000029563904,0.0,-43.33373260498047,-28.81583023071289,0
334331537,0.206136092543602,0.1696651726961136,-23.462177276611328,0.0004932056763209403,-0.0004989911103621125,0.0003348540049046278,0.00034113076981157064,0.20790888369083405,0.16770479083061218,0.5794000029563904,0.0,-43.385955810546875,-28.874040603637695,0
334341606,0.2033848911523819,0.17191852629184723,-23.461626052856445,0.0004645673034247011,-0.0004760988522320986,0.00022185134002938867,0.0004314601537771523,0.2078397125005722,0.16776008903980255,0.5794000029563904,0.0,-43.53688049316406,-29.010631561279297,0
334351205,0.20472227036952972,0.17354191839694977,-23.46555519104004,0.0004425613151397556,-0.00043970855767838657,0.00014513041242025793,0.0005583299789577723,0.2077925056219101,0.16783815622329712,0.5794000029563904,0.0,-43.66551971435547,-29.178077697753906,0
334361447,0.21037934720516205,0.1685287356376648,-23.474327087402344,0.0004628600727301091,-0.0004395970609039068,0.00020844642131123692,0.0005586777697317302,0.20783169567584991,0.16783836483955383,0.5794000029563904,0.0,-43.559261322021484,-29.178503036499023,0
334371208,0.21182133257389069,0.1713755875825882,-23.47115707397461,0.0004966157721355557,-0.00041499489452689886,0.00030367448925971985,0.0006280828965827823,0.207891047000885,0.16788162291049957,0.5794000029563904,0.0,-43.43357849121094,-29.26129150390625,0
334381620,0.20607486367225647,0.17191413044929504,-23.471113204956055,0.000478215457405895,-0.00038403898361139,0.0002563332673162222,0.0007077277405187488,0.20786131918430328,0.16793164610862732,0.5794000029563904,0.0,-43.4903564453125,-29.348003387451172,0
334391609,0.20552460849285126,0.1719837337732315,-23.46933364868164,0.00045329626300372183,-0.0003510144888423383,0.0001974641636479646,0.0007857447490096092,0.20782402157783508,0.1679810732603073,0.5794000029563904,0.0,-43.57157516479492,-29.425045013427734,0
334401340,0.20653146505355835,0.1642388254404068,-23.463483810424805,0.00043822513544000685,-0.00040065430221147835,0.00016459811013191938,0.0006774936919100583,0.20780299603939056,0.1679118424654007,0.5794000029563904,0.0,-43.62310791015625,-29.311119079589844,0
334411208,0.2053224891424179,0.16654877364635468,-23.462448120117188,0.0004085926047991961,-0.0004248854238539934,0.0001046392644639127,0.0006284641567617655,0.20776425302028656,0.16788016259670258,0.5794000029563904,0.0,-43.73169708251953,-29.250690460205078,0
334421219,0.20221757888793945,0.1731017678976059,-23.4696102142334,0.0003400956920813769,-0.00036928747431375086,-2.4393670173594728e-05,0.0007331983651965857,0.20767991244792938,0.1679486185312271,0.5794000029563904,0.0,-44.05400848388672,-29.378597259521484,0
334431581,0.20384030044078827,0.1703452616930008,-23.473770141601562,0.00029123760759830475,-0.0003482234023977071,-0.0001103789618355222,0.0007702690199948847,0.20762300491333008,0.16797314584255219,0.5794000029563904,0.0,-44.34467697143555,-29.420591354370117,0
334441590,0.20731571316719055,0.16319304704666138,-23.468589782714844,0.00028881189064122736,-0.0004238651890773326,-0.00011437806097092107,0.0006455635302700102,0.20762032270431519,0.16788950562477112,0.5794000029563904,0.0,-44.35948181152344,-29.264184951782227,0
334451299,0.20780521631240845,0.16296561062335968,-23.462936401367188,0.0002931770868599415,-0.0005032098852097988,-0.00010762250167317688,0.0005227699875831604,0.20762492716312408,0.16780593991279602,0.5794000029563904,0.0,-44.33422088623047,-29.078838348388672,0
334461217,0.20943664014339447,0.16302388906478882,-23.460575103759766,0.00032160524278879166,-0.0005818245117552578,-6.62363090668805e-05,0.00040832150261849165,0.20765353739261627,0.16772684454917908,0.5794000029563904,0.0,-44.185516357421875,-28.886306762695312,0
334471230,0.20943967998027802,0.16341638565063477,-23.463336944580078,0.00034995138412341475,-0.0006541978800669312,-2.7356329155736603e-05,0.0003090531681664288,0.2076808661222458,0.16765707731246948,0.5794000029563904,0.0,-44.0604133605957,-28.715715408325195,0
334481713,0.20931048691272736,0.16515178978443146,-23.468599319458008,0.0003759961691685021,-0.000698341871611774,6.343347195070237e-06,0.0002519347472116351,0.20770497620105743,0.16761621832847595,0.5794000029563904,0.0,-43.96553039550781,-28.620607376098633,0
334492058,0.2116227000951767,0.1682964414358139,-23.467199325561523,0.00044033455196768045,-0.0006897642742842436,8.449949382338673e-05,0.0002623545005917549,0.20776209235191345,0.167623832821846,0.5794000029563904,0.0,-43.79280471801758,-28.637834548950195,0
334501313,0.20997987687587738,0.17445392906665802,-23.46571159362793,0.00047557835932821035,-0.000575877376832068,0.00012573816638905555,0.0003956132277380675,0.20779292285442352,0.16772343218326569,0.5794000029563904,0.0,-43.72392272949219,-28.87630844116211,0
334511284,0.2067447155714035,0.17412708699703217,-23.465923309326172,0.0004534373292699456,-0.0004684312443714589,0.00010088206181535497,0.0005162351299077272,0.2077738642692566,0.1678159385919571,0.5794000029563904,0.0,-43.76348114013672,-29.108285903930664,0
334521208,0.20307712256908417,0.17268365621566772,-23.468002319335938,0.0003653116582427174,-0.00038798610330559313,5.8977893786504865e-06,0.0006029411451891065,0.20769912004470825,0.16788417100906372,0.5794000029563904,0.0,-43.96625518798828,-29.27338981628418,0
334531618,0.20219801366329193,0.16772784292697906,-23.468528747558594,0.00026215013349428773,-0.00039971747901290655,-0.00010088644194183871,0.000590797804761678,0.20761285722255707,0.16787436604499817,0.5794000029563904,0.0,-44.349769592285156,-29.25034523010254,0
334541627,0.2079755663871765,0.16627177596092224,-23.464187622070312,0.00026932399487122893,-0.0004382446932140738,-9.375555964652449e-05,0.0005525014130398631,0.20761877298355103,0.16784259676933289,0.5794000029563904,0.0,-44.31739044189453,-29.174592971801758,0
334551296,0.20951001346111298,0.16773007810115814,-23.465662002563477,0.0003055631532333791,-0.0004476180183701217,-5.91607931710314e-05,0.0005435534403659403,0.20764826238155365,0.16783496737480164,0.5794000029563904,0.0,-44.173641204833984,-29.156265258789062,0
334561290,0.212199404835701,0.1700364053249359,-23.46784210205078,0.00039321882650256157,-0.0004113702161703259,2.1164232748560607e-05,0.0005767698166891932,0.2077186405658722,0.16786406934261322,0.5794000029563904,0.0,-43.92862319946289,-29.225624084472656,0
334571288,0.20748139917850494,0.16373682022094727,-23.472043991088867,0.000385033868951723,-0.0005003340193070471,1.3964965546620078e-05,0.0004985195118933916,0.20771215856075287,0.16779358685016632,0.5794000029563904,0.0,-43.94614028930664,-29.057960510253906,0
334581579,0.20572338998317719,0.16752076148986816,-23.4686336517334,0.0003414998354855925,-0.0005105084273964167,-2.2751000869902782e-05,0.0004899385385215282,0.20767812430858612,0.1677856296300888,0.5794000029563904,0.0,-44.04891586303711,-29.03921890258789,0
334591594,0.2051621526479721,0.1691150665283203,-23.467350006103516,0.0002870299213100225,-0.0004872701538261026,-6.663107342319563e-05,0.0005086589371785522,0.2076365053653717,0.16780339181423187,0.5794000029563904,0.0,-44.21049118041992,-29.081249237060547,0
334601322,0.20420806109905243,0.1723794788122177,-23.471656799316406,0.00021318200742825866,-0.00039527748594991863,-0.00012343654816504568,0.0005794217577204108,0.20758157968521118,0.16787180304527283,0.5794000029563904,0.0,-44.507240295410156,-29.24650001525879,0
334611304,0.2078648954629898,0.17566673457622528,-23.473299026489258,0.00021910396753810346,-0.00023399581550620496,-0.00011907832958968356,0.0006981156184338033,0.207585871219635,0.16798868775367737,0.5794000029563904,0.0,-44.4802131652832,-29.521760940551758,0
334621207,0.2139730602502823,0.16808485984802246,-23.47696304321289,0.0003583217039704323,-0.00024171030963771045,-2.0899256924167275e-05,0.0006926752394065261,0.20768427848815918,0.16798323392868042,0.5794000029563904,0.0,-44.0406494140625,-29.50943374633789,0
334631645,0.2069447785615921,0.16221675276756287,-23.476045608520508,0.0003375817905180156,-0.0003791733761318028,-3.4942484489874914e-05,0.0005995974643155932,0.2076699584722519,0.167888343334198,0.5794000029563904,0.0,-44.08552932739258,-29.281286239624023,0
334641586,0.20441587269306183,0.1701623797416687,-23.468870162963867,0.00026019610231742263,-0.0003333039639983326,-8.530401100870222e-05,0.000629448622930795,0.20761774480342865,0.16791929304599762,0.5794000029563904,0.0,-44.299190521240234,-29.358192443847656,0
334651218,0.2010716199874878,0.17429913580417633,-23.467426300048828,0.00010870263940887526,-0.0001939984067576006,-0.00018017510592471808,0.0007166871801018715,0.20751775801181793,0.16801123321056366,0.5794000029563904,0.0,-45.01033020019531,-29.580821990966797,0
334661199,0.20169514417648315,0.1742265522480011,-23.474672317504883,-2.3760665499139577e-05,-6.031872908351943e-05,-0.00026010925648733974,0.0007973553147166967,0.20743216574192047,0.1680976152420044,0.5794000029563904,0.0,-45.64427947998047,-29.769670486450195,0
334671225,0.20587410032749176,0.16994431614875793,-23.478885650634766,-5.513641008292325e-05,-2.9795664886478335e-05,-0.00027836073422804475,0.0008151108049787581,0.20741230249404907,0.16811694204807281,0.5794000029563904,0.0,-45.74872589111328,-29.808637619018555,0
334681741,0.21061231195926666,0.17016592621803284,-23.4762020111084,2.4693223167560063e-05,5.2993423196312506e-06,-0.00023356311430688947,0.0008348049013875425,0.20746184885501862,0.16813872754573822,0.5794000029563904,0.0,-45.44784927368164,-29.851524353027344,0
334691977,0.2119620442390442,0.16948075592517853,-23.472360610961914,0.00013286909961607307,2.3614902602275833e-05,-0.00017498474335297942,0.0008447229629382491,0.20752772688865662,0.1681498885154724,0.5794000029563904,0.0,-44.903743743896484,-29.873125076293945,0
334701317,0.2085961401462555,0.16943396627902985,-23.46647834777832,0.00015802460256963968,4.065861503477208e-05,-0.00016183943080250174,0.0008536293753422797,0.2075427621603012,0.168160080909729,0.5794000029563904,0.0,-44.77970886230469,-29.892770767211914,0
334711210,0.20087364315986633,0.1692001223564148,-23.4649658203125,1.6420725614807452e-06,5.210665403865278e-05,-0.00024066389596555382,0.0008593997335992754,0.20745091140270233,0.16816680133342743,0.5794000029563904,0.0,-45.54636001586914,-29.905733108520508,0
334721318,0.2039744108915329,0.1663321554660797,-23.473922729492188,-7.616825314471498e-05,-3.1941501674737083e-06,-0.0002784889657050371,0.0008325169910676777,0.20740598440170288,0.168134868144989,0.5794000029563904,0.0,-45.820159912109375,-29.841339111328125,0
334731615,0.2056664675474167,0.17024537920951843,-23.471153259277344,-0.00011154868843732402,3.531016409397125e-05,-0.0002950543712358922,0.000850545009598136,0.20738588273525238,0.16815674304962158,0.5794000029563904,0.0,-45.914634704589844,-29.886667251586914,0
334741570,0.20663517713546753,0.17167411744594574,-23.464937210083008,-0.00012317096116021276,0.00010575523629086092,-0.0003002899175044149,0.0008822788367979228,0.20737938582897186,0.16819612681865692,0.5794000029563904,0.0,-45.94242858886719,-29.964473724365234,0
334751302,0.2060846984386444,0.1654966026544571,-23.46701431274414,-0.0001470891438657418,3.181631109328009e-05,-0.0003106387739535421,0.0008502870914526284,0.2073662132024765,0.16815541684627533,0.5794000029563904,0.0,-45.99541091918945,-29.882577896118164,0
334761296,0.20840899646282196,0.16371893882751465,-23.468101501464844,-0.00011712543346220627,-7.872886635595933e-05,-0.00029821658972650766,0.0008044578717090189,0.207382470369339,0.1680954247713089,0.5794000029563904,0.0,-45.927425384521484,-29.747621536254883,0
334771311,0.20568571984767914,0.169014111161232,-23.466325759887695,-0.00015023980813566595,-6.39791542198509e-05,-0.0003113374696113169,0.0008103021536953747,0.2073647528886795,0.16810332238674164,0.5794000029563904,0.0,-46.00278091430664,-29.766382217407227,0
334781586,0.20071078836917877,0.17264696955680847,-23.47419548034668,-0.00029334943974390626,3.201547951903194e-05,-0.0003653480380307883,0.000846531183924526,0.2072891741991043,0.1681540161371231,0.5794000029563904,0.0,-46.229705810546875,-29.882976531982422,0
334791632,0.20083899796009064,0.17334333062171936,-23.47258949279785,-0.0004272018268238753,0.00013961789954919368,-0.00041326365317218006,0.0008850499871186912,0.20721936225891113,0.16821014881134033,0.5794000029563904,0.0,-46.355159759521484,-30.001636505126953,0
334801343,0.20182877779006958,0.17118516564369202,-23.474750518798828,-0.000533384969457984,0.00019564309332054108,-0.00044912126031704247,0.0009039694559760392,0.20716463029384613,0.168239027261734,0.5794000029563904,0.0,-46.42413330078125,-30.058313369750977,0
334811304,0.20587369799613953,0.17138423025608063,-23.476451873779297,-0.0005474681966006756,0.0002539813576731831,-0.00045358057832345366,0.0009224417735822499,0.2071574479341507,0.16826876997947693,0.5794000029563904,0.0,-46.43209457397461,-30.113853454589844,0
334821294,0.2106875479221344,0.17486655712127686,-23.470224380493164,-0.00045858576777391136,0.000384391110856086,-0.0004273979866411537,0.0009608573163859546,0.20720231533050537,0.16833458840847015,0.5794000029563904,0.0,-46.37376403808594,-30.225725173950195,0
334831641,0.2085677683353424,0.17524012923240662,-23.465980529785156,-0.0004184192221146077,0.0005177963175810874,-0.00041655305540189147,0.0009968766244128346,0.20722250640392303,0.16840162873268127,0.5794000029563904,0.0,-46.34081268310547,-30.324237823486328,0
334841632,0.2140711098909378,0.17494946718215942,-23.471025466918945,-0.00026463891845196486,0.0006407026085071266,-0.00037917669396847486,0.0010267490288242698,0.20729991793632507,0.16846349835395813,0.5794000029563904,0.0,-46.162513732910156,-30.403064727783203,0
334851290,0.18851734697818756,0.12515196204185486,-23.474536895751953,-0.0006490876548923552,-0.00027718269848264754,-0.0004620015388354659,0.0008290016558021307,0.20710578560829163,0.1679999977350235,0.5794000029563904,0.0,-46.505393981933594,-29.522504806518555,0
334861280,0.21496272087097168,0.23593588173389435,-23.44875144958496,-0.00047256165998987854,0.0011291761184111238,-0.0004290076030883938,0.0010918598854914308,0.20719529688358307,0.16871318221092224,0.5794000029563904,0.0,-46.38684844970703,-30.647375106811523,0
334871207,0.2236505001783371,0.24159155786037445,-23.443418502807617,-0.00012585741933435202,0.002594762947410345,-0.0003745050635188818,0.0013222527923062444,0.2073720544576645,0.16946037113666534,0.5794000029563904,0.0,-45.877384185791016,-30.944686889648438,0
334881743,0.20086488127708435,0.018740268424153328,-23.4780216217041,-0.00025470161926932633,-0.000507516146171838,-0.0003908048674929887,0.0009297904325649142,0.2073059380054474,0.16786859929561615,0.5794000029563904,0.0,-46.13077163696289,-29.34553337097168,0
334892167,0.20124080777168274,0.22487129271030426,-23.395549774169922,-0.00037090128171257675,0.0006421471480280161,-0.0004013602447230369,0.0010342239402234554,0.20724588632583618,0.16846278309822083,0.5794000029563904,0.0,-46.299156188964844,-30.400819778442383,0
334901350,0.19177325069904327,0.14905275404453278,-23.484176635742188,-0.0006692875758744776,0.0002472148626111448,-0.0004194471694063395,0.0010102847591042519,0.2070903480052948,0.16825692355632782,0.5794000029563904,0.0,-46.56414794921875,-30.085159301757812,0
334911292,0.19485878944396973,0.027389677241444588,-23.45680046081543,-0.000895015720743686,-0.0024981044698506594,-0.0004251757636666298,0.0009406133904121816,0.20697158575057983,0.1668124794960022,0.5794000029563904,0.0,-46.680484771728516,-28.634492874145508,0
334921198,0.21861597895622253,0.5756242871284485,-23.412572860717773,-0.0006555547588504851,0.00539207411929965,-0.000427889492129907,0.0008511965861544013,0.20709887146949768,0.17100638151168823,0.5794000029563904,0.0,-46.545692443847656,-31.2594051361084,0
334931600,0.20273235440254211,-0.25324147939682007,-23.525312423706055,-0.0007269459310919046,-0.002714349888265133,-0.0004243985458742827,0.0012475904077291489,0.20706050097942352,0.1666496843099594,0.5794000029563904,0.0,-46.595542907714844,-28.705211639404297,0
334941589,0.25019532442092896,0.44707244634628296,-23.38663101196289,8.537562825949863e-05,0.0025436687283217907,-0.0004951150622218847,0.0007898545009084046,0.20750227570533752,0.16950926184654236,0.5794000029563904,0.0,-45.38241958618164,-31.11489486694336,0
334951213,0.20503458380699158,0.04752222076058388,-23.47964096069336,3.689714867505245e-05,0.000278558989521116,-0.0004889846895821393,0.0010762889869511127,0.20747557282447815,0.1682616025209427,0.5794000029563904,0.0,-45.47786331176758,-30.098434448242188,0
