TimeUS,PLX,PLY,PLZ,AX,AY,BX,BY,CX,CY,F,P,X,Y,SW
369456104,0.20657233893871307,0.007626689039170742,-23.506811141967773,0.0,0.0,0.0,0.0,0.0,0.0,0.5794000029563904,0.0,0.0,0.0,0
369465308,0.21545231342315674,0.010669192299246788,-23.514490127563477,0.0,0.0,0.0,0.0,0.0,0.0,0.5794000029563904,0.0,0.0,0.0,0
369475302,0.2206406593322754,0.010116124525666237,-23.532062530517578,0.0,0.0,0.0,0.0,0.0,0.0,0.5794000029563904,0.0,0.0,0.0,0
369485294,0.22121433913707733,0.008234736509621143,-23.538278579711914,0.0,0.0,0.0,0.0,0.0,0.0,0.5794000029563904,0.0,0.0,0.0,0
369495588,0.21314875781536102,0.00590951181948185,-23.515859603881836,0.0,0.0,0.0,0.0,0.0,0.0,0.5794000029563904,0.0,0.0,0.0,0
369505684,0.2098054438829422,0.004434020258486271,-23.50360107421875,0.0,0.0,0.0,0.0,0.0,0.0,0.5794000029563904,0.0,0.0,0.0,0
369515323,0.2077236920595169,0.009828955866396427,-23.516761779785156,0.0,0.0,0.0,0.0,0.0,0.0,0.5794000029563904,0.0,0.0,0.0,0
369525344,0.21034787595272064,-0.0015842580469325185,-23.53034782409668,0.0,0.0,0.0,0.0,0.0,0.0,0.5794000029563904,0.0,0.0,0.0,0
369535276,0.20774365961551666,-0.0024420355912297964,-23.535009384155273,0.0,0.0,0.0,0.0,0.0,0.0,0.5794000029563904,0.0,0.0,0.0,0
369545636,0.20883311331272125,0.0036427839659154415,-23.524560928344727,0.0,0.0,0.0,0.0,0.0,0.0,0.5794000029563904,0.0,0.0,0.0,0
369555604,0.21097461879253387,0.008485761471092701,-23.518993377685547,0.0,0.0,0.0,0.0,0.0,0.0,0.5794000029563904,0.0,0.0,0.0,0
369565323,0.21249757707118988,0.011172900907695293,-23.516225814819336,0.0,0.0,0.0,0.0,0.0,0.0,0.5794000029563904,0.0,0.0,0.0,0
369575290,0.2155405580997467,0.008171054534614086,-23.509899139404297,0.0,0.0,0.0,0.0,0.0,0.0,0.5794000029563904,0.0,0.0,0.0,0
369585322,0.21178442239761353,0.01155134942382574,-23.518871307373047,0.0,0.0,0.0,0.0,0.0,0.0,0.5794000029563904,0.0,0.0,0.0,0
369595624,0.20907142758369446,0.01046665757894516,-23.526382446289062,0.0,0.0,0.0,0.0,0.0,0.0,0.5794000029563904,0.0,0.0,0.0,0
369605688,0.20578423142433167,0.01006782054901123,-23.5133113861084,0.0,0.0,0.0,0.0,0.0,0.0,0.5794000029563904,0.0,0.0,0.0,0
369615332,0.20317243039608002,0.003422088222578168,-23.524898529052734,0.0,0.0,0.0,0.0,0.0,0.0,0.5794000029563904,0.0,0.0,0.0,0
369625310,0.2138308733701706,0.0023547334130853415,-23.535526275634766,0.0,0.0,0.0,0.0,0.0,0.0,0.5794000029563904,0.0,0.0,0.0,0
369635286,0.22332417964935303,0.004462636541575193,-23.509965896606445,0.0,0.0,0.0,0.0,0.0,0.0,0.5794000029563904,0.0,0.0,0.0,0
369645898,0.21661248803138733,0.0064179785549640656,-23.508447647094727,0.0,0.0,0.0,0.0,0.0,0.0,0.5794000029563904,0.0,0.0,0.0,0
369656112,0.2125784009695053,0.007960297167301178,-23.509662628173828,0.0,0.0,0.0,0.0,0.0,0.0,0.5794000029563904,0.0,0.0,0.0,0
369665351,0.21129871904850006,0.0055151404812932014,-23.51757049560547,0.0,0.0,0.0,0.0,0.0,0.0,0.5794000029563904,0.0,0.0,0.0,0
369675281,0.20643723011016846,0.0005995574756525457,-23.52883529663086,0.0,0.0,0.0,0.0,0.0,0.0,0.5794000029563904,0.0,0.0,0.0,0
369685322,0.20948494970798492,0.007241576910018921,-23.51464080810547,0.0,0.0,0.0,0.0,0.0,0.0,0.5794000029563904,0.0,0.0,0.0,0
369695619,0.21051174402236938,0.011650551110506058,-23.50301742553711,0.0,0.0,0.0,0.0,0.0,0.0,0.5794000029563904,0.0,0.0,0.0,0
369705782,0.21037869155406952,0.005936917383223772,-23.521015167236328,0.0,0.0,0.0,0.0,0.0,0.0,0.5794000029563904,0.0,0.0,0.0,0
369715291,0.21370822191238403,0.0029661066364496946,-23.516265869140625,0.0,0.0,0.0,0.0,0.0,0.0,0.5794000029563904,0.0,0.0,0.0,0
369725327,0.2101668119430542,0.009526868350803852,-23.523473739624023,0.0,0.0,0.0,0.0,0.0,0.0,0.5794000029563904,0.0,0.0,0.0,0
369735289,0.2036801278591156,0.013618840835988522,-23.51837158203125,0.0,0.0,0.0,0.0,0.0,0.0,0.5794000029563904,0.0,0.0,0.0,0
369745661,0.2139119803905487,0.0027799904346466064,-23.498876571655273,0.0,0.0,0.0,0.0,0.0,0.0,0.5794000029563904,0.0,0.0,0.0,0
369755631,0.21442070603370667,-0.0010712480871006846,-23.513153076171875,0.0,0.0,0.0,0.0,0.0,0.0,0.5794000029563904,0.0,0.0,0.0,0
369765351,0.21717196702957153,0.004874983336776495,-23.53226661682129,0.0,0.0,0.0,0.0,0.0,0.0,0.5794000029563904,0.0,0.0,0.0,0
369775316,0.22017072141170502,0.010701759718358517,-23.53519630432129,0.0,0.0,0.0,0.0,0.0,0.0,0.5794000029563904,0.0,0.0,0.0,0
369785345,0.21005335450172424,0.008710294030606747,-23.530698776245117,0.0,0.0,0.0,0.0,0.0,0.0,0.5794000029563904,0.0,0.0,0.0,0
369795675,0.20941321551799774,0.0026635818649083376,-23.509164810180664,0.0,0.0,0.0,0.0,0.0,0.0,0.5794000029563904,0.0,0.0,0.0,0
369805707,0.2084575593471527,-6.044755718903616e-05,-23.505126953125,0.0,0.0,0.0,0.0,0.0,0.0,0.5794000029563904,0.0,0.0,0.0,0
369815298,0.2033812552690506,0.004003005567938089,-23.524520874023438,0.0,0.0,0.0,0.0,0.0,0.0,0.5794000029563904,0.0,0.0,0.0,0
369825335,0.2095039188861847,0.006151387467980385,-23.52198600769043,0.0,0.0,0.0,0.0,0.0,0.0,0.5794000029563904,0.0,0.0,0.0,0
369835298,0.20835508406162262,0.003977736458182335,-23.516939163208008,0.0,0.0,0.0,0.0,0.0,0.0,0.5794000029563904,0.0,0.0,0.0,0
369845781,0.20885466039180756,0.006280622445046902,-23.514814376831055,0.0,0.0,0.0,0.0,0.0,0.0,0.5794000029563904,0.0,0.0,0.0,0
369856197,0.20958174765110016,0.005464760586619377,-23.50834846496582,0.0,0.0,0.0,0.0,0.0,0.0,0.5794000029563904,0.0,0.0,0.0,0
369865345,0.2105768471956253,0.004466497339308262,-23.517702102661133,0.0,0.0,0.0,0.0,0.0,0.0,0.5794000029563904,0.0,0.0,0.0,0
369875305,0.20948974788188934,0.001732166507281363,-23.523408889770508,0.0,0.0,0.0,0.0,0.0,0.0,0.5794000029563904,0.0,0.0,0.0,0
369885348,0.21466268599033356,0.005524600390344858,-23.511699676513672,0.0,0.0,0.0,0.0,0.0,0.0,0.5794000029563904,0.0,0.0,0.0,0
369895654,0.21277280151844025,0.007879373617470264,-23.519746780395508,0.0,0.0,0.0,0.0,0.0,0.0,0.5794000029563904,0.0,0.0,0.0,0
369905753,0.2080962210893631,0.011858658865094185,-23.525529861450195,0.0,0.0,0.0,0.0,0.0,0.0,0.5794000029563904,0.0,0.0,0.0,0
369915298,0.20626401901245117,0.009987990371882915,-23.514711380004883,0.0,0.0,0.0,0.0,0.0,0.0,0.5794000029563904,0.0,0.0,0.0,0
369925306,0.202460378408432,0.006411190610378981,-23.519519805908203,0.0,0.0,0.0,0.0,0.0,0.0,0.5794000029563904,0.0,0.0,0.0,0
369935315,0.20546214282512665,0.001474439981393516,-23.51458168029785,0.0,0.0,0.0,0.0,0.0,0.0,0.5794000029563904,0.0,0.0,0.0,0
369945678,0.21045458316802979,0.0016449018148705363,-23.513370513916016,0.0,0.0,0.0,0.0,0.0,0.0,0.5794000029563904,0.0,0.0,0.0,0
369955629,0.21217599511146545,0.010031986981630325,-23.529502868652344,0.0,0.0,0.0,0.0,0.0,0.0,0.5794000029563904,0.0,0.0,0.0,0
369965330,0.20801666378974915,0.012998293153941631,-23.522048950195312,0.0,0.0,0.0,0.0,0.0,0.0,0.5794000029563904,0.0,0.0,0.0,0
369975322,0.20218582451343536,0.01045138482004404,-23.503650665283203,0.0,0.0,0.0,0.0,0.0,0.0,0.5794000029563904,0.0,0.0,0.0,0
369985331,0.20251336693763733,0.005259351804852486,-23.50606918334961,0.0,0.0,0.0,0.0,0.0,0.0,0.5794000029563904,0.0,0.0,0.0,0
369995634,0.20908503234386444,0.009537875652313232,-23.504682540893555,0.0,0.0,0.0,0.0,0.0,0.0,0.5794000029563904,0.0,0.0,0.0,0
370005693,0.21061617136001587,0.012442217208445072,-23.50959014892578,0.0,0.0,0.0,0.0,0.0,0.0,0.5794000029563904,0.0,0.0,0.0,0
370015337,0.20830145478248596,0.007999036461114883,-23.52566909790039,0.0,0.0,0.0,0.0,0.0,0.0,0.5794000029563904,0.0,0.0,0.0,0
370025354,0.20640790462493896,0.0030445142183452845,-23.51744842529297,0.0,0.0,0.0,0.0,0.0,0.0,0.5794000029563904,0.0,0.0,0.0,0
370035284,0.2046535462141037,0.004051664844155312,-23.51217269897461,0.0,0.0,0.0,0.0,0.0,0.0,0.5794000029563904,0.0,0.0,0.0,0
370045774,0.2065482884645462,0.00623184721916914,-23.516366958618164,0.0,0.0,0.0,0.0,0.0,0.0,0.5794000029563904,0.0,0.0,0.0,0
370056132,0.21264015138149261,0.006451738532632589,-23.503948211669922,0.0,0.0,0.0,0.0,0.0,0.0,0.5794000029563904,0.0,0.0,0.0,0
370065346,0.2063073068857193,0.008630595169961452,-23.514108657836914,0.0,0.0,0.0,0.0,0.0,0.0,0.5794000029563904,0.0,0.0,0.0,0
370075314,0.21110978722572327,0.007640357594937086,-23.522127151489258,0.0,0.0,0.0,0.0,0.0,0.0,0.5794000029563904,0.0,0.0,0.0,0
370085338,0.21792298555374146,0.007791065610945225,-23.5161190032959,0.0,0.0,0.0,0.0,0.0,0.0,0.5794000029563904,0.0,0.0,0.0,0
370095616,0.21705448627471924,0.005959467031061649,-23.51382827758789,0.0,0.0,0.0,0.0,0.0,0.0,0.5794000029563904,0.0,0.0,0.0,0
370105694,0.21495722234249115,-6.739792297594249e-05,-23.511558532714844,0.0,0.0,0.0,0.0,0.0,0.0,0.5794000029563904,0.0,0.0,0.0,0
370115296,0.21306322515010834,0.0030807587318122387,-23.50868797302246,0.0,0.0,0.0,0.0,0.0,0.0,0.5794000029563904,0.0,0.0,0.0,0
370125314,0.21111080050468445,0.013994631357491016,-23.51764678955078,0.0,0.0,0.0,0.0,0.0,0.0,0.5794000029563904,0.0,0.0,0.0,0
370135303,0.20949412882328033,0.016186654567718506,-23.51320457458496,0.0,0.0,0.0,0.0,0.0,0.0,0.5794000029563904,0.0,0.0,0.0,0
370145667,0.21108423173427582,0.010003701783716679,-23.51365852355957,0.0,0.0,0.0,0.0,0.0,0.0,0.5794000029563904,0.0,0.0,0.0,0
370155657,0.2117447406053543,0.006770628038793802,-23.51679229736328,0.0,0.0,0.0,0.0,0.0,0.0,0.5794000029563904,0.0,0.0,0.0,0
370165422,0.21282081305980682,0.006257061846554279,-23.510879516601562,0.0,0.0,0.0,0.0,0.0,0.0,0.5794000029563904,0.0,0.0,0.0,0
370175299,0.21227240562438965,0.011115600354969501,-23.51427459716797,0.0,0.0,0.0,0.0,0.0,0.0,0.5794000029563904,0.0,0.0,0.0,0
370185330,0.20874439179897308,0.008994308300316334,-23.519752502441406,0.0,0.0,0.0,0.0,0.0,0.0,0.5794000029563904,0.0,0.0,0.0,0
370195645,0.20883557200431824,0.002517854329198599,-23.521827697753906,0.0,0.0,0.0,0.0,0.0,0.0,0.5794000029563904,0.0,0.0,0.0,0
370205717,0.20836378633975983,-0.0009194265003316104,-23.52796745300293,0.0,0.0,0.0,0.0,0.0,0.0,0.5794000029563904,0.0,0.0,0.0,0
370215351,0.20570537447929382,0.008126751519739628,-23.522354125976562,0.0,0.0,0.0,0.0,0.0,0.0,0.5794000029563904,0.0,0.0,0.0,0
370225342,0.21052584052085876,0.011819117702543736,-23.509719848632812,0.0,0.0,0.0,0.0,0.0,0.0,0.5794000029563904,0.0,0.0,0.0,0
370235298,0.21125896275043488,0.012264191173017025,-23.513572692871094,0.0,0.0,0.0,0.0,0.0,0.0,0.5794000029563904,0.0,0.0,0.0,0
370245859,0.20997358858585358,0.006000596098601818,-23.516338348388672,0.0,0.0,0.0,0.0,0.0,0.0,0.5794000029563904,0.0,0.0,0.0,0
370256164,0.21122704446315765,0.004255910869687796,-23.5216064453125,0.0,0.0,0.0,0.0,0.0,0.0,0.5794000029563904,0.0,0.0,0.0,0
370265313,0.20167507231235504,0.014434699900448322,-23.527145385742188,0.0,0.0,0.0,0.0,0.0,0.0,0.5794000029563904,0.0,0.0,0.0,0
370275326,0.20824788510799408,0.012115313671529293,-23.517793655395508,0.0,0.0,0.0,0.0,0.0,0.0,0.5794000029563904,0.0,0.0,0.0,0
370285354,0.20651055872440338,0.006032017525285482,-23.50759506225586,0.0,0.0,0.0,0.0,0.0,0.0,0.5794000029563904,0.0,0.0,0.0,0
370295608,0.20280764997005463,0.008372640237212181,-23.51188850402832,0.0,0.0,0.0,0.0,0.0,0.0,0.5794000029563904,0.0,0.0,0.0,0
370305692,0.20936806499958038,0.011586653999984264,-23.508258819580078,0.0,0.0,0.0,0.0,0.0,0.0,0.5794000029563904,0.0,0.0,0.0,0
370315303,0.21218693256378174,0.01418642420321703,-23.51234245300293,0.0,0.0,0.0,0.0,0.0,0.0,0.5794000029563904,0.0,0.0,0.0,0
370325322,0.21003961563110352,0.012389142997562885,-23.524070739746094,0.0,0.0,0.0,0.0,0.0,0.0,0.5794000029563904,0.0,0.0,0.0,0
370335308,0.2173520177602768,0.00990721769630909,-23.51531410217285,0.0,0.0,0.0,0.0,0.0,0.0,0.5794000029563904,0.0,0.0,0.0,0
370345692,0.21307334303855896,0.01404561847448349,-23.50978660583496,0.0,0.0,0.0,0.0,0.0,0.0,0.5794000029563904,0.0,0.0,0.0,0
370355614,0.20647814869880676,0.015246527269482613,-23.515058517456055,0.0,0.0,0.0,0.0,0.0,0.0,0.5794000029563904,0.0,0.0,0.0,0
370365357,0.21112096309661865,0.011191030032932758,-23.513317108154297,0.0,0.0,0.0,0.0,0.0,0.0,0.5794000029563904,0.0,0.0,0.0,0
370375353,0.21393615007400513,0.0066910372115671635,-23.519283294677734,0.0,0.0,0.0,0.0,0.0,0.0,0.5794000029563904,0.0,0.0,0.0,0
370385349,0.21122974157333374,0.010326853021979332,-23.519275665283203,0.0,0.0,0.0,0.0,0.0,0.0,0.5794000029563904,0.0,0.0,0.0,0
370395657,0.21125860512256622,0.010146690532565117,-23.51601791381836,0.0,0.0,0.0,0.0,0.0,0.0,0.5794000029563904,0.0,0.0,0.0,0
370405744,0.2039487510919571,0.0050107380375266075,-23.514551162719727,0.0,0.0,0.0,0.0,0.0,0.0,0.5794000029563904,0.0,0.0,0.0,0
370415287,0.20572081208229065,-0.005918043665587902,-23.507593154907227,0.0,0.0,0.0,0.0,0.0,0.0,0.5794000029563904,0.0,0.0,0.0,0
370425347,0.20676949620246887,0.00022614166664425284,-23.50772476196289,0.0,0.0,0.0,0.0,0.0,0.0,0.5794000029563904,0.0,0.0,0.0,0
370435283,0.20648519694805145,0.009815706871449947,-23.5222110748291,0.0,0.0,0.0,0.0,0.0,0.0,0.5794000029563904,0.0,0.0,0.0,0
370445802,0.21125109493732452,0.013833540491759777,-23.521759033203125,0.0,0.0,0.0,0.0,0.0,0.0,0.5794000029563904,0.0,0.0,0.0,0
370456117,0.21145470440387726,0.007326959632337093,-23.512327194213867,0.0,0.0,0.0,0.0,0.0,0.0,0.5794000029563904,0.0,0.0,0.0,0
370465353,0.21229678392410278,0.00709867849946022,-23.507417678833008,0.0,0.0,0.0,0.0,0.0,0.0,0.5794000029563904,0.0,0.0,0.0,0
370475318,0.21563281118869781,0.0066123888827860355,-23.502073287963867,0.0,0.0,0.0,0.0,0.0,0.0,0.5794000029563904,0.0,0.0,0.0,0
370485348,0.2084972858428955,0.010793437249958515,-23.507089614868164,0.0,0.0,0.0,0.0,0.0,0.0,0.5794000029563904,0.0,0.0,0.0,0
370495675,0.20393432676792145,0.009492471814155579,-23.5185546875,0.0,0.0,0.0,0.0,0.0,0.0,0.5794000029563904,0.0,0.0,0.0,0
370505721,0.20708006620407104,0.009495251812040806,-23.52086639404297,0.0,0.0,0.0,0.0,0.0,0.0,0.5794000029563904,0.0,0.0,0.0,0
370515316,0.20845985412597656,0.00960816815495491,-23.51412582397461,0.0,0.0,0.0,0.0,0.0,0.0,0.5794000029563904,0.0,0.0,0.0,0
370525344,0.20855700969696045,0.011230755597352982,-23.505586624145508,0.0,0.0,0.0,0.0,0.0,0.0,0.5794000029563904,0.0,0.0,0.0,0
370535282,0.21284741163253784,0.012186966836452484,-23.502666473388672,0.0,0.0,0.0,0.0,0.0,0.0,0.5794000029563904,0.0,0.0,0.0,0
370545640,0.2140294760465622,0.006365573033690453,-23.51833724975586,0.0,0.0,0.0,0.0,0.0,0.0,0.5794000029563904,0.0,0.0,0.0,0
370555605,0.21673691272735596,-0.004894070792943239,-23.520116806030273,0.0,0.0,0.0,0.0,0.0,0.0,0.5794000029563904,0.0,0.0,0.0,0
370565360,0.21106702089309692,-0.001131156925112009,-23.511001586914062,0.0,0.0,0.0,0.0,0.0,0.0,0.5794000029563904,0.0,0.0,0.0,0
370575344,0.20909152925014496,0.008591330610215664,-23.504356384277344,0.0,0.0,0.0,0.0,0.0,0.0,0.5794000029563904,0.0,0.0,0.0,0
370585342,0.21289853751659393,0.004653469659388065,-23.50653839111328,0.0,0.0,0.0,0.0,0.0,0.0,0.5794000029563904,0.0,0.0,0.0,0
370595629,0.2160390317440033,0.0015629358822479844,-23.517942428588867,0.0,0.0,0.0,0.0,0.0,0.0,0.5794000029563904,0.0,0.0,0.0,0
370605760,0.22067174315452576,0.00026587999309413135,-23.521041870117188,0.0,0.0,0.0,0.0,0.0,0.0,0.5794000029563904,0.0,0.0,0.0,0
370615306,0.2200677990913391,0.006671560928225517,-23.51755142211914,0.0,0.0,0.0,0.0,0.0,0.0,0.5794000029563904,0.0,0.0,0.0,0
370625332,0.2114342451095581,0.013352317735552788,-23.507978439331055,0.0,0.0,0.0,0.0,0.0,0.0,0.5794000029563904,0.0,0.0,0.0,0
370635312,0.20606672763824463,0.007042219862341881,-23.50204086303711,0.0,0.0,0.0,0.0,0.0,0.0,0.5794000029563904,0.0,0.0,0.0,0
370645767,0.20760861039161682,0.005873439833521843,-23.504419326782227,0.0,0.0,0.0,0.0,0.0,0.0,0.5794000029563904,0.0,0.0,0.0,0
370656122,0.21055753529071808,0.009230513125658035,-23.5076847076416,0.0,0.0,0.0,0.0,0.0,0.0,0.5794000029563904,0.0,0.0,0.0,0
370665337,0.21911144256591797,0.01959826610982418,-23.507476806640625,0.0,0.0,0.0,0.0,0.0,0.0,0.5794000029563904,0.0,0.0,0.0,0
370675296,0.2130224108695984,0.016376739367842674,-23.51426124572754,0.0,0.0,0.0,0.0,0.0,0.0,0.5794000029563904,0.0,0.0,0.0,0
370685351,0.21075394749641418,0.009277109988033772,-23.521488189697266,0.0,0.0,0.0,0.0,0.0,0.0,0.5794000029563904,0.0,0.0,0.0,0
370695693,0.2121063470840454,0.005262466147542,-23.51654815673828,0.0,0.0,0.0,0.0,0.0,0.0,0.5794000029563904,0.0,0.0,0.0,0
370705721,0.21054433286190033,0.0067401002161204815,-23.506107330322266,0.0,0.0,0.0,0.0,0.0,0.0,0.5794000029563904,0.0,0.0,0.0,0
370715301,0.20679020881652832,0.0008052821503952146,-23.503253936767578,0.0,0.0,0.0,0.0,0.0,0.0,0.5794000029563904,0.0,0.0,0.0,0
370725348,0.2083762139081955,-0.0009005776955746114,-23.508094787597656,0.0,0.0,0.0,0.0,0.0,0.0,0.5794000029563904,0.0,0.0,0.0,0
370735329,0.20587529242038727,0.0034045123029500246,-23.516813278198242,0.0,0.0,0.0,0.0,0.0,0.0,0.5794000029563904,0.0,0.0,0.0,0
370745628,0.19939251244068146,0.007237509358674288,-23.516948699951172,0.0,0.0,0.0,0.0,0.0,0.0,0.5794000029563904,0.0,0.0,0.0,0
370755662,0.20364922285079956,0.0027891187928617,-23.511611938476562,0.0,0.0,0.0,0.0,0.0,0.0,0.5794000029563904,0.0,0.0,0.0,0
370765334,0.20989775657653809,0.0015285832341760397,-23.507108688354492,0.0,0.0,0.0,0.0,0.0,0.0,0.5794000029563904,0.0,0.0,0.0,0
370775303,0.2078995704650879,0.00425431365147233,-23.511903762817383,0.0,0.0,0.0,0.0,0.0,0.0,0.5794000029563904,0.0,0.0,0.0,0
370785345,0.205685093998909,0.0073757534846663475,-23.51740264892578,0.0,0.0,0.0,0.0,0.0,0.0,0.5794000029563904,0.0,0.0,0.0,0
370795621,0.20463460683822632,0.0044995807111263275,-23.51320457458496,0.0,0.0,0.0,0.0,0.0,0.0,0.5794000029563904,0.0,0.0,0.0,0
370805701,0.2079731673002243,0.00408606743440032,-23.508861541748047,0.0,0.0,0.0,0.0,0.0,0.0,0.5794000029563904,0.0,0.0,0.0,0
370815287,0.21094928681850433,0.011319528333842754,-23.511430740356445,0.0,0.0,0.0,0.0,0.0,0.0,0.5794000029563904,0.0,0.0,0.0,0
370825302,0.2153211385011673,0.012917966581881046,-23.510887145996094,0.0,0.0,0.0,0.0,0.0,0.0,0.5794000029563904,0.0,0.0,0.0,0
370835321,0.2147909253835678,0.0066085318103432655,-23.50814437866211,0.0,0.0,0.0,0.0,0.0,0.0,0.5794000029563904,0.0,0.0,0.0,0
370845862,0.21526677906513214,0.0025964253582060337,-23.505794525146484,0.0,0.0,0.0,0.0,0.0,0.0,0.5794000029563904,0.0,0.0,0.0,0
370856090,0.21371494233608246,0.0011964451987296343,-23.50736427307129,0.0,0.0,0.0,0.0,0.0,0.0,0.5794000029563904,0.0,0.0,0.0,0
370865334,0.20921380817890167,0.0007015698356553912,-23.512474060058594,0.0,0.0,0.0,0.0,0.0,0.0,0.5794000029563904,0.0,0.0,0.0,0
370875315,0.2071736752986908,0.000992049346677959,-23.520465850830078,0.0,0.0,0.0,0.0,0.0,0.0,0.5794000029563904,0.0,0.0,0.0,0
370885373,0.20372216403484344,0.002248761709779501,-23.515974044799805,0.0,0.0,0.0,0.0,0.0,0.0,0.5794000029563904,0.0,0.0,0.0,0
370895636,0.20671817660331726,0.00025866684154607356,-23.505844116210938,0.0,0.0,0.0,0.0,0.0,0.0,0.5794000029563904,0.0,0.0,0.0,0
370905786,0.2143765687942505,0.007282158359885216,-23.499866485595703,0.0,0.0,0.0,0.0,0.0,0.0,0.5794000029563904,0.0,0.0,0.0,0
370915322,0.21757982671260834,0.00988748949021101,-23.51422119140625,0.0,0.0,0.0,0.0,0.0,0.0,0.5794000029563904,0.0,0.0,0.0,0
370925321,0.21735544502735138,0.012252958491444588,-23.520408630371094,0.0,0.0,0.0,0.0,0.0,0.0,0.5794000029563904,0.0,0.0,0.0,0
370935315,0.21486268937587738,0.0075463056564331055,-23.513463973999023,0.0,0.0,0.0,0.0,0.0,0.0,0.5794000029563904,0.0,0.0,0.0,0
370945664,0.21283838152885437,0.00354336341843009,-23.50450897216797,0.0,0.0,0.0,0.0,0.0,0.0,0.5794000029563904,0.0,0.0,0.0,0
370955639,0.20621369779109955,0.006418985314667225,-23.50286102294922,0.0,0.0,0.0,0.0,0.0,0.0,0.5794000029563904,0.0,0.0,0.0,0
370965372,0.2037162184715271,0.013103405945003033,-23.507675170898438,0.0,0.0,0.0,0.0,0.0,0.0,0.5794000029563904,0.0,0.0,0.0,0
370975286,0.20338165760040283,0.01161942072212696,-23.519018173217773,0.0,0.0,0.0,0.0,0.0,0.0,0.5794000029563904,0.0,0.0,0.0,0
370985350,0.20936070382595062,0.004758436232805252,-23.520540237426758,0.0,0.0,0.0,0.0,0.0,0.0,0.5794000029563904,0.0,0.0,0.0,0
370995629,0.21268804371356964,-0.0007787655340507627,-23.513511657714844,0.0,0.0,0.0,0.0,0.0,0.0,0.5794000029563904,0.0,0.0,0.0,0
371005690,0.2120654582977295,0.005596258211880922,-23.50629425048828,0.0,0.0,0.0,0.0,0.0,0.0,0.5794000029563904,0.0,0.0,0.0,0
371015326,0.21521882712841034,0.007639449555426836,-23.513275146484375,0.0,0.0,0.0,0.0,0.0,0.0,0.5794000029563904,0.0,0.0,0.0,0
371025329,0.21434904634952545,0.0033348621800541878,-23.514217376708984,0.0,0.0,0.0,0.0,0.0,0.0,0.5794000029563904,0.0,0.0,0.0,0
371035305,0.20935137569904327,0.004443627782166004,-23.511585235595703,0.0,0.0,0.0,0.0,0.0,0.0,0.5794000029563904,0.0,0.0,0.0,0
371045902,0.20776093006134033,0.009763921611011028,-23.508941650390625,0.0,0.0,0.0,0.0,0.0,0.0,0.5794000029563904,0.0,0.0,0.0,0
371056167,0.2113548070192337,0.005355927161872387,-23.513290405273438,0.0,0.0,0.0,0.0,0.0,0.0,0.5794000029563904,0.0,0.0,0.0,0
371065347,0.21145793795585632,0.0038104006089270115,-23.514253616333008,0.0,0.0,0.0,0.0,0.0,0.0,0.5794000029563904,0.0,0.0,0.0,0
371075313,0.215562105178833,0.004322914406657219,-23.503265380859375,0.0,0.0,0.0,0.0,0.0,0.0,0.5794000029563904,0.0,0.0,0.0,0
371085348,0.21323050558567047,0.006735609378665686,-23.500934600830078,0.0,0.0,0.0,0.0,0.0,0.0,0.5794000029563904,0.0,0.0,0.0,0
371095619,0.2084549516439438,0.00854804553091526,-23.510438919067383,0.0,0.0,0.0,0.0,0.0,0.0,0.5794000029563904,0.0,0.0,0.0,0
371105760,0.2015143781900406,0.010684155859053135,-23.52009391784668,0.0,0.0,0.0,0.0,0.0,0.0,0.5794000029563904,0.0,0.0,0.0,0
371115308,0.2028413861989975,0.0054157571867108345,-23.514629364013672,0.0,0.0,0.0,0.0,0.0,0.0,0.5794000029563904,0.0,0.0,0.0,0
371125335,0.20519186556339264,0.0024443096481263638,-23.506282806396484,0.0,0.0,0.0,0.0,0.0,0.0,0.5794000029563904,0.0,0.0,0.0,0
371135304,0.21067927777767181,0.0031524337828159332,-23.49825096130371,0.0,0.0,0.0,0.0,0.0,0.0,0.5794000029563904,0.0,0.0,0.0,0
371145687,0.2096709907054901,0.010394459590315819,-23.506698608398438,0.0,0.0,0.0,0.0,0.0,0.0,0.5794000029563904,0.0,0.0,0.0,0
371155631,0.21015825867652893,0.007862167432904243,-23.5067081451416,0.0,0.0,0.0,0.0,0.0,0.0,0.5794000029563904,0.0,0.0,0.0,0
371165349,0.2097720354795456,0.005307861603796482,-23.503931045532227,0.0,0.0,0.0,0.0,0.0,0.0,0.5794000029563904,0.0,0.0,0.0,0
371175280,0.20655259490013123,0.006804524455219507,-23.507312774658203,0.0,0.0,0.0,0.0,0.0,0.0,0.5794000029563904,0.0,0.0,0.0,0
371185353,0.2120610922574997,0.007862853817641735,-23.510921478271484,0.0,0.0,0.0,0.0,0.0,0.0,0.5794000029563904,0.0,0.0,0.0,0
371195656,0.20928999781608582,0.006381670478731394,-23.50768280029297,0.0,0.0,0.0,0.0,0.0,0.0,0.5794000029563904,0.0,0.0,0.0,0
371205679,0.2095678597688675,0.0029775514267385006,-23.511816024780273,0.0,0.0,0.0,0.0,0.0,0.0,0.5794000029563904,0.0,0.0,0.0,0
371215305,0.20907887816429138,0.0037155288737267256,-23.512069702148438,0.0,0.0,0.0,0.0,0.0,0.0,0.5794000029563904,0.0,0.0,0.0,0
371225329,0.2097092717885971,0.01239000353962183,-23.51097297668457,0.0,0.0,0.0,0.0,0.0,0.0,0.5794000029563904,0.0,0.0,0.0,0
371235339,0.2147754579782486,0.01436520554125309,-23.51382827758789,0.0,0.0,0.0,0.0,0.0,0.0,0.5794000029563904,0.0,0.0,0.0,0
371245751,0.21249820291996002,0.004929340910166502,-23.509668350219727,0.0,0.0,0.0,0.0,0.0,0.0,0.5794000029563904,0.0,0.0,0.0,0
371256139,0.2074057012796402,0.0022239333484321833,-23.50301170349121,0.0,0.0,0.0,0.0,0.0,0.0,0.5794000029563904,0.0,0.0,0.0,0
371265329,0.20582202076911926,0.0020701077301055193,-23.500680923461914,0.0,0.0,0.0,0.0,0.0,0.0,0.5794000029563904,0.0,0.0,0.0,0
371275316,0.20170272886753082,0.006904902867972851,-23.503036499023438,0.0,0.0,0.0,0.0,0.0,0.0,0.5794000029563904,0.0,0.0,0.0,0
371285340,0.20736606419086456,0.006443346384912729,-23.51470184326172,0.0,0.0,0.0,0.0,0.0,0.0,0.5794000029563904,0.0,0.0,0.0,0
371295634,0.21471913158893585,0.0055769081227481365,-23.522083282470703,0.0,0.0,0.0,0.0,0.0,0.0,0.5794000029563904,0.0,0.0,0.0,0
371305712,0.2148057520389557,0.010857755318284035,-23.5167236328125,0.0,0.0,0.0,0.0,0.0,0.0,0.5794000029563904,0.0,0.0,0.0,0
371315307,0.21742366254329681,0.007555287331342697,-23.5023136138916,0.0,0.0,0.0,0.0,0.0,0.0,0.5794000029563904,0.0,0.0,0.0,0
371325360,0.20895950496196747,0.005427326075732708,-23.50303077697754,0.0,0.0,0.0,0.0,0.0,0.0,0.5794000029563904,0.0,0.0,0.0,0
371335327,0.20757022500038147,0.00012758153025060892,-23.509498596191406,0.0,0.0,0.0,0.0,0.0,0.0,0.5794000029563904,0.0,0.0,0.0,0
371345670,0.2036806046962738,0.00465788459405303,-23.51534652709961,0.0,0.0,0.0,0.0,0.0,0.0,0.5794000029563904,0.0,0.0,0.0,0
371355619,0.204014390707016,0.0054616197012364864,-23.517040252685547,0.0,0.0,0.0,0.0,0.0,0.0,0.5794000029563904,0.0,0.0,0.0,0
371365361,0.20689763128757477,0.007638388779014349,-23.50899887084961,0.0,0.0,0.0,0.0,0.0,0.0,0.5794000029563904,0.0,0.0,0.0,0
371375299,0.21326345205307007,0.004280915949493647,-23.500886917114258,0.0,0.0,0.0,0.0,0.0,0.0,0.5794000029563904,0.0,0.0,0.0,0
371385339,0.21265241503715515,0.003907280974090099,-23.5070858001709,0.0,0.0,0.0,0.0,0.0,0.0,0.5794000029563904,0.0,0.0,0.0,0
371395660,0.21076904237270355,0.014877185225486755,-23.51497459411621,0.0,0.0,0.0,0.0,0.0,0.0,0.5794000029563904,0.0,0.0,0.0,0
371405727,0.21147865056991577,0.018522704020142555,-23.521066665649414,0.0,0.0,0.0,0.0,0.0,0.0,0.5794000029563904,0.0,0.0,0.0,0
371415316,0.21451446413993835,0.006801603827625513,-23.514625549316406,0.0,0.0,0.0,0.0,0.0,0.0,0.5794000029563904,0.0,0.0,0.0,0
371425342,0.20692235231399536,-0.00312091875821352,-23.506149291992188,0.0,0.0,0.0,0.0,0.0,0.0,0.5794000029563904,0.0,0.0,0.0,0
371435314,0.2010132074356079,-9.086682257475331e-05,-23.503124237060547,0.0,0.0,0.0,0.0,0.0,0.0,0.5794000029563904,0.0,0.0,0.0,0
371445830,0.20776280760765076,0.0060097649693489075,-23.501508712768555,0.0,0.0,0.0,0.0,0.0,0.0,0.5794000029563904,0.0,0.0,0.0,0
371456154,0.2098536342382431,0.007778736762702465,-23.506868362426758,0.0,0.0,0.0,0.0,0.0,0.0,0.5794000029563904,0.0,0.0,0.0,0
371465342,0.2126363068819046,9.991894330596551e-05,-23.507619857788086,0.0,0.0,0.0,0.0,0.0,0.0,0.5794000029563904,0.0,0.0,0.0,0
371475318,0.20983928442001343,-0.0012904367176815867,-23.498104095458984,0.0,0.0,0.0,0.0,0.0,0.0,0.5794000029563904,0.0,0.0,0.0,0
371485358,0.2074020802974701,0.006049801595509052,-23.493698120117188,0.0,0.0,0.0,0.0,0.0,0.0,0.5794000029563904,0.0,0.0,0.0,0
371495641,0.20514662563800812,0.008349964395165443,-23.497920989990234,0.0,0.0,0.0,0.0,0.0,0.0,0.5794000029563904,0.0,0.0,0.0,0
371505721,0.206241637468338,0.006050347350537777,-23.496912002563477,0.0,0.0,0.0,0.0,0.0,0.0,0.5794000029563904,0.0,0.0,0.0,0
371515310,0.2093607634305954,0.00823978055268526,-23.505653381347656,0.0,0.0,0.0,0.0,0.0,0.0,0.5794000029563904,0.0,0.0,0.0,0
371525340,0.21009713411331177,0.0005473712226375937,-23.516761779785156,0.0,0.0,0.0,0.0,0.0,0.0,0.5794000029563904,0.0,0.0,0.0,0
371535337,0.2113712877035141,0.0036809477023780346,-23.508808135986328,0.0,0.0,0.0,0.0,0.0,0.0,0.5794000029563904,0.0,0.0,0.0,0
371545690,0.21440251171588898,0.009827060624957085,-23.50331687927246,0.0,0.0,0.0,0.0,0.0,0.0,0.5794000029563904,0.0,0.0,0.0,0
371555646,0.2145320624113083,0.00669803936034441,-23.500667572021484,0.0,0.0,0.0,0.0,0.0,0.0,0.5794000029563904,0.0,0.0,0.0,0
371565334,0.2087477594614029,0.0051653264090418816,-23.49764633178711,0.0,0.0,0.0,0.0,0.0,0.0,0.5794000029563904,0.0,0.0,0.0,0
371575343,0.20984606444835663,0.008024616166949272,-23.506494522094727,0.0,0.0,0.0,0.0,0.0,0.0,0.5794000029563904,0.0,0.0,0.0,0
371585349,0.21515798568725586,0.007765582762658596,-23.503023147583008,0.0,0.0,0.0,0.0,0.0,0.0,0.5794000029563904,0.0,0.0,0.0,0
371595639,0.21381616592407227,0.006344292312860489,-23.500953674316406,0.0,0.0,0.0,0.0,0.0,0.0,0.5794000029563904,0.0,0.0,0.0,0
371605721,0.20994365215301514,0.0030479510314762592,-23.49871253967285,0.0,0.0,0.0,0.0,0.0,0.0,0.5794000029563904,0.0,0.0,0.0,0
371615307,0.2053828090429306,0.0039192973636090755,-23.491689682006836,0.0,0.0,0.0,0.0,0.0,0.0,0.5794000029563904,0.0,0.0,0.0,0
371625356,0.2059236615896225,0.008968793787062168,-23.49446678161621,0.0,0.0,0.0,0.0,0.0,0.0,0.5794000029563904,0.0,0.0,0.0,0
371635319,0.2039790004491806,0.010031870566308498,-23.504478454589844,0.0,0.0,0.0,0.0,0.0,0.0,0.5794000029563904,0.0,0.0,0.0,0
371645770,0.21238012611865997,0.00742562860250473,-23.503686904907227,0.0,0.0,0.0,0.0,0.0,0.0,0.5794000029563904,0.0,0.0,0.0,0
371656129,0.21278004348278046,0.0059985085390508175,-23.502992630004883,0.0,0.0,0.0,0.0,0.0,0.0,0.5794000029563904,0.0,0.0,0.0,0
371665349,0.21046292781829834,0.004214765038341284,-23.498010635375977,0.0,0.0,0.0,0.0,0.0,0.0,0.5794000029563904,0.0,0.0,0.0,0
371675300,0.2164153754711151,0.002672737231478095,-23.490610122680664,0.0,0.0,0.0,0.0,0.0,0.0,0.5794000029563904,0.0,0.0,0.0,0
371685371,0.21782661974430084,0.0067132627591490746,-23.498424530029297,0.0,0.0,0.0,0.0,0.0,0.0,0.5794000029563904,0.0,0.0,0.0,0
371695646,0.2139071524143219,0.0052861706353724,-23.504169464111328,0.0,0.0,0.0,0.0,0.0,0.0,0.5794000029563904,0.0,0.0,0.0,0
371705727,0.208302304148674,0.0005927557940594852,-23.500497817993164,0.0,0.0,0.0,0.0,0.0,0.0,0.5794000029563904,0.0,0.0,0.0,0
371715310,0.2017652541399002,0.001821880112402141,-23.506553649902344,0.0,0.0,0.0,0.0,0.0,0.0,0.5794000029563904,0.0,0.0,0.0,0
371725332,0.20744682848453522,0.005577896721661091,-23.49932098388672,0.0,0.0,0.0,0.0,0.0,0.0,0.5794000029563904,0.0,0.0,0.0,0
371735299,0.2122420072555542,0.007651761174201965,-23.4940185546875,0.0,0.0,0.0,0.0,0.0,0.0,0.5794000029563904,0.0,0.0,0.0,0
371745735,0.20721958577632904,0.008457408286631107,-23.49999237060547,0.0,0.0,0.0,0.0,0.0,0.0,0.5794000029563904,0.0,0.0,0.0,0
371755638,0.20793482661247253,0.003630713326856494,-23.497323989868164,0.0,0.0,0.0,0.0,0.0,0.0,0.5794000029563904,0.0,0.0,0.0,0
371765355,0.20586645603179932,0.0009312371839769185,-23.501117706298828,0.0,0.0,0.0,0.0,0.0,0.0,0.5794000029563904,0.0,0.0,0.0,0
371775287,0.2055566906929016,0.0014580611605197191,-23.5067081451416,0.0,0.0,0.0,0.0,0.0,0.0,0.5794000029563904,0.0,0.0,0.0,0
371785345,0.21222031116485596,0.004917875397950411,-23.498537063598633,0.0,0.0,0.0,0.0,0.0,0.0,0.5794000029563904,0.0,0.0,0.0,0
371795602,0.20751048624515533,0.007889420725405216,-23.49510383605957,0.0,0.0,0.0,0.0,0.0,0.0,0.5794000029563904,0.0,0.0,0.0,0
371805683,0.2103317677974701,0.007866778410971165,-23.492595672607422,0.0,0.0,0.0,0.0,0.0,0.0,0.5794000029563904,0.0,0.0,0.0,0
371815309,0.21603141725063324,0.008273034356534481,-23.489965438842773,0.0,0.0,0.0,0.0,0.0,0.0,0.5794000029563904,0.0,0.0,0.0,0
371825349,0.21081528067588806,0.006601622328162193,-23.50420379638672,0.0,0.0,0.0,0.0,0.0,0.0,0.5794000029563904,0.0,0.0,0.0,0
371835332,0.2088533639907837,0.0045910063199698925,-23.504819869995117,0.0,0.0,0.0,0.0,0.0,0.0,0.5794000029563904,0.0,0.0,0.0,0
371845887,0.21064797043800354,0.004220306407660246,-23.499061584472656,0.0,0.0,0.0,0.0,0.0,0.0,0.5794000029563904,0.0,0.0,0.0,0
371856123,0.20681820809841156,0.010099975392222404,-23.49995231628418,0.0,0.0,0.0,0.0,0.0,0.0,0.5794000029563904,0.0,0.0,0.0,0
371865378,0.20518624782562256,0.010983937419950962,-23.498519897460938,0.0,0.0,0.0,0.0,0.0,0.0,0.5794000029563904,0.0,0.0,0.0,0
371875329,0.20882968604564667,0.003945309203118086,-23.500232696533203,0.0,0.0,0.0,0.0,0.0,0.0,0.5794000029563904,0.0,0.0,0.0,0
371885368,0.20909273624420166,0.0018219497287645936,-23.5029296875,0.0,0.0,0.0,0.0,0.0,0.0,0.5794000029563904,0.0,0.0,0.0,0
371895674,0.21332859992980957,0.009888007305562496,-23.49846649169922,0.0,0.0,0.0,0.0,0.0,0.0,0.5794000029563904,0.0,0.0,0.0,0
371905745,0.21490764617919922,0.01199499424546957,-23.494665145874023,0.0,0.0,0.0,0.0,0.0,0.0,0.5794000029563904,0.0,0.0,0.0,0
371915303,0.21588601171970367,0.005495607387274504,-23.493270874023438,0.0,0.0,0.0,0.0,0.0,0.0,0.5794000029563904,0.0,0.0,0.0,0
371925358,0.21075990796089172,0.0044625671580433846,-23.493064880371094,0.0,0.0,0.0,0.0,0.0,0.0,0.5794000029563904,0.0,0.0,0.0,0
371935329,0.20910218358039856,0.0062654344365000725,-23.498470306396484,0.0,0.0,0.0,0.0,0.0,0.0,0.5794000029563904,0.0,0.0,0.0,0
371945657,0.20474231243133545,0.007227344438433647,-23.498647689819336,0.0,0.0,0.0,0.0,0.0,0.0,0.5794000029563904,0.0,0.0,0.0,0
371955675,0.2090439796447754,0.010705818422138691,-23.50626564025879,0.0,0.0,0.0,0.0,0.0,0.0,0.5794000029563904,0.0,0.0,0.0,0
371965393,0.21457043290138245,0.0049344985745847225,-23.510316848754883,0.0,0.0,0.0,0.0,0.0,0.0,0.5794000029563904,0.0,0.0,0.0,0
371975327,0.21750107407569885,0.005295662209391594,-23.506309509277344,0.0,0.0,0.0,0.0,0.0,0.0,0.5794000029563904,0.0,0.0,0.0,0
371985340,0.21535059809684753,0.007320948876440525,-23.500032424926758,0.0,0.0,0.0,0.0,0.0,0.0,0.5794000029563904,0.0,0.0,0.0,0
371995636,0.21347275376319885,0.009078117087483406,-23.492992401123047,0.0,0.0,0.0,0.0,0.0,0.0,0.5794000029563904,0.0,0.0,0.0,0
372005721,0.21092422306537628,0.008027235977351665,-23.50235366821289,0.0,0.0,0.0,0.0,0.0,0.0,0.5794000029563904,0.0,0.0,0.0,0
372015321,0.20572414994239807,0.005519834812730551,-23.510019302368164,0.0,0.0,0.0,0.0,0.0,0.0,0.5794000029563904,0.0,0.0,0.0,0
372025350,0.20116448402404785,0.00872116070240736,-23.512773513793945,0.0,0.0,0.0,0.0,0.0,0.0,0.5794000029563904,0.0,0.0,0.0,0
372035322,0.2073417603969574,0.012651676312088966,-23.498872756958008,0.0,0.0,0.0,0.0,0.0,0.0,0.5794000029563904,0.0,0.0,0.0,0
372045775,0.21636055409908295,0.005066447425633669,-23.492389678955078,0.0,0.0,0.0,0.0,0.0,0.0,0.5794000029563904,0.0,0.0,0.0,0
372056168,0.21688534319400787,-0.0015782173722982407,-23.49546241760254,0.0,0.0,0.0,0.0,0.0,0.0,0.5794000029563904,0.0,0.0,0.0,0
372065352,0.2155870646238327,-0.00045077461982145905,-23.50210952758789,0.0,0.0,0.0,0.0,0.0,0.0,0.5794000029563904,0.0,0.0,0.0,0
372075304,0.2143314629793167,0.005911435000598431,-23.509302139282227,0.0,0.0,0.0,0.0,0.0,0.0,0.5794000029563904,0.0,0.0,0.0,0
372085346,0.21116295456886292,0.011139098554849625,-23.50775909423828,0.0,0.0,0.0,0.0,0.0,0.0,0.5794000029563904,0.0,0.0,0.0,0
372095627,0.20925703644752502,0.001737473881803453,-23.497631072998047,0.0,0.0,0.0,0.0,0.0,0.0,0.5794000029563904,0.0,0.0,0.0,0
372105730,0.2021818459033966,0.00548093905672431,-23.493066787719727,0.0,0.0,0.0,0.0,0.0,0.0,0.5794000029563904,0.0,0.0,0.0,0
372115322,0.2001233547925949,0.012461937963962555,-23.49892807006836,0.0,0.0,0.0,0.0,0.0,0.0,0.5794000029563904,0.0,0.0,0.0,0
372125314,0.20500172674655914,0.014370926655828953,-23.500797271728516,0.0,0.0,0.0,0.0,0.0,0.0,0.5794000029563904,0.0,0.0,0.0,0
372135343,0.20652519166469574,0.008697230368852615,-23.50486183166504,0.0,0.0,0.0,0.0,0.0,0.0,0.5794000029563904,0.0,0.0,0.0,0
372145647,0.2040158212184906,0.00479120621457696,-23.506879806518555,0.0,0.0,0.0,0.0,0.0,0.0,0.5794000029563904,0.0,0.0,0.0,0
372155621,0.20806819200515747,0.006805324926972389,-23.49595069885254,0.0,0.0,0.0,0.0,0.0,0.0,0.5794000029563904,0.0,0.0,0.0,0
372165452,0.2118462324142456,0.010441022925078869,-23.49530029296875,0.0,0.0,0.0,0.0,0.0,0.0,0.5794000029563904,0.0,0.0,0.0,0
372175312,0.21089215576648712,0.008301099762320518,-23.499128341674805,0.0,0.0,0.0,0.0,0.0,0.0,0.5794000029563904,0.0,0.0,0.0,0
372185338,0.21101008355617523,0.007028177380561829,-23.502382278442383,0.0,0.0,0.0,0.0,0.0,0.0,0.5794000029563904,0.0,0.0,0.0,0
372195646,0.21289707720279694,0.0055631352588534355,-23.507966995239258,0.0,0.0,0.0,0.0,0.0,0.0,0.5794000029563904,0.0,0.0,0.0,0
372205680,0.20972123742103577,0.008795901201665401,-23.505176544189453,0.0,0.0,0.0,0.0,0.0,0.0,0.5794000029563904,0.0,0.0,0.0,0
372215307,0.21275240182876587,0.010896722786128521,-23.50038719177246,0.0,0.0,0.0,0.0,0.0,0.0,0.5794000029563904,0.0,0.0,0.0,0
372225356,0.21108117699623108,0.0018945173360407352,-23.503070831298828,0.0,0.0,0.0,0.0,0.0,0.0,0.5794000029563904,0.0,0.0,0.0,0
372235311,0.2077929675579071,0.0026493133045732975,-23.5017147064209,0.0,0.0,0.0,0.0,0.0,0.0,0.5794000029563904,0.0,0.0,0.0,0
372245875,0.20647189021110535,0.009782775305211544,-23.501724243164062,0.0,0.0,0.0,0.0,0.0,0.0,0.5794000029563904,0.0,0.0,0.0,0
372256143,0.20757657289505005,0.012189138680696487,-23.50560760498047,0.0,0.0,0.0,0.0,0.0,0.0,0.5794000029563904,0.0,0.0,0.0,0
372265336,0.2115689218044281,0.0021610683761537075,-23.506427764892578,0.0,0.0,0.0,0.0,0.0,0.0,0.5794000029563904,0.0,0.0,0.0,0
372275311,0.21580304205417633,-0.003292734967544675,-23.49833869934082,0.0,0.0,0.0,0.0,0.0,0.0,0.5794000029563904,0.0,0.0,0.0,0
372285347,0.21751156449317932,0.0038082082755863667,-23.497127532958984,0.0,0.0,0.0,0.0,0.0,0.0,0.5794000029563904,0.0,0.0,0.0,0
372295615,0.2151712030172348,0.009566579014062881,-23.495590209960938,0.0,0.0,0.0,0.0,0.0,0.0,0.5794000029563904,0.0,0.0,0.0,0
372305710,0.21332713961601257,0.005479088053107262,-23.49795913696289,0.0,0.0,0.0,0.0,0.0,0.0,0.5794000029563904,0.0,0.0,0.0,0
372315298,0.20940843224525452,-0.0013457630993798375,-23.502201080322266,0.0,0.0,0.0,0.0,0.0,0.0,0.5794000029563904,0.0,0.0,0.0,0
372325345,0.2107277810573578,0.0022818187717348337,-23.502477645874023,0.0,0.0,0.0,0.0,0.0,0.0,0.5794000029563904,0.0,0.0,0.0,0
372335316,0.2115505039691925,0.010762693360447884,-23.504291534423828,0.0,0.0,0.0,0.0,0.0,0.0,0.5794000029563904,0.0,0.0,0.0,0
372345684,0.21436317265033722,0.009262708947062492,-23.499292373657227,0.0,0.0,0.0,0.0,0.0,0.0,0.5794000029563904,0.0,0.0,0.0,0
372355640,0.21368765830993652,0.0020139834377914667,-23.49427032470703,0.0,0.0,0.0,0.0,0.0,0.0,0.5794000029563904,0.0,0.0,0.0,0
372365379,0.20936286449432373,0.0010812924010679126,-23.499929428100586,0.0,0.0,0.0,0.0,0.0,0.0,0.5794000029563904,0.0,0.0,0.0,0
372375341,0.21085914969444275,0.004870385862886906,-23.502676010131836,0.0,0.0,0.0,0.0,0.0,0.0,0.5794000029563904,0.0,0.0,0.0,0
372385372,0.2108984738588333,0.008059879764914513,-23.502830505371094,0.0,0.0,0.0,0.0,0.0,0.0,0.5794000029563904,0.0,0.0,0.0,0
372395638,0.2121923565864563,0.007975004613399506,-23.50415802001953,0.0,0.0,0.0,0.0,0.0,0.0,0.5794000029563904,0.0,0.0,0.0,0
372405755,0.21141763031482697,0.0017497498774901032,-23.498336791992188,0.0,0.0,0.0,0.0,0.0,0.0,0.5794000029563904,0.0,0.0,0.0,0
372415288,0.21093867719173431,0.0039011698681861162,-23.496112823486328,0.0,0.0,0.0,0.0,0.0,0.0,0.5794000029563904,0.0,0.0,0.0,0
372425325,0.21196991205215454,0.007326310034841299,-23.501304626464844,0.0,0.0,0.0,0.0,0.0,0.0,0.5794000029563904,0.0,0.0,0.0,0
372435343,0.21044409275054932,0.004088069777935743,-23.502586364746094,0.0,0.0,0.0,0.0,0.0,0.0,0.5794000029563904,0.0,0.0,0.0,0
372445783,0.20756232738494873,0.0009335828362964094,-23.50303077697754,0.0,0.0,0.0,0.0,0.0,0.0,0.5794000029563904,0.0,0.0,0.0,0
372456230,0.20679622888565063,0.00500324135646224,-23.498262405395508,0.0,0.0,0.0,0.0,0.0,0.0,0.5794000029563904,0.0,0.0,0.0,0
372465354,0.20737510919570923,0.010242686606943607,-23.493209838867188,0.0,0.0,0.0,0.0,0.0,0.0,0.5794000029563904,0.0,0.0,0.0,0
372475286,0.20711301267147064,0.016334831714630127,-23.495494842529297,0.0,0.0,0.0,0.0,0.0,0.0,0.5794000029563904,0.0,0.0,0.0,0
372485337,0.2126074582338333,0.008235440589487553,-23.493457794189453,0.0,0.0,0.0,0.0,0.0,0.0,0.5794000029563904,0.0,0.0,0.0,0
372495654,0.21486297249794006,0.006581577472388744,-23.50022315979004,0.0,0.0,0.0,0.0,0.0,0.0,0.5794000029563904,0.0,0.0,0.0,0
372505723,0.2118234783411026,0.007626655511558056,-23.502119064331055,0.0,0.0,0.0,0.0,0.0,0.0,0.5794000029563904,0.0,0.0,0.0,0
372515317,0.21349096298217773,0.012408873066306114,-23.4962158203125,0.0,0.0,0.0,0.0,0.0,0.0,0.5794000029563904,0.0,0.0,0.0,0
372525339,0.2133007049560547,0.0065197111107409,-23.491910934448242,0.0,0.0,0.0,0.0,0.0,0.0,0.5794000029563904,0.0,0.0,0.0,0
372535292,0.21350115537643433,0.0012005680473521352,-23.49333381652832,0.0,0.0,0.0,0.0,0.0,0.0,0.5794000029563904,0.0,0.0,0.0,0
372545678,0.21166251599788666,0.0018475961405783892,-23.497791290283203,0.0,0.0,0.0,0.0,0.0,0.0,0.5794000029563904,0.0,0.0,0.0,0
372555649,0.2082817107439041,0.007334579713642597,-23.501121520996094,0.0,0.0,0.0,0.0,0.0,0.0,0.5794000029563904,0.0,0.0,0.0,0
372565440,0.21344426274299622,0.011251023039221764,-23.502113342285156,0.0,0.0,0.0,0.0,0.0,0.0,0.5794000029563904,0.0,0.0,0.0,0
372575337,0.2123377025127411,0.006063851062208414,-23.498966217041016,0.0,0.0,0.0,0.0,0.0,0.0,0.5794000029563904,0.0,0.0,0.0,0
372585358,0.21001838147640228,0.0032239353749901056,-23.498550415039062,0.0,0.0,0.0,0.0,0.0,0.0,0.5794000029563904,0.0,0.0,0.0,0
372595608,0.21273836493492126,0.0071043651551008224,-23.496007919311523,0.0,0.0,0.0,0.0,0.0,0.0,0.5794000029563904,0.0,0.0,0.0,0
372605716,0.21268048882484436,0.009390657767653465,-23.502582550048828,0.0,0.0,0.0,0.0,0.0,0.0,0.5794000029563904,0.0,0.0,0.0,0
372615294,0.21095384657382965,0.010007384233176708,-23.510244369506836,0.0,0.0,0.0,0.0,0.0,0.0,0.5794000029563904,0.0,0.0,0.0,0
372625331,0.20767523348331451,0.005571962799876928,-23.507061004638672,0.0,0.0,0.0,0.0,0.0,0.0,0.5794000029563904,0.0,0.0,0.0,0
372635319,0.20744509994983673,0.00032664142781868577,-23.501802444458008,0.0,0.0,0.0,0.0,0.0,0.0,0.5794000029563904,0.0,0.0,0.0,0
372645756,0.21020321547985077,0.006146573927253485,-23.495071411132812,0.0,0.0,0.0,0.0,0.0,0.0,0.5794000029563904,0.0,0.0,0.0,0
372656117,0.21866875886917114,0.010608213022351265,-23.492525100708008,0.0,0.0,0.0,0.0,0.0,0.0,0.5794000029563904,0.0,0.0,0.0,0
372665326,0.22123190760612488,0.006522288545966148,-23.492252349853516,0.0,0.0,0.0,0.0,0.0,0.0,0.5794000029563904,0.0,0.0,0.0,0
372675339,0.21361234784126282,0.009168533608317375,-23.49911117553711,0.0,0.0,0.0,0.0,0.0,0.0,0.5794000029563904,0.0,0.0,0.0,0
372685299,0.2073258012533188,0.010573654435575008,-23.5022029876709,0.0,0.0,0.0,0.0,0.0,0.0,0.5794000029563904,0.0,0.0,0.0,0
372695662,0.20448671281337738,0.010599885135889053,-23.49993324279785,0.0,0.0,0.0,0.0,0.0,0.0,0.5794000029563904,0.0,0.0,0.0,0
372705725,0.20567995309829712,0.005439210683107376,-23.495155334472656,0.0,0.0,0.0,0.0,0.0,0.0,0.5794000029563904,0.0,0.0,0.0,0
372715301,0.21338874101638794,0.006386845838278532,-23.4930362701416,0.0,0.0,0.0,0.0,0.0,0.0,0.5794000029563904,0.0,0.0,0.0,0
372725351,0.21488049626350403,0.009386708028614521,-23.497753143310547,0.0,0.0,0.0,0.0,0.0,0.0,0.5794000029563904,0.0,0.0,0.0,0
372735329,0.21480512619018555,0.014003734104335308,-23.50469398498535,0.0,0.0,0.0,0.0,0.0,0.0,0.5794000029563904,0.0,0.0,0.0,0
372745676,0.2144526094198227,0.006975758355110884,-23.500442504882812,0.0,0.0,0.0,0.0,0.0,0.0,0.5794000029563904,0.0,0.0,0.0,0
372755636,0.21808576583862305,-0.0010250033810734749,-23.499967575073242,0.0,0.0,0.0,0.0,0.0,0.0,0.5794000029563904,0.0,0.0,0.0,0
372765420,0.2143414318561554,0.0002973251976072788,-23.502042770385742,0.0,0.0,0.0,0.0,0.0,0.0,0.5794000029563904,0.0,0.0,0.0,0
372775295,0.2118004709482193,0.007002678699791431,-23.502756118774414,0.0,0.0,0.0,0.0,0.0,0.0,0.5794000029563904,0.0,0.0,0.0,0
372785334,0.2103596329689026,0.01058545894920826,-23.50379753112793,0.0,0.0,0.0,0.0,0.0,0.0,0.5794000029563904,0.0,0.0,0.0,0
372795682,0.2085152268409729,0.002085986780002713,-23.50381088256836,0.0,0.0,0.0,0.0,0.0,0.0,0.5794000029563904,0.0,0.0,0.0,0
372805707,0.21074043214321136,-0.0010519687784835696,-23.5044002532959,0.0,0.0,0.0,0.0,0.0,0.0,0.5794000029563904,0.0,0.0,0.0,0
372815316,0.21108749508857727,0.007935219444334507,-23.4973087310791,0.0,0.0,0.0,0.0,0.0,0.0,0.5794000029563904,0.0,0.0,0.0,0
372825347,0.21046653389930725,0.016581272706389427,-23.492341995239258,0.0,0.0,0.0,0.0,0.0,0.0,0.5794000029563904,0.0,0.0,0.0,0
372835289,0.2108256220817566,0.018858984112739563,-23.490036010742188,0.0,0.0,0.0,0.0,0.0,0.0,0.5794000029563904,0.0,0.0,0.0,0
372845779,0.2089400291442871,0.014298763126134872,-23.4912109375,0.0,0.0,0.0,0.0,0.0,0.0,0.5794000029563904,0.0,0.0,0.0,0
372856145,0.20834405720233917,0.0106356767937541,-23.499177932739258,0.0,0.0,0.0,0.0,0.0,0.0,0.5794000029563904,0.0,0.0,0.0,0
372865343,0.20763403177261353,0.011208811774849892,-23.502084732055664,0.0,0.0,0.0,0.0,0.0,0.0,0.5794000029563904,0.0,0.0,0.0,0
372875293,0.20560331642627716,0.008512425236403942,-23.499290466308594,0.0,0.0,0.0,0.0,0.0,0.0,0.5794000029563904,0.0,0.0,0.0,0
372885330,0.20437760651111603,0.007312114350497723,-23.501495361328125,0.0,0.0,0.0,0.0,0.0,0.0,0.5794000029563904,0.0,0.0,0.0,0
372895638,0.20932075381278992,0.007880792021751404,-23.49870491027832,0.0,0.0,0.0,0.0,0.0,0.0,0.5794000029563904,0.0,0.0,0.0,0
372905728,0.21143685281276703,0.008145705796778202,-23.491397857666016,0.0,0.0,0.0,0.0,0.0,0.0,0.5794000029563904,0.0,0.0,0.0,0
372915318,0.2129797339439392,0.005875848699361086,-23.48984718322754,0.0,0.0,0.0,0.0,0.0,0.0,0.5794000029563904,0.0,0.0,0.0,0
372925361,0.20699593424797058,0.004044022876769304,-23.500507354736328,0.0,0.0,0.0,0.0,0.0,0.0,0.5794000029563904,0.0,0.0,0.0,0
372935315,0.20854413509368896,0.005293042398989201,-23.500988006591797,0.0,0.0,0.0,0.0,0.0,0.0,0.5794000029563904,0.0,0.0,0.0,0
372945688,0.20940499007701874,0.007939925417304039,-23.501718521118164,0.0,0.0,0.0,0.0,0.0,0.0,0.5794000029563904,0.0,0.0,0.0,0
372955683,0.217553973197937,0.011873890645802021,-23.502443313598633,0.0,0.0,0.0,0.0,0.0,0.0,0.5794000029563904,0.0,0.0,0.0,0
372965471,0.21855342388153076,0.013726724311709404,-23.498699188232422,0.0,0.0,0.0,0.0,0.0,0.0,0.5794000029563904,0.0,0.0,0.0,0
372975301,0.21763479709625244,0.008071803487837315,-23.500139236450195,0.0,0.0,0.0,0.0,0.0,0.0,0.5794000029563904,0.0,0.0,0.0,0
372985356,0.22051094472408295,0.004969354253262281,-23.50014305114746,0.0,0.0,0.0,0.0,0.0,0.0,0.5794000029563904,0.0,0.0,0.0,0
372995629,0.21705500781536102,0.0006717054639011621,-23.50090217590332,0.0,0.0,0.0,0.0,0.0,0.0,0.5794000029563904,0.0,0.0,0.0,0
373005744,0.21115978062152863,0.0008334286976605654,-23.498945236206055,0.0,0.0,0.0,0.0,0.0,0.0,0.5794000029563904,0.0,0.0,0.0,0
373015324,0.21166661381721497,0.0008734167786315084,-23.501317977905273,0.0,0.0,0.0,0.0,0.0,0.0,0.5794000029563904,0.0,0.0,0.0,0
373025355,0.21254222095012665,0.003010144457221031,-23.50688362121582,0.0,0.0,0.0,0.0,0.0,0.0,0.5794000029563904,0.0,0.0,0.0,0
373035322,0.209825336933136,0.003579217940568924,-23.504430770874023,0.0,0.0,0.0,0.0,0.0,0.0,0.5794000029563904,0.0,0.0,0.0,0
373045847,0.20543962717056274,0.0038306433707475662,-23.50289535522461,0.0,0.0,0.0,0.0,0.0,0.0,0.5794000029563904,0.0,0.0,0.0,0
373056174,0.20583860576152802,0.008852370083332062,-23.50444221496582,0.0,0.0,0.0,0.0,0.0,0.0,0.5794000029563904,0.0,0.0,0.0,0
373065342,0.21109427511692047,0.0037103211507201195,-23.506088256835938,0.0,0.0,0.0,0.0,0.0,0.0,0.5794000029563904,0.0,0.0,0.0,0
373075320,0.21143171191215515,0.0023508418817073107,-23.505023956298828,0.0,0.0,0.0,0.0,0.0,0.0,0.5794000029563904,0.0,0.0,0.0,0
373085328,0.20613430440425873,0.005800011567771435,-23.501773834228516,0.0,0.0,0.0,0.0,0.0,0.0,0.5794000029563904,0.0,0.0,0.0,0
373095618,0.20421351492404938,0.006758704315871,-23.499177932739258,0.0,0.0,0.0,0.0,0.0,0.0,0.5794000029563904,0.0,0.0,0.0,0
373105729,0.20281897485256195,0.008872848004102707,-23.502830505371094,0.0,0.0,0.0,0.0,0.0,0.0,0.5794000029563904,0.0,0.0,0.0,0
373115295,0.20547279715538025,0.012625085189938545,-23.510236740112305,0.0,0.0,0.0,0.0,0.0,0.0,0.5794000029563904,0.0,0.0,0.0,0
373125357,0.21057549118995667,0.011396869085729122,-23.506155014038086,0.0,0.0,0.0,0.0,0.0,0.0,0.5794000029563904,0.0,0.0,0.0,0
373135263,0.20910656452178955,0.013842422515153885,-23.49799346923828,0.0,0.0,0.0,0.0,0.0,0.0,0.5794000029563904,0.0,0.0,0.0,0
373145668,0.20851044356822968,0.007190485950559378,-23.491558074951172,0.0,0.0,0.0,0.0,0.0,0.0,0.5794000029563904,0.0,0.0,0.0,0
373155644,0.20396780967712402,0.008421638049185276,-23.49869728088379,0.0,0.0,0.0,0.0,0.0,0.0,0.5794000029563904,0.0,0.0,0.0,0
373165322,0.20571373403072357,0.013268444687128067,-23.510976791381836,0.0,0.0,0.0,0.0,0.0,0.0,0.5794000029563904,0.0,0.0,0.0,0
373175307,0.2100113332271576,0.012334706261754036,-23.517072677612305,0.0,0.0,0.0,0.0,0.0,0.0,0.5794000029563904,0.0,0.0,0.0,0
373185330,0.2142946571111679,0.0058281440287828445,-23.503374099731445,0.0,0.0,0.0,0.0,0.0,0.0,0.5794000029563904,0.0,0.0,0.0,0
373195637,0.2176518589258194,0.0019494956359267235,-23.49199676513672,0.0,0.0,0.0,0.0,0.0,0.0,0.5794000029563904,0.0,0.0,0.0,0
373205699,0.2140505611896515,0.003897537477314472,-23.495311737060547,0.0,0.0,0.0,0.0,0.0,0.0,0.5794000029563904,0.0,0.0,0.0,0
373215339,0.20917926728725433,0.007469676900655031,-23.498004913330078,0.0,0.0,0.0,0.0,0.0,0.0,0.5794000029563904,0.0,0.0,0.0,0
373225345,0.20666521787643433,0.004559249617159367,-23.499359130859375,0.0,0.0,0.0,0.0,0.0,0.0,0.5794000029563904,0.0,0.0,0.0,0
373235309,0.20736859738826752,0.0014380416832864285,-23.50288200378418,0.0,0.0,0.0,0.0,0.0,0.0,0.5794000029563904,0.0,0.0,0.0,0
373245891,0.20766721665859222,0.006979070138186216,-23.497053146362305,0.0,0.0,0.0,0.0,0.0,0.0,0.5794000029563904,0.0,0.0,0.0,0
373256170,0.20921160280704498,0.013608158566057682,-23.4962100982666,0.0,0.0,0.0,0.0,0.0,0.0,0.5794000029563904,0.0,0.0,0.0,0
373265309,0.20850414037704468,0.011247585527598858,-23.502065658569336,0.0,0.0,0.0,0.0,0.0,0.0,0.5794000029563904,0.0,0.0,0.0,0
373275298,0.21611438691616058,0.008313748054206371,-23.50228500366211,0.0,0.0,0.0,0.0,0.0,0.0,0.5794000029563904,0.0,0.0,0.0,0
373285302,0.2159363329410553,0.0024472340010106564,-23.502201080322266,0.0,0.0,0.0,0.0,0.0,0.0,0.5794000029563904,0.0,0.0,0.0,0
373295618,0.20886504650115967,0.0015739024383947253,-23.50206184387207,0.0,0.0,0.0,0.0,0.0,0.0,0.5794000029563904,0.0,0.0,0.0,0
373305842,0.2079663723707199,0.0035292417742311954,-23.504880905151367,0.0,0.0,0.0,0.0,0.0,0.0,0.5794000029563904,0.0,0.0,0.0,0
373315279,0.20664338767528534,0.003391262609511614,-23.5032901763916,0.0,0.0,0.0,0.0,0.0,0.0,0.5794000029563904,0.0,0.0,0.0,0
373325331,0.20465897023677826,-0.0017512206686660647,-23.503389358520508,0.0,0.0,0.0,0.0,0.0,0.0,0.5794000029563904,0.0,0.0,0.0,0
373335319,0.2070649415254593,-0.0015701481606811285,-23.502609252929688,0.0,0.0,0.0,0.0,0.0,0.0,0.5794000029563904,0.0,0.0,0.0,0
373345676,0.21400804817676544,0.010133172385394573,-23.509050369262695,0.0,0.0,0.0,0.0,0.0,0.0,0.5794000029563904,0.0,0.0,0.0,0
373355635,0.21242354810237885,0.01593015156686306,-23.503646850585938,0.0,0.0,0.0,0.0,0.0,0.0,0.5794000029563904,0.0,0.0,0.0,0
373365380,0.21204738318920135,0.010158664546906948,-23.49917221069336,0.0,0.0,0.0,0.0,0.0,0.0,0.5794000029563904,0.0,0.0,0.0,0
373375337,0.21070322394371033,0.008202087134122849,-23.496421813964844,0.0,0.0,0.0,0.0,0.0,0.0,0.5794000029563904,0.0,0.0,0.0,0
373385346,0.2088451087474823,0.002414938062429428,-23.49367904663086,0.0,0.0,0.0,0.0,0.0,0.0,0.5794000029563904,0.0,0.0,0.0,0
373395709,0.2144085317850113,0.002400826197117567,-23.497997283935547,0.0,0.0,0.0,0.0,0.0,0.0,0.5794000029563904,0.0,0.0,0.0,0
373405727,0.2122258096933365,0.0022559405770152807,-23.506240844726562,0.0,0.0,0.0,0.0,0.0,0.0,0.5794000029563904,0.0,0.0,0.0,0
373415300,0.21424588561058044,0.0010354806436225772,-23.506553649902344,0.0,0.0,0.0,0.0,0.0,0.0,0.5794000029563904,0.0,0.0,0.0,0
373425344,0.21262498199939728,0.0008554760133847594,-23.49989128112793,0.0,0.0,0.0,0.0,0.0,0.0,0.5794000029563904,0.0,0.0,0.0,0
373435314,0.21263206005096436,0.01097712479531765,-23.500181198120117,0.0,0.0,0.0,0.0,0.0,0.0,0.5794000029563904,0.0,0.0,0.0,0
373445760,0.21282176673412323,0.013246242888271809,-23.501270294189453,0.0,0.0,0.0,0.0,0.0,0.0,0.5794000029563904,0.0,0.0,0.0,0
373456142,0.21611768007278442,0.011369986459612846,-23.503564834594727,0.0,0.0,0.0,0.0,0.0,0.0,0.5794000029563904,0.0,0.0,0.0,0
373465350,0.20975854992866516,0.002854124875739217,-23.509511947631836,0.0,0.0,0.0,0.0,0.0,0.0,0.5794000029563904,0.0,0.0,0.0,0
373475330,0.20602473616600037,0.005249123089015484,-23.50983428955078,0.0,0.0,0.0,0.0,0.0,0.0,0.5794000029563904,0.0,0.0,0.0,0
373485343,0.21008653938770294,0.008354753255844116,-23.50686264038086,0.0,0.0,0.0,0.0,0.0,0.0,0.5794000029563904,0.0,0.0,0.0,0
373495635,0.21277670562267303,0.007542397361248732,-23.50562286376953,0.0,0.0,0.0,0.0,0.0,0.0,0.5794000029563904,0.0,0.0,0.0,0
373505725,0.21098662912845612,0.00441526947543025,-23.504192352294922,0.0,0.0,0.0,0.0,0.0,0.0,0.5794000029563904,0.0,0.0,0.0,0
373515308,0.21053533256053925,0.0036842934787273407,-23.499887466430664,0.0,0.0,0.0,0.0,0.0,0.0,0.5794000029563904,0.0,0.0,0.0,0
373525342,0.2113509476184845,0.003840389894321561,-23.5024356842041,0.0,0.0,0.0,0.0,0.0,0.0,0.5794000029563904,0.0,0.0,0.0,0
373535318,0.2127429097890854,0.0031001002062112093,-23.51070785522461,0.0,0.0,0.0,0.0,0.0,0.0,0.5794000029563904,0.0,0.0,0.0,0
373545667,0.20927318930625916,0.006733284331858158,-23.5075626373291,0.0,0.0,0.0,0.0,0.0,0.0,0.5794000029563904,0.0,0.0,0.0,0
373555640,0.20588281750679016,0.007377052679657936,-23.49639320373535,0.0,0.0,0.0,0.0,0.0,0.0,0.5794000029563904,0.0,0.0,0.0,0
373565377,0.21033979952335358,0.002345047891139984,-23.50212860107422,0.0,0.0,0.0,0.0,0.0,0.0,0.5794000029563904,0.0,0.0,0.0,0
373575343,0.21000778675079346,0.0030366515275090933,-23.502483367919922,0.0,0.0,0.0,0.0,0.0,0.0,0.5794000029563904,0.0,0.0,0.0,0
373585338,0.21759803593158722,0.00460662879049778,-23.509822845458984,0.0,0.0,0.0,0.0,0.0,0.0,0.5794000029563904,0.0,0.0,0.0,0
373595649,0.21448558568954468,0.002110428409650922,-23.512439727783203,0.0,0.0,0.0,0.0,0.0,0.0,0.5794000029563904,0.0,0.0,0.0,0
373605704,0.2127695083618164,0.0010130925802513957,-23.508691787719727,0.0,0.0,0.0,0.0,0.0,0.0,0.5794000029563904,0.0,0.0,0.0,0
373615320,0.21090015769004822,0.0051971678622066975,-23.503482818603516,0.0,0.0,0.0,0.0,0.0,0.0,0.5794000029563904,0.0,0.0,0.0,0
373625340,0.20542213320732117,0.0066362530924379826,-23.504148483276367,0.0,0.0,0.0,0.0,0.0,0.0,0.5794000029563904,0.0,0.0,0.0,0
373635348,0.20615103840827942,0.003980875480920076,-23.505151748657227,0.0,0.0,0.0,0.0,0.0,0.0,0.5794000029563904,0.0,0.0,0.0,0
373645747,0.20796069502830505,0.008836948312819004,-23.50788688659668,0.0,0.0,0.0,0.0,0.0,0.0,0.5794000029563904,0.0,0.0,0.0,0
373656136,0.21265706419944763,0.0139269158244133,-23.507341384887695,0.0,0.0,0.0,0.0,0.0,0.0,0.5794000029563904,0.0,0.0,0.0,0
373665354,0.2132294923067093,0.011810705997049809,-23.506752014160156,0.0,0.0,0.0,0.0,0.0,0.0,0.5794000029563904,0.0,0.0,0.0,0
373675285,0.20814625918865204,0.001556258648633957,-23.50337028503418,0.0,0.0,0.0,0.0,0.0,0.0,0.5794000029563904,0.0,0.0,0.0,0
373685321,0.20424726605415344,-0.0025588979478925467,-23.502220153808594,0.0,0.0,0.0,0.0,0.0,0.0,0.5794000029563904,0.0,0.0,0.0,0
373695650,0.2037656605243683,0.00661096815019846,-23.50542449951172,0.0,0.0,0.0,0.0,0.0,0.0,0.5794000029563904,0.0,0.0,0.0,0
373705723,0.2064961940050125,0.008519512601196766,-23.503625869750977,0.0,0.0,0.0,0.0,0.0,0.0,0.5794000029563904,0.0,0.0,0.0,0
373715309,0.21152599155902863,0.003504598280414939,-23.50554656982422,0.0,0.0,0.0,0.0,0.0,0.0,0.5794000029563904,0.0,0.0,0.0,0
373725338,0.2130378931760788,0.0031196572817862034,-23.50494956970215,0.0,0.0,0.0,0.0,0.0,0.0,0.5794000029563904,0.0,0.0,0.0,0
373735312,0.20981059968471527,0.006891355849802494,-23.505826950073242,0.0,0.0,0.0,0.0,0.0,0.0,0.5794000029563904,0.0,0.0,0.0,0
373745681,0.20869646966457367,0.008426191285252571,-23.50265121459961,0.0,0.0,0.0,0.0,0.0,0.0,0.5794000029563904,0.0,0.0,0.0,0
373755654,0.208495631814003,0.01223042793571949,-23.501680374145508,0.0,0.0,0.0,0.0,0.0,0.0,0.5794000029563904,0.0,0.0,0.0,0
373765321,0.20685359835624695,0.008897729218006134,-23.503406524658203,0.0,0.0,0.0,0.0,0.0,0.0,0.5794000029563904,0.0,0.0,0.0,0
373775345,0.21098537743091583,0.005730076227337122,-23.50963592529297,0.0,0.0,0.0,0.0,0.0,0.0,0.5794000029563904,0.0,0.0,0.0,0
373785322,0.20267248153686523,0.008346406742930412,-23.512048721313477,0.0,0.0,0.0,0.0,0.0,0.0,0.5794000029563904,0.0,0.0,0.0,0
373795627,0.20330999791622162,0.007050126325339079,-23.507112503051758,0.0,0.0,0.0,0.0,0.0,0.0,0.5794000029563904,0.0,0.0,0.0,0
373805700,0.20893576741218567,0.004079250618815422,-23.496912002563477,0.0,0.0,0.0,0.0,0.0,0.0,0.5794000029563904,0.0,0.0,0.0,0
373815304,0.21071498095989227,0.004010727629065514,-23.4973087310791,0.0,0.0,0.0,0.0,0.0,0.0,0.5794000029563904,0.0,0.0,0.0,0
373825303,0.21481207013130188,0.006187687627971172,-23.510841369628906,0.0,0.0,0.0,0.0,0.0,0.0,0.5794000029563904,0.0,0.0,0.0,0
373835285,0.21110238134860992,0.012383452616631985,-23.521198272705078,0.0,0.0,0.0,0.0,0.0,0.0,0.5794000029563904,0.0,0.0,0.0,0
373845880,0.2120046764612198,0.009505636990070343,-23.513168334960938,0.0,0.0,0.0,0.0,0.0,0.0,0.5794000029563904,0.0,0.0,0.0,0
373856116,0.21705655753612518,0.003975545987486839,-23.50417137145996,0.0,0.0,0.0,0.0,0.0,0.0,0.5794000029563904,0.0,0.0,0.0,0
373865337,0.2163906693458557,0.004026955459266901,-23.507081985473633,0.0,0.0,0.0,0.0,0.0,0.0,0.5794000029563904,0.0,0.0,0.0,0
373875313,0.2155640721321106,0.013266357593238354,-23.503620147705078,0.0,0.0,0.0,0.0,0.0,0.0,0.5794000029563904,0.0,0.0,0.0,0
373885335,0.2104426622390747,0.01003292016685009,-23.506404876708984,0.0,0.0,0.0,0.0,0.0,0.0,0.5794000029563904,0.0,0.0,0.0,0
373895668,0.20323103666305542,0.009997761808335781,-23.50482940673828,0.0,0.0,0.0,0.0,0.0,0.0,0.5794000029563904,0.0,0.0,0.0,0
373905738,0.2073269635438919,0.001343432581052184,-23.500293731689453,0.0,0.0,0.0,0.0,0.0,0.0,0.5794000029563904,0.0,0.0,0.0,0
373915333,0.21254977583885193,-0.0006398890982382,-23.49982261657715,0.0,0.0,0.0,0.0,0.0,0.0,0.5794000029563904,0.0,0.0,0.0,0
373925373,0.20559701323509216,0.0023544509895145893,-23.502418518066406,0.0,0.0,0.0,0.0,0.0,0.0,0.5794000029563904,0.0,0.0,0.0,0
373935339,0.2060886174440384,0.0021475437097251415,-23.50138282775879,0.0,0.0,0.0,0.0,0.0,0.0,0.5794000029563904,0.0,0.0,0.0,0
373945642,0.20763304829597473,-0.002468103775754571,-23.503908157348633,0.0,0.0,0.0,0.0,0.0,0.0,0.5794000029563904,0.0,0.0,0.0,0
373955642,0.2070082426071167,0.000791866856161505,-23.509292602539062,0.0,0.0,0.0,0.0,0.0,0.0,0.5794000029563904,0.0,0.0,0.0,0
373965362,0.2128070592880249,0.007320072036236525,-23.51226806640625,0.0,0.0,0.0,0.0,0.0,0.0,0.5794000029563904,0.0,0.0,0.0,0
373975316,0.20912204682826996,0.014154467731714249,-23.50381851196289,0.0,0.0,0.0,0.0,0.0,0.0,0.5794000029563904,0.0,0.0,0.0,0
373985340,0.20822031795978546,0.008310609497129917,-23.498552322387695,0.0,0.0,0.0,0.0,0.0,0.0,0.5794000029563904,0.0,0.0,0.0,0
373995637,0.20705780386924744,0.000962014717515558,-23.49856948852539,0.0,0.0,0.0,0.0,0.0,0.0,0.5794000029563904,0.0,0.0,0.0,0
374005702,0.20947153866291046,0.0027055866084992886,-23.499439239501953,0.0,0.0,0.0,0.0,0.0,0.0,0.5794000029563904,0.0,0.0,0.0,0
374015287,0.20433570444583893,0.005778806284070015,-23.508176803588867,0.0,0.0,0.0,0.0,0.0,0.0,0.5794000029563904,0.0,0.0,0.0,0
374025357,0.20533941686153412,0.012871854938566685,-23.508577346801758,0.0,0.0,0.0,0.0,0.0,0.0,0.5794000029563904,0.0,0.0,0.0,0
374035311,0.20993143320083618,0.015192032791674137,-23.503164291381836,0.0,0.0,0.0,0.0,0.0,0.0,0.5794000029563904,0.0,0.0,0.0,0
374045787,0.21309567987918854,0.013538374565541744,-23.497119903564453,0.0,0.0,0.0,0.0,0.0,0.0,0.5794000029563904,0.0,0.0,0.0,0
374056257,0.20753751695156097,0.016387930139899254,-23.502641677856445,0.0,0.0,0.0,0.0,0.0,0.0,0.5794000029563904,0.0,0.0,0.0,0
374065346,0.20562417805194855,0.015687696635723114,-23.51078987121582,0.0,0.0,0.0,0.0,0.0,0.0,0.5794000029563904,0.0,0.0,0.0,0
374075318,0.21094536781311035,0.008645525202155113,-23.512022018432617,0.0,0.0,0.0,0.0,0.0,0.0,0.5794000029563904,0.0,0.0,0.0,0
374085321,0.2098098248243332,0.0023959740065038204,-23.51114273071289,0.0,0.0,0.0,0.0,0.0,0.0,0.5794000029563904,0.0,0.0,0.0,0
374095641,0.20795480906963348,-0.00039757118793204427,-23.504770278930664,0.0,0.0,0.0,0.0,0.0,0.0,0.5794000029563904,0.0,0.0,0.0,0
374105705,0.20923307538032532,0.0017672906396910548,-23.502384185791016,0.0,0.0,0.0,0.0,0.0,0.0,0.5794000029563904,0.0,0.0,0.0,0
