TimeUS,PLX,PLY,PLZ,AX,AY,BX,BY,CX,CY,F,P,X,Y,SW
377398640,-0.08391441404819489,-0.024522263556718826,-23.491775512695312,0.0,0.0,0.0,0.0,0.0,0.0,0.5794000029563904,0.0,0.0,0.0,0
377409381,-0.08252841979265213,-0.028028281405568123,-23.48882484436035,0.0,0.0,0.0,0.0,0.0,0.0,0.5794000029563904,0.0,0.0,0.0,0
377420028,-0.08834648132324219,-0.027606522664427757,-23.49280548095703,0.0,0.0,0.0,0.0,0.0,0.0,0.5794000029563904,0.0,0.0,0.0,0
377429321,-0.09435497224330902,-0.022685987874865532,-23.49212646484375,0.0,0.0,0.0,0.0,0.0,0.0,0.5794000029563904,0.0,0.0,0.0,0
377439573,-0.08996374905109406,-0.015237088315188885,-23.49154281616211,0.0,0.0,0.0,0.0,0.0,0.0,0.5794000029563904,0.0,0.0,0.0,0
377449293,-0.08488352596759796,-0.017785675823688507,-23.48851203918457,0.0,0.0,0.0,0.0,0.0,0.0,0.5794000029563904,0.0,0.0,0.0,0
377459369,-0.08599518984556198,-0.023357881233096123,-23.48954200744629,0.0,0.0,0.0,0.0,0.0,0.0,0.5794000029563904,0.0,0.0,0.0,0
377469587,-0.08731640875339508,-0.024590862914919853,-23.496320724487305,0.0,0.0,0.0,0.0,0.0,0.0,0.5794000029563904,0.0,0.0,0.0,0
377479353,-0.08479049801826477,-0.019491326063871384,-23.494752883911133,0.0,0.0,0.0,0.0,0.0,0.0,0.5794000029563904,0.0,0.0,0.0,0
377489884,-0.08043164759874344,-0.016206689178943634,-23.491195678710938,0.0,0.0,0.0,0.0,0.0,0.0,0.5794000029563904,0.0,0.0,0.0,0
377499451,-0.0801975205540657,-0.02438272535800934,-23.483125686645508,0.0,0.0,0.0,0.0,0.0,0.0,0.5794000029563904,0.0,0.0,0.0,0
377509411,-0.07708103209733963,-0.027456242591142654,-23.485429763793945,0.0,0.0,0.0,0.0,0.0,0.0,0.5794000029563904,0.0,0.0,0.0,0
377519555,-0.07777702808380127,-0.023822320625185966,-23.493793487548828,0.0,0.0,0.0,0.0,0.0,0.0,0.5794000029563904,0.0,0.0,0.0,0
377529323,-0.08743119239807129,-0.014672279357910156,-23.49654769897461,0.0,0.0,0.0,0.0,0.0,0.0,0.5794000029563904,0.0,0.0,0.0,0
377540056,-0.09238489717245102,-0.015569973737001419,-23.489503860473633,0.0,0.0,0.0,0.0,0.0,0.0,0.5794000029563904,0.0,0.0,0.0,0
377549356,-0.09297051280736923,-0.018803173676133156,-23.491064071655273,0.0,0.0,0.0,0.0,0.0,0.0,0.5794000029563904,0.0,0.0,0.0,0
377559383,-0.09084025025367737,-0.022103270515799522,-23.488601684570312,0.0,0.0,0.0,0.0,0.0,0.0,0.5794000029563904,0.0,0.0,0.0,0
377569528,-0.08662204444408417,-0.01989091746509075,-23.492801666259766,0.0,0.0,0.0,0.0,0.0,0.0,0.5794000029563904,0.0,0.0,0.0,0
377579323,-0.08689672499895096,-0.0187421515583992,-23.500621795654297,0.0,0.0,0.0,0.0,0.0,0.0,0.5794000029563904,0.0,0.0,0.0,0
377589615,-0.08368927985429764,-0.022008702158927917,-23.494089126586914,0.0,0.0,0.0,0.0,0.0,0.0,0.5794000029563904,0.0,0.0,0.0,0
377599356,-0.08316132426261902,-0.02435002289712429,-23.48772621154785,0.0,0.0,0.0,0.0,0.0,0.0,0.5794000029563904,0.0,0.0,0.0,0
377609287,-0.08407934755086899,-0.026239566504955292,-23.49056053161621,0.0,0.0,0.0,0.0,0.0,0.0,0.5794000029563904,0.0,0.0,0.0,0
377619572,-0.08124253898859024,-0.023108236491680145,-23.48766326904297,0.0,0.0,0.0,0.0,0.0,0.0,0.5794000029563904,0.0,0.0,0.0,0
377629308,-0.08278732746839523,-0.027059856802225113,-23.486417770385742,0.0,0.0,0.0,0.0,0.0,0.0,0.5794000029563904,0.0,0.0,0.0,0
377639550,-0.08469540625810623,-0.024971848353743553,-23.497697830200195,0.0,0.0,0.0,0.0,0.0,0.0,0.5794000029563904,0.0,0.0,0.0,0
377649320,-0.0823429524898529,-0.026453906670212746,-23.490659713745117,0.0,0.0,0.0,0.0,0.0,0.0,0.5794000029563904,0.0,0.0,0.0,0
377659393,-0.0799066349864006,-0.028126336634159088,-23.48927116394043,0.0,0.0,0.0,0.0,0.0,0.0,0.5794000029563904,0.0,0.0,0.0,0
377669617,-0.0801234245300293,-0.028004784137010574,-23.49163246154785,0.0,0.0,0.0,0.0,0.0,0.0,0.5794000029563904,0.0,0.0,0.0,0
377679374,-0.08376955986022949,-0.023567281663417816,-23.4897403717041,0.0,0.0,0.0,0.0,0.0,0.0,0.5794000029563904,0.0,0.0,0.0,0
377689894,-0.0873696357011795,-0.0229354165494442,-23.498594284057617,0.0,0.0,0.0,0.0,0.0,0.0,0.5794000029563904,0.0,0.0,0.0,0
377699348,-0.08390641212463379,-0.020630020648241043,-23.49921226501465,0.0,0.0,0.0,0.0,0.0,0.0,0.5794000029563904,0.0,0.0,0.0,0
377709335,-0.08436927944421768,-0.015122592449188232,-23.493200302124023,0.0,0.0,0.0,0.0,0.0,0.0,0.5794000029563904,0.0,0.0,0.0,0
377719599,-0.0858946219086647,-0.018998920917510986,-23.486825942993164,0.0,0.0,0.0,0.0,0.0,0.0,0.5794000029563904,0.0,0.0,0.0,0
377729394,-0.08484630286693573,-0.028155457228422165,-23.48473358154297,0.0,0.0,0.0,0.0,0.0,0.0,0.5794000029563904,0.0,0.0,0.0,0
377740070,-0.08070925623178482,-0.023737290874123573,-23.487205505371094,0.0,0.0,0.0,0.0,0.0,0.0,0.5794000029563904,0.0,0.0,0.0,0
377749285,-0.0797959491610527,-0.02785082347691059,-23.49919891357422,0.0,0.0,0.0,0.0,0.0,0.0,0.5794000029563904,0.0,0.0,0.0,0
377759324,-0.08634551614522934,-0.026959219947457314,-23.50234031677246,0.0,0.0,0.0,0.0,0.0,0.0,0.5794000029563904,0.0,0.0,0.0,0
377769588,-0.08482570201158524,-0.02501043677330017,-23.505727767944336,0.0,0.0,0.0,0.0,0.0,0.0,0.5794000029563904,0.0,0.0,0.0,0
377779421,-0.08639965206384659,-0.024192815646529198,-23.502910614013672,0.0,0.0,0.0,0.0,0.0,0.0,0.5794000029563904,0.0,0.0,0.0,0
377789615,-0.08210452646017075,-0.020691700279712677,-23.487890243530273,0.0,0.0,0.0,0.0,0.0,0.0,0.5794000029563904,0.0,0.0,0.0,0
377799369,-0.07959161698818207,-0.020037058740854263,-23.4866886138916,0.0,0.0,0.0,0.0,0.0,0.0,0.5794000029563904,0.0,0.0,0.0,0
377809423,-0.07696368545293808,-0.022870009765028954,-23.491561889648438,0.0,0.0,0.0,0.0,0.0,0.0,0.5794000029563904,0.0,0.0,0.0,0
377819595,-0.07650582492351532,-0.02551756240427494,-23.498613357543945,0.0,0.0,0.0,0.0,0.0,0.0,0.5794000029563904,0.0,0.0,0.0,0
377829313,-0.08172345906496048,-0.0312686413526535,-23.50164222717285,0.0,0.0,0.0,0.0,0.0,0.0,0.5794000029563904,0.0,0.0,0.0,0
377839640,-0.09056053310632706,-0.02832186594605446,-23.495840072631836,0.0,0.0,0.0,0.0,0.0,0.0,0.5794000029563904,0.0,0.0,0.0,0
377849391,-0.09210661053657532,-0.026771241798996925,-23.48586654663086,0.0,0.0,0.0,0.0,0.0,0.0,0.5794000029563904,0.0,0.0,0.0,0
377859309,-0.0924534872174263,-0.027482004836201668,-23.484891891479492,0.0,0.0,0.0,0.0,0.0,0.0,0.5794000029563904,0.0,0.0,0.0,0
377869615,-0.08901794254779816,-0.026320600882172585,-23.496164321899414,0.0,0.0,0.0,0.0,0.0,0.0,0.5794000029563904,0.0,0.0,0.0,0
377879405,-0.08181782811880112,-0.021473189815878868,-23.4967041015625,0.0,0.0,0.0,0.0,0.0,0.0,0.5794000029563904,0.0,0.0,0.0,0
377889919,-0.08127592504024506,-0.018027830868959427,-23.499332427978516,0.0,0.0,0.0,0.0,0.0,0.0,0.5794000029563904,0.0,0.0,0.0,0
377899404,-0.07894808053970337,-0.024558300152420998,-23.489418029785156,0.0,0.0,0.0,0.0,0.0,0.0,0.5794000029563904,0.0,0.0,0.0,0
377909315,-0.08308308571577072,-0.02685301937162876,-23.487281799316406,0.0,0.0,0.0,0.0,0.0,0.0,0.5794000029563904,0.0,0.0,0.0,0
377919591,-0.08381136506795883,-0.029032833874225616,-23.49308967590332,0.0,0.0,0.0,0.0,0.0,0.0,0.5794000029563904,0.0,0.0,0.0,0
377929297,-0.08589591830968857,-0.0257329810410738,-23.491104125976562,0.0,0.0,0.0,0.0,0.0,0.0,0.5794000029563904,0.0,0.0,0.0,0
377940044,-0.08048971742391586,-0.025939201936125755,-23.49728775024414,0.0,0.0,0.0,0.0,0.0,0.0,0.5794000029563904,0.0,0.0,0.0,0
377949363,-0.07614092528820038,-0.02384650893509388,-23.49966812133789,0.0,0.0,0.0,0.0,0.0,0.0,0.5794000029563904,0.0,0.0,0.0,0
377959319,-0.07382752001285553,-0.028677303344011307,-23.487655639648438,0.0,0.0,0.0,0.0,0.0,0.0,0.5794000029563904,0.0,0.0,0.0,0
377969632,-0.07891469448804855,-0.027416696771979332,-23.48819351196289,0.0,0.0,0.0,0.0,0.0,0.0,0.5794000029563904,0.0,0.0,0.0,0
377979331,-0.07988958060741425,-0.025323832407593727,-23.494895935058594,0.0,0.0,0.0,0.0,0.0,0.0,0.5794000029563904,0.0,0.0,0.0,0
377989604,-0.08151793479919434,-0.023702960461378098,-23.489967346191406,0.0,0.0,0.0,0.0,0.0,0.0,0.5794000029563904,0.0,0.0,0.0,0
377999336,-0.08409567922353745,-0.02566799707710743,-23.496335983276367,0.0,0.0,0.0,0.0,0.0,0.0,0.5794000029563904,0.0,0.0,0.0,0
378009300,-0.08944171667098999,-0.02510857954621315,-23.49424171447754,0.0,0.0,0.0,0.0,0.0,0.0,0.5794000029563904,0.0,0.0,0.0,0
378019374,-0.08392132073640823,-0.018278900533914566,-23.49191665649414,0.0,0.0,0.0,0.0,0.0,0.0,0.5794000029563904,0.0,0.0,0.0,0
378029571,-0.08089946955442429,-0.01869802735745907,-23.49447250366211,0.0,0.0,0.0,0.0,0.0,0.0,0.5794000029563904,0.0,0.0,0.0,0
378039618,-0.08018067479133606,-0.019742349162697792,-23.492395401000977,0.0,0.0,0.0,0.0,0.0,0.0,0.5794000029563904,0.0,0.0,0.0,0
378049338,-0.07601002603769302,-0.01300792582333088,-23.493173599243164,0.0,0.0,0.0,0.0,0.0,0.0,0.5794000029563904,0.0,0.0,0.0,0
378059289,-0.07746581733226776,-0.012486359104514122,-23.499263763427734,0.0,0.0,0.0,0.0,0.0,0.0,0.5794000029563904,0.0,0.0,0.0,0
378069366,-0.08148224651813507,-0.016095036640763283,-23.49738311767578,0.0,0.0,0.0,0.0,0.0,0.0,0.5794000029563904,0.0,0.0,0.0,0
378080073,-0.08319933712482452,-0.018633831292390823,-23.496231079101562,0.0,0.0,0.0,0.0,0.0,0.0,0.5794000029563904,0.0,0.0,0.0,0
378089915,-0.08290650695562363,-0.02049316093325615,-23.499187469482422,0.0,0.0,0.0,0.0,0.0,0.0,0.5794000029563904,0.0,0.0,0.0,0
378099326,-0.0844469666481018,-0.01975852996110916,-23.494699478149414,0.0,0.0,0.0,0.0,0.0,0.0,0.5794000029563904,0.0,0.0,0.0,0
378109360,-0.08491402864456177,-0.021785784512758255,-23.491153717041016,0.0,0.0,0.0,0.0,0.0,0.0,0.5794000029563904,0.0,0.0,0.0,0
378119314,-0.08289944380521774,-0.020917242392897606,-23.497249603271484,0.0,0.0,0.0,0.0,0.0,0.0,0.5794000029563904,0.0,0.0,0.0,0
378129636,-0.08186998218297958,-0.023041505366563797,-23.49587059020996,0.0,0.0,0.0,0.0,0.0,0.0,0.5794000029563904,0.0,0.0,0.0,0
378140145,-0.07896557450294495,-0.02167825773358345,-23.49212646484375,0.0,0.0,0.0,0.0,0.0,0.0,0.5794000029563904,0.0,0.0,0.0,0
378149395,-0.08451912552118301,-0.019148847088217735,-23.48923683166504,0.0,0.0,0.0,0.0,0.0,0.0,0.5794000029563904,0.0,0.0,0.0,0
378159369,-0.08458209782838821,-0.021937469020485878,-23.494245529174805,0.0,0.0,0.0,0.0,0.0,0.0,0.5794000029563904,0.0,0.0,0.0,0
378169340,-0.08602730184793472,-0.022715801373124123,-23.5007266998291,0.0,0.0,0.0,0.0,0.0,0.0,0.5794000029563904,0.0,0.0,0.0,0
378179637,-0.08090855926275253,-0.01574326865375042,-23.501737594604492,0.0,0.0,0.0,0.0,0.0,0.0,0.5794000029563904,0.0,0.0,0.0,0
378189586,-0.07679597288370132,-0.017733126878738403,-23.49915313720703,0.0,0.0,0.0,0.0,0.0,0.0,0.5794000029563904,0.0,0.0,0.0,0
378199355,-0.08233991265296936,-0.021415021270513535,-23.492826461791992,0.0,0.0,0.0,0.0,0.0,0.0,0.5794000029563904,0.0,0.0,0.0,0
378209382,-0.0850818008184433,-0.023345444351434708,-23.487825393676758,0.0,0.0,0.0,0.0,0.0,0.0,0.5794000029563904,0.0,0.0,0.0,0
378219306,-0.08949249237775803,-0.024351563304662704,-23.489830017089844,0.0,0.0,0.0,0.0,0.0,0.0,0.5794000029563904,0.0,0.0,0.0,0
378229664,-0.08870157599449158,-0.018761517480015755,-23.4950008392334,0.0,0.0,0.0,0.0,0.0,0.0,0.5794000029563904,0.0,0.0,0.0,0
378239629,-0.08869796991348267,-0.012740068137645721,-23.496315002441406,0.0,0.0,0.0,0.0,0.0,0.0,0.5794000029563904,0.0,0.0,0.0,0
378249333,-0.0839090421795845,-0.0147879458963871,-23.500381469726562,0.0,0.0,0.0,0.0,0.0,0.0,0.5794000029563904,0.0,0.0,0.0,0
378259380,-0.07957137376070023,-0.021909043192863464,-23.50528335571289,0.0,0.0,0.0,0.0,0.0,0.0,0.5794000029563904,0.0,0.0,0.0,0
378269337,-0.0841570496559143,-0.027965733781456947,-23.49888038635254,0.0,0.0,0.0,0.0,0.0,0.0,0.5794000029563904,0.0,0.0,0.0,0
378280155,-0.08553978055715561,-0.02407759428024292,-23.489362716674805,0.0,0.0,0.0,0.0,0.0,0.0,0.5794000029563904,0.0,0.0,0.0,0
378289934,-0.08612468838691711,-0.02720286324620247,-23.494014739990234,0.0,0.0,0.0,0.0,0.0,0.0,0.5794000029563904,0.0,0.0,0.0,0
378299411,-0.0906277522444725,-0.027217453345656395,-23.49788475036621,0.0,0.0,0.0,0.0,0.0,0.0,0.5794000029563904,0.0,0.0,0.0,0
378309345,-0.08492835611104965,-0.02487831935286522,-23.506467819213867,0.0,0.0,0.0,0.0,0.0,0.0,0.5794000029563904,0.0,0.0,0.0,0
378319386,-0.08169456571340561,-0.023297643288969994,-23.50120735168457,0.0,0.0,0.0,0.0,0.0,0.0,0.5794000029563904,0.0,0.0,0.0,0
378329283,-0.08048614114522934,-0.020995493978261948,-23.486841201782227,0.0,0.0,0.0,0.0,0.0,0.0,0.5794000029563904,0.0,0.0,0.0,0
378340064,-0.07554464042186737,-0.02353125810623169,-23.482669830322266,0.0,0.0,0.0,0.0,0.0,0.0,0.5794000029563904,0.0,0.0,0.0,0
378349293,-0.07555443048477173,-0.02128373645246029,-23.4966983795166,0.0,0.0,0.0,0.0,0.0,0.0,0.5794000029563904,0.0,0.0,0.0,0
378359385,-0.07743965834379196,-0.01981867104768753,-23.501657485961914,0.0,0.0,0.0,0.0,0.0,0.0,0.5794000029563904,0.0,0.0,0.0,0
378369303,-0.0844559520483017,-0.022109627723693848,-23.50079345703125,0.0,0.0,0.0,0.0,0.0,0.0,0.5794000029563904,0.0,0.0,0.0,0
378379611,-0.08844062685966492,-0.024279778823256493,-23.495281219482422,0.0,0.0,0.0,0.0,0.0,0.0,0.5794000029563904,0.0,0.0,0.0,0
378389610,-0.08483739197254181,-0.02736884355545044,-23.493480682373047,0.0,0.0,0.0,0.0,0.0,0.0,0.5794000029563904,0.0,0.0,0.0,0
378399426,-0.07931249588727951,-0.028884530067443848,-23.49036979675293,0.0,0.0,0.0,0.0,0.0,0.0,0.5794000029563904,0.0,0.0,0.0,0
378409317,-0.07689636945724487,-0.024694057181477547,-23.489906311035156,0.0,0.0,0.0,0.0,0.0,0.0,0.5794000029563904,0.0,0.0,0.0,0
378419384,-0.07796107977628708,-0.0235318373888731,-23.496170043945312,0.0,0.0,0.0,0.0,0.0,0.0,0.5794000029563904,0.0,0.0,0.0,0
378429619,-0.08250385522842407,-0.02066667564213276,-23.50006675720215,0.0,0.0,0.0,0.0,0.0,0.0,0.5794000029563904,0.0,0.0,0.0,0
378439677,-0.08157128840684891,-0.021858321502804756,-23.494029998779297,0.0,0.0,0.0,0.0,0.0,0.0,0.5794000029563904,0.0,0.0,0.0,0
378449341,-0.08263389021158218,-0.021045001223683357,-23.494321823120117,0.0,0.0,0.0,0.0,0.0,0.0,0.5794000029563904,0.0,0.0,0.0,0
378459328,-0.0843721479177475,-0.02157941274344921,-23.49525260925293,0.0,0.0,0.0,0.0,0.0,0.0,0.5794000029563904,0.0,0.0,0.0,0
378469401,-0.0829458013176918,-0.019420336931943893,-23.500755310058594,0.0,0.0,0.0,0.0,0.0,0.0,0.5794000029563904,0.0,0.0,0.0,0
378480055,-0.0855410248041153,-0.0193495936691761,-23.505905151367188,0.0,0.0,0.0,0.0,0.0,0.0,0.5794000029563904,0.0,0.0,0.0,0
378490009,-0.08400231599807739,-0.024184467270970345,-23.501148223876953,0.0,0.0,0.0,0.0,0.0,0.0,0.5794000029563904,0.0,0.0,0.0,0
378499343,-0.08325124531984329,-0.01833018660545349,-23.495206832885742,0.0,0.0,0.0,0.0,0.0,0.0,0.5794000029563904,0.0,0.0,0.0,0
378509296,-0.08381825685501099,-0.02211296744644642,-23.493831634521484,0.0,0.0,0.0,0.0,0.0,0.0,0.5794000029563904,0.0,0.0,0.0,0
378519357,-0.08889807015657425,-0.02760624699294567,-23.496723175048828,0.0,0.0,0.0,0.0,0.0,0.0,0.5794000029563904,0.0,0.0,0.0,0
378529666,-0.08922915905714035,-0.031387872993946075,-23.497949600219727,0.0,0.0,0.0,0.0,0.0,0.0,0.5794000029563904,0.0,0.0,0.0,0
378540040,-0.08395224809646606,-0.03033413551747799,-23.50806999206543,0.0,0.0,0.0,0.0,0.0,0.0,0.5794000029563904,0.0,0.0,0.0,0
378549348,-0.08329179883003235,-0.025110095739364624,-23.50566291809082,0.0,0.0,0.0,0.0,0.0,0.0,0.5794000029563904,0.0,0.0,0.0,0
378559318,-0.09068098664283752,-0.021395884454250336,-23.496334075927734,0.0,0.0,0.0,0.0,0.0,0.0,0.5794000029563904,0.0,0.0,0.0,0
378569311,-0.09196867048740387,-0.022838139906525612,-23.491058349609375,0.0,0.0,0.0,0.0,0.0,0.0,0.5794000029563904,0.0,0.0,0.0,0
378579589,-0.08793452382087708,-0.020993242040276527,-23.492948532104492,0.0,0.0,0.0,0.0,0.0,0.0,0.5794000029563904,0.0,0.0,0.0,0
378589690,-0.08213312923908234,-0.023974357172846794,-23.497241973876953,0.0,0.0,0.0,0.0,0.0,0.0,0.5794000029563904,0.0,0.0,0.0,0
378599357,-0.07777118682861328,-0.022159654647111893,-23.511253356933594,0.0,0.0,0.0,0.0,0.0,0.0,0.5794000029563904,0.0,0.0,0.0,0
378609358,-0.08082780241966248,-0.017997492104768753,-23.509700775146484,0.0,0.0,0.0,0.0,0.0,0.0,0.5794000029563904,0.0,0.0,0.0,0
378619363,-0.08288160711526871,-0.020427798852324486,-23.503026962280273,0.0,0.0,0.0,0.0,0.0,0.0,0.5794000029563904,0.0,0.0,0.0,0
378629680,-0.08853551745414734,-0.013844255357980728,-23.49477767944336,0.0,0.0,0.0,0.0,0.0,0.0,0.5794000029563904,0.0,0.0,0.0,0
378639569,-0.0844697430729866,-0.019369646906852722,-23.49382209777832,0.0,0.0,0.0,0.0,0.0,0.0,0.5794000029563904,0.0,0.0,0.0,0
378649311,-0.08205828815698624,-0.024009743705391884,-23.501911163330078,0.0,0.0,0.0,0.0,0.0,0.0,0.5794000029563904,0.0,0.0,0.0,0
378659332,-0.07725416868925095,-0.021217547357082367,-23.506669998168945,0.0,0.0,0.0,0.0,0.0,0.0,0.5794000029563904,0.0,0.0,0.0,0
378669320,-0.08129000663757324,-0.01960807479918003,-23.503435134887695,0.0,0.0,0.0,0.0,0.0,0.0,0.5794000029563904,0.0,0.0,0.0,0
378680028,-0.09011876583099365,-0.018363626673817635,-23.49827003479004,0.0,0.0,0.0,0.0,0.0,0.0,0.5794000029563904,0.0,0.0,0.0,0
378689952,-0.08231908082962036,-0.02544172666966915,-23.486013412475586,0.0,0.0,0.0,0.0,0.0,0.0,0.5794000029563904,0.0,0.0,0.0,0
378699405,-0.08120130747556686,-0.025151683017611504,-23.493146896362305,0.0,0.0,0.0,0.0,0.0,0.0,0.5794000029563904,0.0,0.0,0.0,0
378709299,-0.0743550956249237,-0.0172114297747612,-23.51006317138672,0.0,0.0,0.0,0.0,0.0,0.0,0.5794000029563904,0.0,0.0,0.0,0
378719312,-0.0757208839058876,-0.018328281119465828,-23.509288787841797,0.0,0.0,0.0,0.0,0.0,0.0,0.5794000029563904,0.0,0.0,0.0,0
378729582,-0.07832201570272446,-0.0208316370844841,-23.502723693847656,0.0,0.0,0.0,0.0,0.0,0.0,0.5794000029563904,0.0,0.0,0.0,0
378740087,-0.08043932169675827,-0.022175388410687447,-23.506643295288086,0.0,0.0,0.0,0.0,0.0,0.0,0.5794000029563904,0.0,0.0,0.0,0
378749375,-0.08373474329710007,-0.021370619535446167,-23.509475708007812,0.0,0.0,0.0,0.0,0.0,0.0,0.5794000029563904,0.0,0.0,0.0,0
378759348,-0.09277172386646271,-0.021176069974899292,-23.497539520263672,0.0,0.0,0.0,0.0,0.0,0.0,0.5794000029563904,0.0,0.0,0.0,0
378769304,-0.0886511504650116,-0.021291015669703484,-23.499324798583984,0.0,0.0,0.0,0.0,0.0,0.0,0.5794000029563904,0.0,0.0,0.0,0
378779625,-0.08441551774740219,-0.02339806593954563,-23.504369735717773,0.0,0.0,0.0,0.0,0.0,0.0,0.5794000029563904,0.0,0.0,0.0,0
378789621,-0.08312010020017624,-0.020901784300804138,-23.502119064331055,0.0,0.0,0.0,0.0,0.0,0.0,0.5794000029563904,0.0,0.0,0.0,0
378799421,-0.08470658212900162,-0.016668295487761497,-23.50086784362793,0.0,0.0,0.0,0.0,0.0,0.0,0.5794000029563904,0.0,0.0,0.0,0
378809339,-0.08318207412958145,-0.019368242472410202,-23.4943790435791,0.0,0.0,0.0,0.0,0.0,0.0,0.5794000029563904,0.0,0.0,0.0,0
378819383,-0.08485376089811325,-0.02204245887696743,-23.495159149169922,0.0,0.0,0.0,0.0,0.0,0.0,0.5794000029563904,0.0,0.0,0.0,0
378829605,-0.08530522137880325,-0.02595582790672779,-23.50074005126953,0.0,0.0,0.0,0.0,0.0,0.0,0.5794000029563904,0.0,0.0,0.0,0
378839626,-0.08345393091440201,-0.02421681396663189,-23.50588607788086,0.0,0.0,0.0,0.0,0.0,0.0,0.5794000029563904,0.0,0.0,0.0,0
378849409,-0.08147113025188446,-0.020663585513830185,-23.502952575683594,0.0,0.0,0.0,0.0,0.0,0.0,0.5794000029563904,0.0,0.0,0.0,0
378859326,-0.08643823862075806,-0.020035749301314354,-23.495203018188477,0.0,0.0,0.0,0.0,0.0,0.0,0.5794000029563904,0.0,0.0,0.0,0
378869388,-0.07815419137477875,-0.021086610853672028,-23.499919891357422,0.0,0.0,0.0,0.0,0.0,0.0,0.5794000029563904,0.0,0.0,0.0,0
378880031,-0.07144498825073242,-0.02142205834388733,-23.503623962402344,0.0,0.0,0.0,0.0,0.0,0.0,0.5794000029563904,0.0,0.0,0.0,0
378889885,-0.07845313847064972,-0.019258171319961548,-23.5059814453125,0.0,0.0,0.0,0.0,0.0,0.0,0.5794000029563904,0.0,0.0,0.0,0
378899352,-0.08134334534406662,-0.021578457206487656,-23.50632095336914,0.0,0.0,0.0,0.0,0.0,0.0,0.5794000029563904,0.0,0.0,0.0,0
378909360,-0.08676548302173615,-0.022906295955181122,-23.504432678222656,0.0,0.0,0.0,0.0,0.0,0.0,0.5794000029563904,0.0,0.0,0.0,0
378919404,-0.08687499910593033,-0.01927746646106243,-23.49531364440918,0.0,0.0,0.0,0.0,0.0,0.0,0.5794000029563904,0.0,0.0,0.0,0
378929322,-0.08086531609296799,-0.013854552060365677,-23.495304107666016,0.0,0.0,0.0,0.0,0.0,0.0,0.5794000029563904,0.0,0.0,0.0,0
378940010,-0.08091414719820023,-0.014671271666884422,-23.499435424804688,0.0,0.0,0.0,0.0,0.0,0.0,0.5794000029563904,0.0,0.0,0.0,0
378949408,-0.08027906715869904,-0.020303482189774513,-23.49332046508789,0.0,0.0,0.0,0.0,0.0,0.0,0.5794000029563904,0.0,0.0,0.0,0
378959318,-0.08120232075452805,-0.022282090038061142,-23.500476837158203,0.0,0.0,0.0,0.0,0.0,0.0,0.5794000029563904,0.0,0.0,0.0,0
378969331,-0.08791081607341766,-0.018031708896160126,-23.508285522460938,0.0,0.0,0.0,0.0,0.0,0.0,0.5794000029563904,0.0,0.0,0.0,0
378979622,-0.0866202712059021,-0.01811607927083969,-23.49832534790039,0.0,0.0,0.0,0.0,0.0,0.0,0.5794000029563904,0.0,0.0,0.0,0
378989635,-0.08225682377815247,-0.023052969947457314,-23.49581527709961,0.0,0.0,0.0,0.0,0.0,0.0,0.5794000029563904,0.0,0.0,0.0,0
378999417,-0.08252643793821335,-0.024306226521730423,-23.494892120361328,0.0,0.0,0.0,0.0,0.0,0.0,0.5794000029563904,0.0,0.0,0.0,0
379009363,-0.08215861767530441,-0.02458028495311737,-23.491161346435547,0.0,0.0,0.0,0.0,0.0,0.0,0.5794000029563904,0.0,0.0,0.0,0
379019331,-0.08180423825979233,-0.02559572085738182,-23.496112823486328,0.0,0.0,0.0,0.0,0.0,0.0,0.5794000029563904,0.0,0.0,0.0,0
379029558,-0.08112034201622009,-0.02514328621327877,-23.500823974609375,0.0,0.0,0.0,0.0,0.0,0.0,0.5794000029563904,0.0,0.0,0.0,0
379039698,-0.08268120884895325,-0.020334601402282715,-23.506488800048828,0.0,0.0,0.0,0.0,0.0,0.0,0.5794000029563904,0.0,0.0,0.0,0
379049336,-0.08416276425123215,-0.022994419559836388,-23.497039794921875,0.0,0.0,0.0,0.0,0.0,0.0,0.5794000029563904,0.0,0.0,0.0,0
379059312,-0.08192000538110733,-0.01939428597688675,-23.49361801147461,0.0,0.0,0.0,0.0,0.0,0.0,0.5794000029563904,0.0,0.0,0.0,0
379069298,-0.0756952241063118,-0.015239172615110874,-23.502025604248047,0.0,0.0,0.0,0.0,0.0,0.0,0.5794000029563904,0.0,0.0,0.0,0
379080077,-0.07695549726486206,-0.022587543353438377,-23.5086612701416,0.0,0.0,0.0,0.0,0.0,0.0,0.5794000029563904,0.0,0.0,0.0,0
379089979,-0.07454071193933487,-0.026560122147202492,-23.506481170654297,0.0,0.0,0.0,0.0,0.0,0.0,0.5794000029563904,0.0,0.0,0.0,0
379099348,-0.0740853026509285,-0.024406813085079193,-23.499984741210938,0.0,0.0,0.0,0.0,0.0,0.0,0.5794000029563904,0.0,0.0,0.0,0
379109401,-0.0783238336443901,-0.02439056523144245,-23.491926193237305,0.0,0.0,0.0,0.0,0.0,0.0,0.5794000029563904,0.0,0.0,0.0,0
379119305,-0.07946387678384781,-0.02686423994600773,-23.489582061767578,0.0,0.0,0.0,0.0,0.0,0.0,0.5794000029563904,0.0,0.0,0.0,0
379129619,-0.08236825466156006,-0.03182322531938553,-23.499135971069336,0.0,0.0,0.0,0.0,0.0,0.0,0.5794000029563904,0.0,0.0,0.0,0
379139981,-0.08373609930276871,-0.027459148317575455,-23.50637435913086,0.0,0.0,0.0,0.0,0.0,0.0,0.5794000029563904,0.0,0.0,0.0,0
379149372,-0.0852305069565773,-0.0209983941167593,-23.505882263183594,0.0,0.0,0.0,0.0,0.0,0.0,0.5794000029563904,0.0,0.0,0.0,0
379159323,-0.08575312048196793,-0.02114570513367653,-23.494647979736328,0.0,0.0,0.0,0.0,0.0,0.0,0.5794000029563904,0.0,0.0,0.0,0
379169421,-0.0873720720410347,-0.020784718915820122,-23.487476348876953,0.0,0.0,0.0,0.0,0.0,0.0,0.5794000029563904,0.0,0.0,0.0,0
379179705,-0.08655495196580887,-0.023547371849417686,-23.49141502380371,0.0,0.0,0.0,0.0,0.0,0.0,0.5794000029563904,0.0,0.0,0.0,0
379189569,-0.07901642471551895,-0.025224383920431137,-23.50295639038086,0.0,0.0,0.0,0.0,0.0,0.0,0.5794000029563904,0.0,0.0,0.0,0
379199336,-0.08234460651874542,-0.019501764327287674,-23.50823974609375,0.0,0.0,0.0,0.0,0.0,0.0,0.5794000029563904,0.0,0.0,0.0,0
379209387,-0.08222207427024841,-0.016571953892707825,-23.501827239990234,0.0,0.0,0.0,0.0,0.0,0.0,0.5794000029563904,0.0,0.0,0.0,0
379219396,-0.08371633291244507,-0.020794721320271492,-23.49922752380371,0.0,0.0,0.0,0.0,0.0,0.0,0.5794000029563904,0.0,0.0,0.0,0
379229334,-0.0856543630361557,-0.02668563835322857,-23.496417999267578,0.0,0.0,0.0,0.0,0.0,0.0,0.5794000029563904,0.0,0.0,0.0,0
379239813,-0.08676774799823761,-0.021967750042676926,-23.495512008666992,0.0,0.0,0.0,0.0,0.0,0.0,0.5794000029563904,0.0,0.0,0.0,0
379249313,-0.08616199344396591,-0.018168877810239792,-23.496736526489258,0.0,0.0,0.0,0.0,0.0,0.0,0.5794000029563904,0.0,0.0,0.0,0
379259372,-0.0839521586894989,-0.022149935364723206,-23.495332717895508,0.0,0.0,0.0,0.0,0.0,0.0,0.5794000029563904,0.0,0.0,0.0,0
379269371,-0.08500353991985321,-0.018353063613176346,-23.493711471557617,0.0,0.0,0.0,0.0,0.0,0.0,0.5794000029563904,0.0,0.0,0.0,0
379279325,-0.0820658728480339,-0.01698847860097885,-23.492074966430664,0.0,0.0,0.0,0.0,0.0,0.0,0.5794000029563904,0.0,0.0,0.0,0
379289897,-0.08569906651973724,-0.015272275544703007,-23.492429733276367,0.0,0.0,0.0,0.0,0.0,0.0,0.5794000029563904,0.0,0.0,0.0,0
379299428,-0.08133338391780853,-0.01796385645866394,-23.499406814575195,0.0,0.0,0.0,0.0,0.0,0.0,0.5794000029563904,0.0,0.0,0.0,0
379309391,-0.07923228293657303,-0.020994944497942924,-23.500553131103516,0.0,0.0,0.0,0.0,0.0,0.0,0.5794000029563904,0.0,0.0,0.0,0
379319331,-0.08834771811962128,-0.0229449775069952,-23.49808692932129,0.0,0.0,0.0,0.0,0.0,0.0,0.5794000029563904,0.0,0.0,0.0,0
379329554,-0.09034562110900879,-0.02221359871327877,-23.501482009887695,0.0,0.0,0.0,0.0,0.0,0.0,0.5794000029563904,0.0,0.0,0.0,0
379340061,-0.08363667875528336,-0.021755600348114967,-23.49688720703125,0.0,0.0,0.0,0.0,0.0,0.0,0.5794000029563904,0.0,0.0,0.0,0
379349390,-0.08151722699403763,-0.025686677545309067,-23.495901107788086,0.0,0.0,0.0,0.0,0.0,0.0,0.5794000029563904,0.0,0.0,0.0,0
379359380,-0.07935447990894318,-0.02462565153837204,-23.496519088745117,0.0,0.0,0.0,0.0,0.0,0.0,0.5794000029563904,0.0,0.0,0.0,0
379369341,-0.08068127930164337,-0.018037164583802223,-23.50347137451172,0.0,0.0,0.0,0.0,0.0,0.0,0.5794000029563904,0.0,0.0,0.0,0
379379617,-0.08030347526073456,-0.014172052033245564,-23.50786018371582,0.0,0.0,0.0,0.0,0.0,0.0,0.5794000029563904,0.0,0.0,0.0,0
379389715,-0.082193523645401,-0.019243896007537842,-23.50475311279297,0.0,0.0,0.0,0.0,0.0,0.0,0.5794000029563904,0.0,0.0,0.0,0
379399433,-0.0779351070523262,-0.01883302442729473,-23.492399215698242,0.0,0.0,0.0,0.0,0.0,0.0,0.5794000029563904,0.0,0.0,0.0,0
379409300,-0.08136055618524551,-0.019955188035964966,-23.496736526489258,0.0,0.0,0.0,0.0,0.0,0.0,0.5794000029563904,0.0,0.0,0.0,0
379419400,-0.08471211045980453,-0.018130550161004066,-23.496488571166992,0.0,0.0,0.0,0.0,0.0,0.0,0.5794000029563904,0.0,0.0,0.0,0
379429550,-0.08405737578868866,-0.014716199599206448,-23.500553131103516,0.0,0.0,0.0,0.0,0.0,0.0,0.5794000029563904,0.0,0.0,0.0,0
379439604,-0.08593551069498062,-0.019106421619653702,-23.50630760192871,0.0,0.0,0.0,0.0,0.0,0.0,0.5794000029563904,0.0,0.0,0.0,0
379449375,-0.08582418411970139,-0.021281855180859566,-23.50701141357422,0.0,0.0,0.0,0.0,0.0,0.0,0.5794000029563904,0.0,0.0,0.0,0
379459461,-0.08222095668315887,-0.02127375639975071,-23.50006675720215,0.0,0.0,0.0,0.0,0.0,0.0,0.5794000029563904,0.0,0.0,0.0,0
379469280,-0.08541778475046158,-0.015659037977457047,-23.49567222595215,0.0,0.0,0.0,0.0,0.0,0.0,0.5794000029563904,0.0,0.0,0.0,0
379480078,-0.08746790140867233,-0.012901264242827892,-23.49308967590332,0.0,0.0,0.0,0.0,0.0,0.0,0.5794000029563904,0.0,0.0,0.0,0
379490016,-0.08812741935253143,-0.021233942359685898,-23.494884490966797,0.0,0.0,0.0,0.0,0.0,0.0,0.5794000029563904,0.0,0.0,0.0,0
379499315,-0.08564232289791107,-0.024674421176314354,-23.496545791625977,0.0,0.0,0.0,0.0,0.0,0.0,0.5794000029563904,0.0,0.0,0.0,0
379509374,-0.08616452664136887,-0.018129101023077965,-23.497859954833984,0.0,0.0,0.0,0.0,0.0,0.0,0.5794000029563904,0.0,0.0,0.0,0
379519309,-0.08437944948673248,-0.01787256821990013,-23.50177764892578,0.0,0.0,0.0,0.0,0.0,0.0,0.5794000029563904,0.0,0.0,0.0,0
379529564,-0.08050799369812012,-0.021197987720370293,-23.494081497192383,0.0,0.0,0.0,0.0,0.0,0.0,0.5794000029563904,0.0,0.0,0.0,0
379540098,-0.0918540507555008,-0.02016582526266575,-23.488340377807617,0.0,0.0,0.0,0.0,0.0,0.0,0.5794000029563904,0.0,0.0,0.0,0
379549414,-0.049860499799251556,-0.019604278728365898,-23.4928035736084,0.0,0.0,0.0,0.0,0.0,0.0,0.5794000029563904,0.0,0.0,0.0,0
379559396,-0.11556274443864822,-0.00854237750172615,-23.488422393798828,0.0,0.0,0.0,0.0,0.0,0.0,0.5794000029563904,0.0,0.0,0.0,0
379569296,-0.07620882987976074,0.003917959053069353,-23.550018310546875,0.0,0.0,0.0,0.0,0.0,0.0,0.5794000029563904,0.0,0.0,0.0,0
379579708,-0.06641197949647903,-0.16196826100349426,-23.483064651489258,0.0,0.0,0.0,0.0,0.0,0.0,0.5794000029563904,0.0,0.0,0.0,0
379589627,-0.0854644849896431,0.14230257272720337,-23.490888595581055,0.0,0.0,0.0,0.0,0.0,0.0,0.5794000029563904,0.0,0.0,0.0,0
379599359,-0.08793088793754578,-0.0673607662320137,-23.54311752319336,0.0,0.0,0.0,0.0,0.0,0.0,0.5794000029563904,0.0,0.0,0.0,0
379609401,-0.10601332783699036,-0.06758838891983032,-23.467613220214844,0.0,0.0,0.0,0.0,0.0,0.0,0.5794000029563904,0.0,0.0,0.0,0
379619326,-0.09437225759029388,0.09172984212636948,-23.509662628173828,0.0,0.0,0.0,0.0,0.0,0.0,0.5794000029563904,0.0,0.0,0.0,0
379629685,-0.10228495299816132,-0.2693786025047302,-23.531768798828125,0.0,0.0,0.0,0.0,0.0,0.0,0.5794000029563904,0.0,0.0,0.0,0
379639557,-0.05314495414495468,0.20038475096225739,-23.456466674804688,0.0,0.0,0.0,0.0,0.0,0.0,0.5794000029563904,0.0,0.0,0.0,0
379649394,-0.07020270824432373,-0.0625104010105133,-23.505189895629883,0.0,0.0,0.0,0.0,0.0,0.0,0.5794000029563904,0.0,0.0,0.0,0
379659340,-0.06895910948514938,-0.04999549686908722,-23.49834442138672,0.0,0.0,0.0,0.0,0.0,0.0,0.5794000029563904,0.0,0.0,0.0,0
379669407,-0.07005960494279861,0.0013376965653151274,-23.470483779907227,0.0,0.0,0.0,0.0,0.0,0.0,0.5794000029563904,0.0,0.0,0.0,0
379680031,-0.08839963376522064,-0.109437957406044,-23.512039184570312,0.0,0.0,0.0,0.0,0.0,0.0,0.5794000029563904,0.0,0.0,0.0,0
379689929,-0.08220092952251434,0.03711487725377083,-23.506528854370117,0.0,0.0,0.0,0.0,0.0,0.0,0.5794000029563904,0.0,0.0,0.0,0
379699441,-0.11689963936805725,0.07062641531229019,-23.484878540039062,0.0,0.0,0.0,0.0,0.0,0.0,0.5794000029563904,0.0,0.0,0.0,0
379709391,-0.10726863145828247,-0.0732058733701706,-23.508455276489258,0.0,0.0,0.0,0.0,0.0,0.0,0.5794000029563904,0.0,0.0,0.0,0
379719332,-0.08952488750219345,-0.1018148735165596,-23.493938446044922,0.0,0.0,0.0,0.0,0.0,0.0,0.5794000029563904,0.0,0.0,0.0,0
379729533,-0.05972135812044144,0.027505245059728622,-23.481054306030273,0.0,0.0,0.0,0.0,0.0,0.0,0.5794000029563904,0.0,0.0,0.0,0
379740105,-0.06585664302110672,-0.03937661275267601,-23.515363693237305,0.0,0.0,0.0,0.0,0.0,0.0,0.5794000029563904,0.0,0.0,0.0,0
379749291,-0.073088139295578,0.11253051459789276,-23.50259780883789,0.0,0.0,0.0,0.0,0.0,0.0,0.5794000029563904,0.0,0.0,0.0,0
379759350,-0.09221702069044113,-0.11690355092287064,-23.49483299255371,0.0,0.0,0.0,0.0,0.0,0.0,0.5794000029563904,0.0,0.0,0.0,0
379769395,-0.11676400899887085,-0.12204121053218842,-23.507686614990234,0.0,0.0,0.0,0.0,0.0,0.0,0.5794000029563904,0.0,0.0,0.0,0
379779622,-0.08627834916114807,0.04735967516899109,-23.49230194091797,0.0,0.0,0.0,0.0,0.0,0.0,0.5794000029563904,0.0,0.0,0.0,0
379789606,-0.08197920769453049,-0.016168078407645226,-23.489177703857422,0.0,0.0,0.0,0.0,0.0,0.0,0.5794000029563904,0.0,0.0,0.0,0
379799420,-0.07347861677408218,0.048090506345033646,-23.501583099365234,0.0,0.0,0.0,0.0,0.0,0.0,0.5794000029563904,0.0,0.0,0.0,0
379809305,-0.07351759821176529,-0.0763489156961441,-23.49581527709961,0.0,0.0,0.0,0.0,0.0,0.0,0.5794000029563904,0.0,0.0,0.0,0
379819376,-0.07320825755596161,-0.0699482336640358,-23.476951599121094,0.0,0.0,0.0,0.0,0.0,0.0,0.5794000029563904,0.0,0.0,0.0,0
379829595,-0.08880040049552917,0.030556676909327507,-23.496503829956055,0.0,0.0,0.0,0.0,0.0,0.0,0.5794000029563904,0.0,0.0,0.0,0
379839676,-0.09136675298213959,0.02739846520125866,-23.48638916015625,0.0,0.0,0.0,0.0,0.0,0.0,0.5794000029563904,0.0,0.0,0.0,0
379849399,-0.09196314215660095,-0.0636935755610466,-23.49629783630371,0.0,0.0,0.0,0.0,0.0,0.0,0.5794000029563904,0.0,0.0,0.0,0
379859374,-0.0874173641204834,-0.042658738791942596,-23.510009765625,0.0,0.0,0.0,0.0,0.0,0.0,0.5794000029563904,0.0,0.0,0.0,0
379869329,-0.08197993040084839,-0.0465133860707283,-23.488832473754883,0.0,0.0,0.0,0.0,0.0,0.0,0.5794000029563904,0.0,0.0,0.0,0
379880074,-0.0899737998843193,0.023199986666440964,-23.498470306396484,0.0,0.0,0.0,0.0,0.0,0.0,0.5794000029563904,0.0,0.0,0.0,0
379889933,-0.07919629663228989,0.03957393392920494,-23.50693130493164,0.0,0.0,0.0,0.0,0.0,0.0,0.5794000029563904,0.0,0.0,0.0,0
379899353,-0.07678110152482986,-0.11242791265249252,-23.487342834472656,0.0,0.0,0.0,0.0,0.0,0.0,0.5794000029563904,0.0,0.0,0.0,0
379909301,-0.06800616532564163,-0.026102282106876373,-23.5002498626709,0.0,0.0,0.0,0.0,0.0,0.0,0.5794000029563904,0.0,0.0,0.0,0
379919313,-0.08243642002344131,-0.02458331361413002,-23.4974365234375,0.0,0.0,0.0,0.0,0.0,0.0,0.5794000029563904,0.0,0.0,0.0,0
379929572,-0.08154071122407913,0.02090136893093586,-23.48675537109375,0.0,0.0,0.0,0.0,0.0,0.0,0.5794000029563904,0.0,0.0,0.0,0
379940110,-0.10325968265533447,-0.001338966190814972,-23.498172760009766,0.0,0.0,0.0,0.0,0.0,0.0,0.5794000029563904,0.0,0.0,0.0,0
379949303,-0.10119176656007767,-0.07818423956632614,-23.498971939086914,0.0,0.0,0.0,0.0,0.0,0.0,0.5794000029563904,0.0,0.0,0.0,0
379959350,-0.08766277879476547,-0.04779019579291344,-23.48659896850586,0.0,0.0,0.0,0.0,0.0,0.0,0.5794000029563904,0.0,0.0,0.0,0
379969391,-0.06251891702413559,-0.005341466050595045,-23.504566192626953,0.0,0.0,0.0,0.0,0.0,0.0,0.5794000029563904,0.0,0.0,0.0,0
379979683,-0.05150826647877693,0.00040050872485153377,-23.488330841064453,0.0,0.0,0.0,0.0,0.0,0.0,0.5794000029563904,0.0,0.0,0.0,0
379989670,-0.07943098992109299,-0.021803798153996468,-23.489145278930664,0.0,0.0,0.0,0.0,0.0,0.0,0.5794000029563904,0.0,0.0,0.0,0
379999431,-0.10511185228824615,-0.030329875648021698,-23.515289306640625,0.0,0.0,0.0,0.0,0.0,0.0,0.5794000029563904,0.0,0.0,0.0,0
380009303,-0.10560836642980576,-0.049244094640016556,-23.489999771118164,0.0,0.0,0.0,0.0,0.0,0.0,0.5794000029563904,0.0,0.0,0.0,0
380019399,-0.08741997927427292,0.00043222602107562125,-23.483572006225586,0.0,0.0,0.0,0.0,0.0,0.0,0.5794000029563904,0.0,0.0,0.0,0
380029697,-0.07177704572677612,-0.04129752889275551,-23.496849060058594,0.0,0.0,0.0,0.0,0.0,0.0,0.5794000029563904,0.0,0.0,0.0,0
380039652,-0.06038163974881172,-0.01572355255484581,-23.484111785888672,0.0,0.0,0.0,0.0,0.0,0.0,0.5794000029563904,0.0,0.0,0.0,0
380049324,-0.0860418826341629,0.002400774974375963,-23.498661041259766,0.0,0.0,0.0,0.0,0.0,0.0,0.5794000029563904,0.0,0.0,0.0,0
380059318,-0.09697531908750534,-0.02893793024122715,-23.509017944335938,0.0,0.0,0.0,0.0,0.0,0.0,0.5794000029563904,0.0,0.0,0.0,0
380069305,-0.08756811916828156,-0.02050597220659256,-23.482311248779297,0.0,0.0,0.0,0.0,0.0,0.0,0.5794000029563904,0.0,0.0,0.0,0
380080004,-0.07940029352903366,-0.0604841485619545,-23.49372673034668,0.0,0.0,0.0,0.0,0.0,0.0,0.5794000029563904,0.0,0.0,0.0,0
380089918,-0.07473967969417572,-0.008646351285278797,-23.50507926940918,0.0,0.0,0.0,0.0,0.0,0.0,0.5794000029563904,0.0,0.0,0.0,0
380099324,-0.09514965116977692,0.0221259668469429,-23.49317741394043,0.0,0.0,0.0,0.0,0.0,0.0,0.5794000029563904,0.0,0.0,0.0,0
380109324,-0.10579386353492737,-0.01698814518749714,-23.509401321411133,0.0,0.0,0.0,0.0,0.0,0.0,0.5794000029563904,0.0,0.0,0.0,0
380119356,-0.08530654013156891,-0.05989920720458031,-23.49421501159668,0.0,0.0,0.0,0.0,0.0,0.0,0.5794000029563904,0.0,0.0,0.0,0
380129533,-0.0535128191113472,-0.055240899324417114,-23.473756790161133,0.0,0.0,0.0,0.0,0.0,0.0,0.5794000029563904,0.0,0.0,0.0,0
380140000,-0.061216339468955994,-0.003764771157875657,-23.49471092224121,0.0,0.0,0.0,0.0,0.0,0.0,0.5794000029563904,0.0,0.0,0.0,0
380149299,-0.08640659600496292,0.0447285920381546,-23.49286651611328,0.0,0.0,0.0,0.0,0.0,0.0,0.5794000029563904,0.0,0.0,0.0,0
380159383,-0.11120665073394775,-0.021848205476999283,-23.49693489074707,0.0,0.0,0.0,0.0,0.0,0.0,0.5794000029563904,0.0,0.0,0.0,0
380169328,-0.10298960655927658,-0.07716807723045349,-23.504104614257812,0.0,0.0,0.0,0.0,0.0,0.0,0.5794000029563904,0.0,0.0,0.0,0
380179627,-0.06853074580430984,-0.041690219193696976,-23.485111236572266,0.0,0.0,0.0,0.0,0.0,0.0,0.5794000029563904,0.0,0.0,0.0,0
380189596,-0.061765510588884354,-0.00129681674297899,-23.48185920715332,0.0,0.0,0.0,0.0,0.0,0.0,0.5794000029563904,0.0,0.0,0.0,0
380199346,-0.07181208580732346,0.04739963263273239,-23.491619110107422,0.0,0.0,0.0,0.0,0.0,0.0,0.5794000029563904,0.0,0.0,0.0,0
380209405,-0.090745709836483,-0.03743835538625717,-23.48712921142578,0.0,0.0,0.0,0.0,0.0,0.0,0.5794000029563904,0.0,0.0,0.0,0
380219301,-0.09453020244836807,-0.09214189648628235,-23.50475311279297,0.0,0.0,0.0,0.0,0.0,0.0,0.5794000029563904,0.0,0.0,0.0,0
380229693,-0.08072984963655472,-0.040508877485990524,-23.50052833557129,0.0,0.0,0.0,0.0,0.0,0.0,0.5794000029563904,0.0,0.0,0.0,0
380239684,-0.06985432654619217,0.006706733722239733,-23.481555938720703,0.0,0.0,0.0,0.0,0.0,0.0,0.5794000029563904,0.0,0.0,0.0,0
380249389,-0.08070939034223557,0.031086241826415062,-23.489831924438477,0.0,0.0,0.0,0.0,0.0,0.0,0.5794000029563904,0.0,0.0,0.0,0
380259336,-0.09414512664079666,-0.0326276533305645,-23.49295997619629,0.0,0.0,0.0,0.0,0.0,0.0,0.5794000029563904,0.0,0.0,0.0,0
380269310,-0.09151457995176315,-0.08889763057231903,-23.49431037902832,0.0,0.0,0.0,0.0,0.0,0.0,0.5794000029563904,0.0,0.0,0.0,0
380280084,-0.07620254904031754,-0.03048238344490528,-23.494895935058594,0.0,0.0,0.0,0.0,0.0,0.0,0.5794000029563904,0.0,0.0,0.0,0
380289930,-0.06356266885995865,0.02138558402657509,-23.485557556152344,0.0,0.0,0.0,0.0,0.0,0.0,0.5794000029563904,0.0,0.0,0.0,0
380299441,-0.07871759682893753,0.014065156690776348,-23.470733642578125,0.0,0.0,0.0,0.0,0.0,0.0,0.5794000029563904,0.0,0.0,0.0,0
380309396,-0.10024534910917282,-0.033100347965955734,-23.488285064697266,0.0,0.0,0.0,0.0,0.0,0.0,0.5794000029563904,0.0,0.0,0.0,0
380319357,-0.10264822095632553,-0.08024047315120697,-23.488874435424805,0.0,0.0,0.0,0.0,0.0,0.0,0.5794000029563904,0.0,0.0,0.0,0
380329574,-0.08534765988588333,-0.01661531627178192,-23.48223876953125,0.0,0.0,0.0,0.0,0.0,0.0,0.5794000029563904,0.0,0.0,0.0,0
380340035,-0.0553080290555954,0.02424989826977253,-23.484052658081055,0.0,0.0,0.0,0.0,0.0,0.0,0.5794000029563904,0.0,0.0,0.0,0
380349302,-0.056568048894405365,0.005858919117599726,-23.482769012451172,0.0,0.0,0.0,0.0,0.0,0.0,0.5794000029563904,0.0,0.0,0.0,0
380359409,-0.07988292723894119,-0.030290082097053528,-23.494966506958008,0.0,0.0,0.0,0.0,0.0,0.0,0.5794000029563904,0.0,0.0,0.0,0
380369414,-0.09700963646173477,-0.07500002533197403,-23.496112823486328,0.0,0.0,0.0,0.0,0.0,0.0,0.5794000029563904,0.0,0.0,0.0,0
380379650,-0.08954482525587082,-0.024723704904317856,-23.48147201538086,0.0,0.0,0.0,0.0,0.0,0.0,0.5794000029563904,0.0,0.0,0.0,0
380389651,-0.07419300079345703,0.01076460164040327,-23.482704162597656,0.0,0.0,0.0,0.0,0.0,0.0,0.5794000029563904,0.0,0.0,0.0,0
380399357,-0.0736318901181221,-0.00206408416852355,-23.48408317565918,0.0,0.0,0.0,0.0,0.0,0.0,0.5794000029563904,0.0,0.0,0.0,0
380409301,-0.08428088575601578,-0.02973651885986328,-23.488101959228516,0.0,0.0,0.0,0.0,0.0,0.0,0.5794000029563904,0.0,0.0,0.0,0
380419339,-0.09526406973600388,-0.056692659854888916,-23.4992733001709,0.0,0.0,0.0,0.0,0.0,0.0,0.5794000029563904,0.0,0.0,0.0,0
380429567,-0.08419258147478104,-0.03788295015692711,-23.48297691345215,0.0,0.0,0.0,0.0,0.0,0.0,0.5794000029563904,0.0,0.0,0.0,0
380439717,-0.06353837996721268,-0.005132288206368685,-23.480607986450195,0.0,0.0,0.0,0.0,0.0,0.0,0.5794000029563904,0.0,0.0,0.0,0
380449394,-0.05966699868440628,-0.006765970028936863,-23.486177444458008,0.0,0.0,0.0,0.0,0.0,0.0,0.5794000029563904,0.0,0.0,0.0,0
380459315,-0.08360860496759415,-0.028356974944472313,-23.48917007446289,0.0,0.0,0.0,0.0,0.0,0.0,0.5794000029563904,0.0,0.0,0.0,0
380469391,-0.10288387537002563,-0.04640894755721092,-23.499372482299805,0.0,0.0,0.0,0.0,0.0,0.0,0.5794000029563904,0.0,0.0,0.0,0
380480035,-0.0966823473572731,-0.04864644631743431,-23.496078491210938,0.0,0.0,0.0,0.0,0.0,0.0,0.5794000029563904,0.0,0.0,0.0,0
380489947,-0.06992687284946442,-0.011970983818173409,-23.48185157775879,0.0,0.0,0.0,0.0,0.0,0.0,0.5794000029563904,0.0,0.0,0.0,0
380499324,-0.06407219171524048,-0.000783553987275809,-23.484067916870117,0.0,0.0,0.0,0.0,0.0,0.0,0.5794000029563904,0.0,0.0,0.0,0
380509370,-0.07519236952066422,-0.009745527058839798,-23.49290657043457,0.0,0.0,0.0,0.0,0.0,0.0,0.5794000029563904,0.0,0.0,0.0,0
380519397,-0.08945859968662262,-0.042011961340904236,-23.496532440185547,0.0,0.0,0.0,0.0,0.0,0.0,0.5794000029563904,0.0,0.0,0.0,0
380529564,-0.08839584141969681,-0.04756705090403557,-23.49481201171875,0.0,0.0,0.0,0.0,0.0,0.0,0.5794000029563904,0.0,0.0,0.0,0
380540020,-0.07676949352025986,-0.014996636658906937,-23.488697052001953,0.0,0.0,0.0,0.0,0.0,0.0,0.5794000029563904,0.0,0.0,0.0,0
380549404,-0.07112865149974823,0.008602282963693142,-23.47786521911621,0.0,0.0,0.0,0.0,0.0,0.0,0.5794000029563904,0.0,0.0,0.0,0
380559415,-0.07741052657365799,-0.0029119979590177536,-23.48716163635254,0.0,0.0,0.0,0.0,0.0,0.0,0.5794000029563904,0.0,0.0,0.0,0
380569387,-0.09341554343700409,-0.04856150224804878,-23.49541664123535,0.0,0.0,0.0,0.0,0.0,0.0,0.5794000029563904,0.0,0.0,0.0,0
380579600,-0.09689044207334518,-0.05074140802025795,-23.497167587280273,0.0,0.0,0.0,0.0,0.0,0.0,0.5794000029563904,0.0,0.0,0.0,0
380589638,-0.08865069597959518,-0.01416874025017023,-23.432619094848633,0.0,0.0,0.0,0.0,0.0,0.0,0.5794000029563904,0.0,0.0,0.0,0
380599383,-0.07734128087759018,0.012823820114135742,-23.41516876220703,0.0,0.0,0.0,0.0,0.0,0.0,0.5794000029563904,0.0,0.0,0.0,0
380609266,-0.07990241050720215,-0.0042489515617489815,-23.397621154785156,0.0,0.0,0.0,0.0,0.0,0.0,0.5794000029563904,0.0,0.0,0.0,0
380619331,-0.09475953876972198,-0.05923736095428467,-23.416025161743164,0.0,0.0,0.0,0.0,0.0,0.0,0.5794000029563904,0.0,0.0,0.0,0
380629632,-0.0942724421620369,-0.05452714115381241,-23.416723251342773,0.0,0.0,0.0,0.0,0.0,0.0,0.5794000029563904,0.0,0.0,0.0,0
380639641,-0.08552265912294388,-0.007583063095808029,-23.421558380126953,0.0,0.0,0.0,0.0,0.0,0.0,0.5794000029563904,0.0,0.0,0.0,0
380649421,-0.07637541741132736,0.01815796084702015,-23.417770385742188,0.0,0.0,0.0,0.0,0.0,0.0,0.5794000029563904,0.0,0.0,0.0,0
380659345,-0.06421561539173126,0.002021133666858077,-23.406166076660156,0.0,0.0,0.0,0.0,0.0,0.0,0.5794000029563904,0.0,0.0,0.0,0
380669300,-0.07530661672353745,-0.06368870288133621,-23.41472816467285,0.0,0.0,0.0,0.0,0.0,0.0,0.5794000029563904,0.0,0.0,0.0,0
380679957,-0.09846826642751694,-0.05806102603673935,-23.412500381469727,0.0,0.0,0.0,0.0,0.0,0.0,0.5794000029563904,0.0,0.0,0.0,0
380689948,-0.09267525374889374,-0.009210926480591297,-23.438199996948242,0.0,0.0,0.0,0.0,0.0,0.0,0.5794000029563904,0.0,0.0,0.0,0
380699323,-0.0878790095448494,0.021881461143493652,-23.416915893554688,0.0,0.0,0.0,0.0,0.0,0.0,0.5794000029563904,0.0,0.0,0.0,0
380709338,-0.06618345528841019,-0.009467221796512604,-23.413984298706055,0.0,0.0,0.0,0.0,0.0,0.0,0.5794000029563904,0.0,0.0,0.0,0
380719336,-0.07175145298242569,-0.07301082462072372,-23.408279418945312,0.0,0.0,0.0,0.0,0.0,0.0,0.5794000029563904,0.0,0.0,0.0,0
380729541,-0.08411669731140137,-0.054074838757514954,-23.393125534057617,0.0,0.0,0.0,0.0,0.0,0.0,0.5794000029563904,0.0,0.0,0.0,0
380740003,-0.09334320574998856,0.01275753416121006,-23.424428939819336,0.0,0.0,0.0,0.0,0.0,0.0,0.5794000029563904,0.0,0.0,0.0,0
380749341,-0.0865241140127182,0.0321451760828495,-23.38558578491211,0.0,0.0,0.0,0.0,0.0,0.0,0.5794000029563904,0.0,0.0,0.0,0
380759379,-0.06985245645046234,-0.029750818386673927,-23.409576416015625,0.0,0.0,0.0,0.0,0.0,0.0,0.5794000029563904,0.0,0.0,0.0,0
380769296,-0.07224603742361069,-0.08799796551465988,-23.404935836791992,0.0,0.0,0.0,0.0,0.0,0.0,0.5794000029563904,0.0,0.0,0.0,0
380779568,-0.08070503920316696,-0.04859265685081482,-23.402408599853516,0.0,0.0,0.0,0.0,0.0,0.0,0.5794000029563904,0.0,0.0,0.0,0
380789666,-0.09774371236562729,0.0389975942671299,-23.41402244567871,0.0,0.0,0.0,0.0,0.0,0.0,0.5794000029563904,0.0,0.0,0.0,0
380799363,-0.08831929415464401,0.036679770797491074,-23.390335083007812,0.0,0.0,0.0,0.0,0.0,0.0,0.5794000029563904,0.0,0.0,0.0,0
380809381,-0.06853044778108597,-0.055007558315992355,-23.420305252075195,0.0,0.0,0.0,0.0,0.0,0.0,0.5794000029563904,0.0,0.0,0.0,0
380819312,-0.07472553849220276,-0.09952044486999512,-23.382789611816406,0.0,0.0,0.0,0.0,0.0,0.0,0.5794000029563904,0.0,0.0,0.0,0
380829591,-0.087681345641613,-0.017983397468924522,-23.419754028320312,0.0,0.0,0.0,0.0,0.0,0.0,0.5794000029563904,0.0,0.0,0.0,0
380839541,-0.09923555701971054,0.065266914665699,-23.4100399017334,0.0,0.0,0.0,0.0,0.0,0.0,0.5794000029563904,0.0,0.0,0.0,0
380849409,-0.0898941233754158,0.028335899114608765,-23.37649154663086,0.0,0.0,0.0,0.0,0.0,0.0,0.5794000029563904,0.0,0.0,0.0,0
380859333,-0.06440657377243042,-0.1007995679974556,-23.40327262878418,0.0,0.0,0.0,0.0,0.0,0.0,0.5794000029563904,0.0,0.0,0.0,0
380869306,-0.05942586436867714,-0.10404282063245773,-23.37464714050293,0.0,0.0,0.0,0.0,0.0,0.0,0.5794000029563904,0.0,0.0,0.0,0
380880070,-0.07998203486204147,0.02741851843893528,-23.41187858581543,0.0,0.0,0.0,0.0,0.0,0.0,0.5794000029563904,0.0,0.0,0.0,0
380889958,-0.09547531604766846,0.09097549319267273,-23.403873443603516,0.0,0.0,0.0,0.0,0.0,0.0,0.5794000029563904,0.0,0.0,0.0,0
380899391,-0.09433817118406296,-0.00722791813313961,-23.397239685058594,0.0,0.0,0.0,0.0,0.0,0.0,0.5794000029563904,0.0,0.0,0.0,0
380909373,-0.07696244865655899,-0.1540929526090622,-23.37845230102539,0.0,0.0,0.0,0.0,0.0,0.0,0.5794000029563904,0.0,0.0,0.0,0
380919415,-0.06908514350652695,-0.10027733445167542,-23.3649845123291,0.0,0.0,0.0,0.0,0.0,0.0,0.5794000029563904,0.0,0.0,0.0,0
380929650,-0.07846710085868835,0.08073950558900833,-23.39592170715332,0.0,0.0,0.0,0.0,0.0,0.0,0.5794000029563904,0.0,0.0,0.0,0
380940079,-0.0825326144695282,0.09928060322999954,-23.396202087402344,0.0,0.0,0.0,0.0,0.0,0.0,0.5794000029563904,0.0,0.0,0.0,0
380949310,-0.07843855023384094,-0.05104760080575943,-23.418636322021484,0.0,0.0,0.0,0.0,0.0,0.0,0.5794000029563904,0.0,0.0,0.0,0
380959360,-0.07377833127975464,-0.18367405235767365,-23.36682891845703,0.0,0.0,0.0,0.0,0.0,0.0,0.5794000029563904,0.0,0.0,0.0,0
380969314,-0.07244337350130081,-0.05705345422029495,-23.3670711517334,0.0,0.0,0.0,0.0,0.0,0.0,0.5794000029563904,0.0,0.0,0.0,0
380979628,-0.08864635229110718,0.13075555860996246,-23.372589111328125,0.0,0.0,0.0,0.0,0.0,0.0,0.5794000029563904,0.0,0.0,0.0,0
380989599,-0.0879775732755661,0.06518665701150894,-23.38144874572754,0.0,0.0,0.0,0.0,0.0,0.0,0.5794000029563904,0.0,0.0,0.0,0
380999443,-0.07947380840778351,-0.11555834114551544,-23.425243377685547,0.0,0.0,0.0,0.0,0.0,0.0,0.5794000029563904,0.0,0.0,0.0,0
381009360,-0.0807676836848259,-0.19255083799362183,-23.35972023010254,0.0,0.0,0.0,0.0,0.0,0.0,0.5794000029563904,0.0,0.0,0.0,0
381019333,-0.0789395347237587,0.003646127413958311,-23.393583297729492,0.0,0.0,0.0,0.0,0.0,0.0,0.5794000029563904,0.0,0.0,0.0,0
381029656,-0.08226040750741959,0.1516183763742447,-23.346206665039062,0.0,0.0,0.0,0.0,0.0,0.0,0.5794000029563904,0.0,0.0,0.0,0
381039625,-0.0840589702129364,0.03292802721261978,-23.370506286621094,0.0,0.0,0.0,0.0,0.0,0.0,0.5794000029563904,0.0,0.0,0.0,0
381049330,-0.08174905180931091,-0.17249074578285217,-23.391294479370117,0.0,0.0,0.0,0.0,0.0,0.0,0.5794000029563904,0.0,0.0,0.0,0
381059307,-0.08355739712715149,-0.1418360322713852,-23.375186920166016,0.0,0.0,0.0,0.0,0.0,0.0,0.5794000029563904,0.0,0.0,0.0,0
381069307,-0.08383824676275253,0.07494619488716125,-23.413862228393555,0.0,0.0,0.0,0.0,0.0,0.0,0.5794000029563904,0.0,0.0,0.0,0
381080062,-0.06967847049236298,0.13746434450149536,-23.36294174194336,0.0,0.0,0.0,0.0,0.0,0.0,0.5794000029563904,0.0,0.0,0.0,0
381089937,-0.07171843200922012,-0.0222014207392931,-23.382661819458008,0.0,0.0,0.0,0.0,0.0,0.0,0.5794000029563904,0.0,0.0,0.0,0
381099394,-0.09225316345691681,-0.21168100833892822,-23.3702392578125,0.0,0.0,0.0,0.0,0.0,0.0,0.5794000029563904,0.0,0.0,0.0,0
381109320,-0.09071960300207138,-0.06873989850282669,-23.369474411010742,0.0,0.0,0.0,0.0,0.0,0.0,0.5794000029563904,0.0,0.0,0.0,0
381119307,-0.08339788019657135,0.11667998135089874,-23.39044761657715,0.0,0.0,0.0,0.0,0.0,0.0,0.5794000029563904,0.0,0.0,0.0,0
381129547,-0.07000558823347092,0.09045428782701492,-23.358213424682617,0.0,0.0,0.0,0.0,0.0,0.0,0.5794000029563904,0.0,0.0,0.0,0
381140048,-0.06948387622833252,-0.09294741600751877,-23.39183235168457,0.0,0.0,0.0,0.0,0.0,0.0,0.5794000029563904,0.0,0.0,0.0,0
381149365,-0.09372016042470932,-0.20398591458797455,-23.3502140045166,0.0,0.0,0.0,0.0,0.0,0.0,0.5794000029563904,0.0,0.0,0.0,0
381159373,-0.10718777030706406,0.01478163804858923,-23.41061782836914,0.0,0.0,0.0,0.0,0.0,0.0,0.5794000029563904,0.0,0.0,0.0,0
381169336,-0.08430607616901398,0.13621024787425995,-23.377552032470703,0.0,0.0,0.0,0.0,0.0,0.0,0.5794000029563904,0.0,0.0,0.0,0
381179613,-0.06732935458421707,0.038055580109357834,-23.38990020751953,0.0,0.0,0.0,0.0,0.0,0.0,0.5794000029563904,0.0,0.0,0.0,0
381189608,-0.07617193460464478,-0.1561281681060791,-23.382925033569336,0.0,0.0,0.0,0.0,0.0,0.0,0.5794000029563904,0.0,0.0,0.0,0
381199345,-0.09342921525239944,-0.1247895359992981,-23.372486114501953,0.0,0.0,0.0,0.0,0.0,0.0,0.5794000029563904,0.0,0.0,0.0,0
381209387,-0.09844356030225754,0.07662588357925415,-23.403003692626953,0.0,0.0,0.0,0.0,0.0,0.0,0.5794000029563904,0.0,0.0,0.0,0
381219314,-0.07981698215007782,0.10725152492523193,-23.355571746826172,0.0,0.0,0.0,0.0,0.0,0.0,0.5794000029563904,0.0,0.0,0.0,0
381229613,-0.05771231651306152,-0.06119425222277641,-23.39537811279297,0.0,0.0,0.0,0.0,0.0,0.0,0.5794000029563904,0.0,0.0,0.0,0
381239606,-0.07564935833215714,-0.18730205297470093,-23.357418060302734,0.0,0.0,0.0,0.0,0.0,0.0,0.5794000029563904,0.0,0.0,0.0,0
381249330,-0.1015215739607811,-0.013403144665062428,-23.39661979675293,0.0,0.0,0.0,0.0,0.0,0.0,0.5794000029563904,0.0,0.0,0.0,0
381259315,-0.09766446053981781,0.12653018534183502,-23.40448570251465,0.0,0.0,0.0,0.0,0.0,0.0,0.5794000029563904,0.0,0.0,0.0,0
381269287,-0.0693853572010994,0.05632563680410385,-23.367286682128906,0.0,0.0,0.0,0.0,0.0,0.0,0.5794000029563904,0.0,0.0,0.0,0
381280103,-0.05930960178375244,-0.14406423270702362,-23.38070297241211,0.0,0.0,0.0,0.0,0.0,0.0,0.5794000029563904,0.0,0.0,0.0,0
381289994,-0.07918500900268555,-0.1495518535375595,-23.350093841552734,0.0,0.0,0.0,0.0,0.0,0.0,0.5794000029563904,0.0,0.0,0.0,0
381299346,-0.10303787142038345,0.07868800312280655,-23.42093276977539,0.0,0.0,0.0,0.0,0.0,0.0,0.5794000029563904,0.0,0.0,0.0,0
381309291,-0.09771749377250671,0.12714797258377075,-23.375532150268555,0.0,0.0,0.0,0.0,0.0,0.0,0.5794000029563904,0.0,0.0,0.0,0
381319340,-0.06718764454126358,-0.032954972237348557,-23.3841609954834,0.0,0.0,0.0,0.0,0.0,0.0,0.5794000029563904,0.0,0.0,0.0,0
381329540,-0.07349331676959991,-0.20474621653556824,-23.326412200927734,0.0,0.0,0.0,0.0,0.0,0.0,0.5794000029563904,0.0,0.0,0.0,0
381339992,-0.09240018576383591,-0.0597311295568943,-23.350435256958008,0.0,0.0,0.0,0.0,0.0,0.0,0.5794000029563904,0.0,0.0,0.0,0
381349314,-0.10174286365509033,0.15423274040222168,-23.378395080566406,0.0,0.0,0.0,0.0,0.0,0.0,0.5794000029563904,0.0,0.0,0.0,0
381359321,-0.08605991303920746,0.0802464634180069,-23.368663787841797,0.0,0.0,0.0,0.0,0.0,0.0,0.5794000029563904,0.0,0.0,0.0,0
381369369,-0.06833583861589432,-0.13940511643886566,-23.39385986328125,0.0,0.0,0.0,0.0,0.0,0.0,0.5794000029563904,0.0,0.0,0.0,0
381379678,-0.07647153735160828,-0.19908976554870605,-23.34592056274414,0.0,0.0,0.0,0.0,0.0,0.0,0.5794000029563904,0.0,0.0,0.0,0
381389648,-0.09361241012811661,0.022738808766007423,-23.3957576751709,0.0,0.0,0.0,0.0,0.0,0.0,0.5794000029563904,0.0,0.0,0.0,0
381399352,-0.09989617764949799,0.1778666377067566,-23.342744827270508,0.0,0.0,0.0,0.0,0.0,0.0,0.5794000029563904,0.0,0.0,0.0,0
381409307,-0.07685484737157822,0.007769149728119373,-23.37399673461914,0.0,0.0,0.0,0.0,0.0,0.0,0.5794000029563904,0.0,0.0,0.0,0
381419313,-0.0696522444486618,-0.20424476265907288,-23.36731719970703,0.0,0.0,0.0,0.0,0.0,0.0,0.5794000029563904,0.0,0.0,0.0,0
381429565,-0.09141548722982407,-0.1415654420852661,-23.35668182373047,0.0,0.0,0.0,0.0,0.0,0.0,0.5794000029563904,0.0,0.0,0.0,0
381439635,-0.09019200503826141,0.11520718038082123,-23.421178817749023,0.0,0.0,0.0,0.0,0.0,0.0,0.5794000029563904,0.0,0.0,0.0,0
381449339,-0.07675458490848541,0.1470465213060379,-23.350542068481445,0.0,0.0,0.0,0.0,0.0,0.0,0.5794000029563904,0.0,0.0,0.0,0
381459338,-0.06534771621227264,-0.06826574355363846,-23.380800247192383,0.0,0.0,0.0,0.0,0.0,0.0,0.5794000029563904,0.0,0.0,0.0,0
381469338,-0.06845585256814957,-0.2190386950969696,-23.34198760986328,0.0,0.0,0.0,0.0,0.0,0.0,0.5794000029563904,0.0,0.0,0.0,0
381480061,-0.09174912422895432,-0.0678214579820633,-23.37444305419922,0.0,0.0,0.0,0.0,0.0,0.0,0.5794000029563904,0.0,0.0,0.0,0
381490028,-0.10267772525548935,0.15603655576705933,-23.38691520690918,0.0,0.0,0.0,0.0,0.0,0.0,0.5794000029563904,0.0,0.0,0.0,0
381499418,-0.08133497834205627,0.07798364758491516,-23.373411178588867,0.0,0.0,0.0,0.0,0.0,0.0,0.5794000029563904,0.0,0.0,0.0,0
381509325,-0.06930533051490784,-0.13141055405139923,-23.384666442871094,0.0,0.0,0.0,0.0,0.0,0.0,0.5794000029563904,0.0,0.0,0.0,0
381519305,-0.08918628841638565,-0.19928030669689178,-23.336698532104492,0.0,0.0,0.0,0.0,0.0,0.0,0.5794000029563904,0.0,0.0,0.0,0
381529581,-0.08800163865089417,0.035344839096069336,-23.408308029174805,0.0,0.0,0.0,0.0,0.0,0.0,0.5794000029563904,0.0,0.0,0.0,0
381540107,-0.08028490096330643,0.13931718468666077,-23.373043060302734,0.0,0.0,0.0,0.0,0.0,0.0,0.5794000029563904,0.0,0.0,0.0,0
381549392,-0.06782753765583038,-0.004487527534365654,-23.394756317138672,0.0,0.0,0.0,0.0,0.0,0.0,0.5794000029563904,0.0,0.0,0.0,0
381559433,-0.07267715781927109,-0.16435380280017853,-23.386213302612305,0.0,0.0,0.0,0.0,0.0,0.0,0.5794000029563904,0.0,0.0,0.0,0
381569373,-0.10491527616977692,-0.11361709237098694,-23.357799530029297,0.0,0.0,0.0,0.0,0.0,0.0,0.5794000029563904,0.0,0.0,0.0,0
381579586,-0.0967787578701973,0.09757887572050095,-23.416906356811523,0.0,0.0,0.0,0.0,0.0,0.0,0.5794000029563904,0.0,0.0,0.0,0
381589606,-0.07556668668985367,0.09022475779056549,-23.37539291381836,0.0,0.0,0.0,0.0,0.0,0.0,0.5794000029563904,0.0,0.0,0.0,0
381599398,-0.06995005905628204,-0.06893865764141083,-23.39896583557129,0.0,0.0,0.0,0.0,0.0,0.0,0.5794000029563904,0.0,0.0,0.0,0
381609388,-0.08528924733400345,-0.15352703630924225,-23.361133575439453,0.0,0.0,0.0,0.0,0.0,0.0,0.5794000029563904,0.0,0.0,0.0,0
381619309,-0.08714704215526581,-0.012515906244516373,-23.38917350769043,0.0,0.0,0.0,0.0,0.0,0.0,0.5794000029563904,0.0,0.0,0.0,0
381629546,-0.0810607448220253,0.09704659879207611,-23.386911392211914,0.0,0.0,0.0,0.0,0.0,0.0,0.5794000029563904,0.0,0.0,0.0,0
381639547,-0.06505297869443893,0.0060490709729492664,-23.384815216064453,0.0,0.0,0.0,0.0,0.0,0.0,0.5794000029563904,0.0,0.0,0.0,0
381649414,-0.07809198647737503,-0.11767634004354477,-23.375503540039062,0.0,0.0,0.0,0.0,0.0,0.0,0.5794000029563904,0.0,0.0,0.0,0
381659355,-0.11318032443523407,-0.08824463188648224,-23.378347396850586,0.0,0.0,0.0,0.0,0.0,0.0,0.5794000029563904,0.0,0.0,0.0,0
381669369,-0.09898411482572556,0.069239042699337,-23.418052673339844,0.0,0.0,0.0,0.0,0.0,0.0,0.5794000029563904,0.0,0.0,0.0,0
381680006,-0.07465113699436188,0.05847430229187012,-23.39006233215332,0.0,0.0,0.0,0.0,0.0,0.0,0.5794000029563904,0.0,0.0,0.0,0
381689930,-0.05712546035647392,-0.0661780908703804,-23.38703155517578,0.0,0.0,0.0,0.0,0.0,0.0,0.5794000029563904,0.0,0.0,0.0,0
381699414,-0.07640475034713745,-0.1171279326081276,-23.352373123168945,0.0,0.0,0.0,0.0,0.0,0.0,0.5794000029563904,0.0,0.0,0.0,0
381709298,-0.10956228524446487,-0.0046765441074967384,-23.3916072845459,0.0,0.0,0.0,0.0,0.0,0.0,0.5794000029563904,0.0,0.0,0.0,0
381719314,-0.1024228110909462,0.09233371913433075,-23.39068603515625,0.0,0.0,0.0,0.0,0.0,0.0,0.5794000029563904,0.0,0.0,0.0,0
381729565,-0.06787960231304169,-0.019169213250279427,-23.405475616455078,0.0,0.0,0.0,0.0,0.0,0.0,0.5794000029563904,0.0,0.0,0.0,0
381740132,-0.061238013207912445,-0.10445509850978851,-23.375898361206055,0.0,0.0,0.0,0.0,0.0,0.0,0.5794000029563904,0.0,0.0,0.0,0
381749402,-0.08691531419754028,-0.07306163758039474,-23.36414337158203,0.0,0.0,0.0,0.0,0.0,0.0,0.5794000029563904,0.0,0.0,0.0,0
381759326,-0.10286315530538559,0.07331900298595428,-23.41506576538086,0.0,0.0,0.0,0.0,0.0,0.0,0.5794000029563904,0.0,0.0,0.0,0
381769386,-0.07537629455327988,0.05637305974960327,-23.39166831970215,0.0,0.0,0.0,0.0,0.0,0.0,0.5794000029563904,0.0,0.0,0.0,0
381779624,-0.045614685863256454,-0.07797491550445557,-23.392162322998047,0.0,0.0,0.0,0.0,0.0,0.0,0.5794000029563904,0.0,0.0,0.0,0
381789569,-0.05500100925564766,-0.12339852750301361,-23.370840072631836,0.0,0.0,0.0,0.0,0.0,0.0,0.5794000029563904,0.0,0.0,0.0,0
381799352,-0.09460338950157166,0.0008179456344805658,-23.411846160888672,0.0,0.0,0.0,0.0,0.0,0.0,0.5794000029563904,0.0,0.0,0.0,0
381809371,-0.1101926937699318,0.08910968899726868,-23.401790618896484,0.0,0.0,0.0,0.0,0.0,0.0,0.5794000029563904,0.0,0.0,0.0,0
381819330,-0.08545075356960297,-0.001213835901580751,-23.410947799682617,0.0,0.0,0.0,0.0,0.0,0.0,0.5794000029563904,0.0,0.0,0.0,0
381829700,-0.056177567690610886,-0.12379106879234314,-23.381134033203125,0.0,0.0,0.0,0.0,0.0,0.0,0.5794000029563904,0.0,0.0,0.0,0
381839664,-0.06652963906526566,-0.08151226490736008,-23.36452865600586,0.0,0.0,0.0,0.0,0.0,0.0,0.5794000029563904,0.0,0.0,0.0,0
381849410,-0.094767726957798,0.07966899126768112,-23.415199279785156,0.0,0.0,0.0,0.0,0.0,0.0,0.5794000029563904,0.0,0.0,0.0,0
381859387,-0.1099637970328331,0.05134040117263794,-23.417396545410156,0.0,0.0,0.0,0.0,0.0,0.0,0.5794000029563904,0.0,0.0,0.0,0
381869319,-0.08828612416982651,-0.06157951429486275,-23.412628173828125,0.0,0.0,0.0,0.0,0.0,0.0,0.5794000029563904,0.0,0.0,0.0,0
381880088,-0.06174169480800629,-0.136116623878479,-23.370458602905273,0.0,0.0,0.0,0.0,0.0,0.0,0.5794000029563904,0.0,0.0,0.0,0
381889952,-0.06731044501066208,-0.017504123970866203,-23.39168357849121,0.0,0.0,0.0,0.0,0.0,0.0,0.5794000029563904,0.0,0.0,0.0,0
381899325,-0.08807232975959778,0.08714919537305832,-23.399036407470703,0.0,0.0,0.0,0.0,0.0,0.0,0.5794000029563904,0.0,0.0,0.0,0
381909296,-0.08623138815164566,0.0035164847504347563,-23.40934944152832,0.0,0.0,0.0,0.0,0.0,0.0,0.5794000029563904,0.0,0.0,0.0,0
381919347,-0.07250069826841354,-0.10714948177337646,-23.39104461669922,0.0,0.0,0.0,0.0,0.0,0.0,0.5794000029563904,0.0,0.0,0.0,0
381929583,-0.07198432832956314,-0.08434160053730011,-23.363136291503906,0.0,0.0,0.0,0.0,0.0,0.0,0.5794000029563904,0.0,0.0,0.0,0
381940056,-0.08491650223731995,0.052476417273283005,-23.399389266967773,0.0,0.0,0.0,0.0,0.0,0.0,0.5794000029563904,0.0,0.0,0.0,0
381949294,-0.09717274457216263,0.04304996877908707,-23.410390853881836,0.0,0.0,0.0,0.0,0.0,0.0,0.5794000029563904,0.0,0.0,0.0,0
381959359,-0.0871310904622078,-0.048835113644599915,-23.425792694091797,0.0,0.0,0.0,0.0,0.0,0.0,0.5794000029563904,0.0,0.0,0.0,0
381969316,-0.06850327551364899,-0.12867985665798187,-23.388107299804688,0.0,0.0,0.0,0.0,0.0,0.0,0.5794000029563904,0.0,0.0,0.0,0
381979596,-0.06973645836114883,0.004901822656393051,-23.409528732299805,0.0,0.0,0.0,0.0,0.0,0.0,0.5794000029563904,0.0,0.0,0.0,0
381989640,-0.07670275866985321,0.05451209843158722,-23.402101516723633,0.0,0.0,0.0,0.0,0.0,0.0,0.5794000029563904,0.0,0.0,0.0,0
381999386,-0.07492562383413315,-0.015474624000489712,-23.41096305847168,0.0,0.0,0.0,0.0,0.0,0.0,0.5794000029563904,0.0,0.0,0.0,0
382009313,-0.09000582247972488,-0.10304739326238632,-23.39266586303711,0.0,0.0,0.0,0.0,0.0,0.0,0.5794000029563904,0.0,0.0,0.0,0
