TimeUS,PLX,PLY,PLZ,AX,AY,BX,BY,CX,CY,PRX,PRY,PRZ,ERR,EST_FREQ,CORR
1767568041910272,8.267660939516421e-44,4.591774807899561e-41,-6.583517570612476e-26,-2.610986470704868e-34,3.363116314379561e-44,-1.4779732993019934e-11,8.798753057495526e-42,-1.3393708478458624e-20,1.2095667349665273e-12,-8.485989560580216e-22,-6.61269309815401e-26,-2.61745146004565e-34,3.363116314379561e-44,-2.7284841053187847e-11,8.798753057495526e-42
1794876268085248,2.795814644082302e-40,0.0,0.0,0.0,1.002004456138099e-30,2.2548083394680983e-39,2.350988701644575e-38,3.657389503988935e-24,0.0,0.0018128019291907549,-0.0009660469368100166,-0.00970049761235714,2.6266945614986583e-25,2.2548083394680983e-39,2.350988701644575e-38
1688879925035008,0.0,1.6268913561861833e-35,-2.486784414883769e-35,1.9953789786748776e-22,-6.592737998739829e-26,-1.6220064509902693e-27,3.363116314379561e-44,0.0,2.350988701644575e-38,-6.583517570612476e-26,-1.6220066435832637e-27,3.363116314379561e-44,8.817543667233166e+21,-32798896.0,6.390296074959036e-15
1771004015747072,8.267660939516421e-44,4.591774807899561e-41,-6.583517570612476e-26,-5.718621798596232e-27,3.363116314379561e-44,9.959144620097504e-11,4.29077589776259e-42,2.802596928649634e-45,-4.0559113888088104e-18,3.822739482888691e-24,0.0,-5.7192419480383245e-27,3.363116314379561e-44,-7.47881131246686e-07,-11039598592.0
1970324836974592,8.407790785948902e-45,4.5917748078995606e-39,5.055106521467678e-05,0.0005265739164315164,0.0007962437230162323,5.941953278485311e-22,2.2589758011010003e-39,0.0,0.0,3.587324068671532e-43,5.975040502987432e-22,2.2589758011010003e-39,0.0,0.013183469884097576,0.009009693749248981
1694978779253761,1.0,1.0,1.0,5.759715038960366e-40,0.0,0.0,0.0,9.199958820816365e-40,-6.583517570612476e-26,-5.141784273069009e-22,3.363116314379561e-44,1.8694281843698425e-22,8.828180325246348e-42,-9.746964420642948e+24,0.05938583239912987
1970324836974592,8.407790785948902e-45,4.5917748078995606e-39,4.582766996463761e-05,0.0005114240921102464,0.0006171042914502323,2.8060081005096436,2.260070215201638e-39,0.0,0.0,3.587324068671532e-43,2.8216331005096436,2.260070215201638e-39,0.0,0.013167541474103928,0.009011765010654926
1548586586353253,2.2958874039497803e-41,0.0,0.0,0.0,0.0,0.0,0.0,0.0,0.0,0.0,0.0,0.0,0.0,0.0,0.0
1618955330530917,2.2958874039497803e-41,0.0,0.0,0.0,0.0,0.0,0.0,0.0,0.0,0.0,0.0,0.0,0.0,0.0,0.0
1830061563063909,2.2958874039497803e-41,0.0,0.0,0.0,0.0,0.0,0.0,0.0,0.0,0.0,0.0,0.0,0.0,0.0,0.0
1900430307241573,2.2958874039497803e-41,0.0,0.0,0.0,0.0,0.0,0.0,0.0,0.0,0.0,0.0,0.0,0.0,0.0,0.0
1970324836974592,8.407790785948902e-45,4.5917748078995606e-39,6.34005555184558e-05,0.0005079994443804026,0.0007370621897280216,1.5950309378408994e-13,2.2617125370018267e-39,0.0,0.0,3.587324068671532e-43,-1.9381584934308194e-05,2.2617167408972196e-39,2.350988701644575e-38,4.155259342796546e-24,0.0
1970324836974592,8.407790785948902e-45,4.5917748078995606e-39,5.4767024266766384e-05,0.00038886311813257635,0.0005491613992489874,-2.3210754994083246e-24,2.263901365203102e-39,0.0,0.0,3.587324068671532e-43,-2.3340001964794657e-24,2.263901365203102e-39,0.0,0.013155224733054638,0.008924165740609169
1781311937257472,8.267660939516421e-44,4.591774807899561e-41,-6.583517570612476e-26,-6.177394243422896e-05,3.363116314379561e-44,-4.959260285494272e-38,8.867416682247442e-42,-2.2830184906463564e-22,-1.9974276012814006e-17,-1.4080381393432617,-6.592952470298436e-26,-6.197696347953752e-05,3.363116314379561e-44,-8.963144425019942e-38,8.867416682247442e-42
1970324836974592,8.407790785948902e-45,4.5917748078995606e-39,7.006805390119553e-05,0.0004245600721333176,0.0006621952634304762,4.7372898443304426e-39,2.2721129742040454e-39,0.0,0.0,3.587324068671532e-43,4.829125340488434e-39,2.2721129742040454e-39,0.0,0.013170849531888962,0.008818291127681732
1970324836974592,8.407790785948902e-45,4.5917748078995606e-39,9.279438381781802e-05,0.0003450466028880328,0.0005334271118044853,-0.04384387657046318,2.2797752742069735e-39,0.0,0.0,3.587324068671532e-43,-0.04408801719546318,2.2797752742069735e-39,0.0,0.013140639290213585,0.008932937867939472
1970324836974592,8.407790785948902e-45,4.5917748078995606e-39,7.685906166443601e-05,0.00017270114040002227,0.0002774358435999602,2.2135500902255293e-30,2.2808710896060755e-39,0.0,0.0,3.587324068671532e-43,2.2258760418696076e-30,2.2808710896060755e-39,0.0,0.013129167258739471,0.008960066363215446
1970324836974592,8.407790785948902e-45,4.5917748078995606e-39,7.568339788122103e-05,0.000346237764460966,0.000534431601408869,11.224032402038574,2.2819655037067132e-39,0.0,0.0,3.587324068671532e-43,11.286532402038574,2.2819655037067132e-39,0.0,0.013128994964063168,0.008964677341282368
1970324836974592,8.407790785948902e-45,4.5917748078995606e-39,0.00010662672866601497,0.0003887173079419881,0.0006841886788606644,-3.2984466705106635e-38,2.283059917807351e-39,0.0,0.0,3.587324068671532e-43,-3.316813769742262e-38,2.283059917807351e-39,0.0,0.013154631480574608,0.008969259448349476
1970324836974592,8.407790785948902e-45,4.5917748078995606e-39,0.00012279671500436962,0.00036268041003495455,0.0006018750718794763,5.8026887485208115e-25,2.283607825506902e-39,0.0,0.0,3.587324068671532e-43,5.835000491198664e-25,2.283607825506902e-39,0.0,0.013170330785214901,0.00895771011710167
1970324836974592,8.407790785948902e-45,4.5917748078995606e-39,9.361092816106975e-05,0.0001673568767728284,0.00016794812108855695,-1.4506721871302029e-25,2.2857966537081773e-39,0.0,0.0,3.587324068671532e-43,-1.458750122799666e-25,2.2857966537081773e-39,0.0,0.013184821233153343,0.008999080397188663
1970324836974592,8.407790785948902e-45,4.5917748078995606e-39,8.678431913722306e-05,0.0006324650603346527,0.0011937362141907215,2.1110058691268247e-36,2.2956505845093094e-39,0.0,0.0,3.587324068671532e-43,2.1227608126350475e-36,2.2956505845093094e-39,0.0,0.013186687603592873,0.009000804275274277
1549598434787328,-6.56450602279665e-27,2.4098426273011257e-35,2.014456520397846e-18,-1.2109376257285476e-07,2.4099895640949784e-35,3.2258409380677675e-17,1.1364183472070622e-36,2.461478282959658e-38,2.4451396002494496e-35,4.893152068621899e-40,2.407416735272927e-35,2.52231957942402e-38,6.925637400232543e-41,5.702869517041057e-37,-6.938893903907228e-18
1970324836974592,8.407790785948902e-45,4.5917748078995606e-39,7.743400783510879e-05,0.00046872920938767493,0.00046931655379012227,-2.3210754994083246e-24,2.3033128845122375e-39,0.0,0.0,3.587324068671532e-43,-2.3340001964794657e-24,2.3033128845122375e-39,0.0,0.013238009065389633,0.009028692729771137
1970324836974592,8.407790785948902e-45,4.5917748078995606e-39,7.479545456590131e-05,0.0006243837997317314,0.0009265729459002614,3.626680467825507e-26,2.3055031140119772e-39,0.0,0.0,3.587324068671532e-43,3.646875306999165e-26,2.3055031140119772e-39,0.0,0.013229727745056152,0.009011677466332912
1688879925035008,0.0,-3.069627880347645e-25,4.886404549522383e-19,-6.458183380436688e-12,-6.592744161715651e-26,7.039462008216923e-22,3.5032461608120427e-44,0.0,2.350988701644575e-38,-6.583517570612476e-26,7.162431918042182e-22,3.5032461608120427e-44,1068742482067456.0,9.007546528679924e-42,-1.3393708478458624e-20
1970324836974592,8.407790785948902e-45,4.5917748078995606e-39,0.00012133146083215252,0.00046467603533528745,0.0006205092649906874,9.507125245576498e-21,2.3098821717129922e-39,0.0,0.0,3.587324068671532e-43,9.560064804779891e-21,2.3098821717129922e-39,0.0,0.013260474428534508,0.008968773297965527
1970324836974592,8.407790785948902e-45,4.5917748078995606e-39,8.353862358490005e-05,0.0004938218044117093,0.000739789567887783,-6.533246721396324e-10,2.314807735815094e-39,0.0,0.0,3.587324068671532e-43,-6.569626509467241e-10,2.314807735815094e-39,0.0,0.013311550952494144,0.00889239925891161
1970324836974592,8.407790785948902e-45,4.5917748078995606e-39,0.00010470844426890835,0.0005654830601997674,0.0008496518712490797,8.444023476507299e-36,2.315903551214196e-39,0.0,0.0,3.587324068671532e-43,8.49104325054019e-36,2.315903551214196e-39,0.0,0.01332708541303873,0.00886085070669651
1688849860263936,8.407790785948902e-45,4.5917748078995606e-39,9.369427425554022e-05,0.00041996900108642876,0.0007267742766998708,9.735296251470334e-18,2.3186402871150223e-39,0.0,0.0,3.587324068671532e-43,9.789506360094609e-18,2.3186402871150223e-39,0.0,0.013322100974619389,0.008864784613251686
1688849860263936,8.407790785948902e-45,4.5917748078995606e-39,8.243328193202615e-05,0.00043695277418009937,0.0007602014229632914,5.277514672817062e-37,2.320282608915211e-39,0.0,0.0,3.587324068671532e-43,5.306902031587619e-37,2.320282608915211e-39,0.0,0.013325580395758152,0.008885948918759823
1688849860263936,8.407790785948902e-45,4.5917748078995606e-39,5.942910865996964e-05,0.000580178399104625,0.000993070425465703,2.8060081005096436,2.3213770230158487e-39,0.0,0.0,3.587324068671532e-43,2.8216331005096436,2.3213770230158487e-39,0.0,0.013314813375473022,0.008860344998538494
1688849860263936,8.407790785948902e-45,4.5917748078995606e-39,6.270931044127792e-05,0.000496676133479923,0.0007957812631502748,-5.666688230977355e-28,2.3224714371164864e-39,0.0,0.0,3.587324068671532e-43,-5.6982426671861955e-28,2.3224714371164864e-39,0.0,0.013308449648320675,0.008891239762306213
1688849860263936,8.407790785948902e-45,4.5917748078995606e-39,7.009910041233525e-05,0.000552442972548306,0.000763716408982873,3.7137207990533194e-23,2.3230193448160374e-39,0.0,0.0,3.587324068671532e-43,3.734400314367145e-23,2.3230193448160374e-39,0.0,0.013306010514497757,0.00890872161835432
1970324836974592,8.407790785948902e-45,4.5917748078995606e-39,8.805880497675389e-05,0.0004438733740244061,0.0007051879074424505,-0.0006850605714134872,2.327944908918139e-39,0.0,0.0,3.587324068671532e-43,-0.0006888752686791122,2.327944908918139e-39,0.0,0.013307886198163033,0.008876525796949863
1970324836974592,8.407790785948902e-45,4.5917748078995606e-39,7.534353790106252e-05,0.0006356708472594619,0.0010177576914429665,-5.8026887485208115e-25,2.3295872307183278e-39,0.0,0.0,3.587324068671532e-43,-5.835000491198664e-25,2.3295872307183278e-39,0.0,0.013309803791344166,0.008826512843370438
1970324836974592,8.407790785948902e-45,4.5917748078995606e-39,9.269791189581156e-05,0.0006370407645590603,0.0006499675801023841,6.084560157168958e-19,2.3361565179190826e-39,0.0,0.0,3.587324068671532e-43,6.11844147505913e-19,2.3361565179190826e-39,0.0,0.013267366215586662,-0.003040235722437501
1688974414315520,0.0,1.7008473279654635e-18,-0.8055679202079773,9.872327427358354e-30,-6.592935213966134e-26,nan,3.5032461608120427e-44,0.0,2.350988701644575e-38,-6.583517570612476e-26,nan,3.5032461608120427e-44,-3.7469948899722527e+18,1.6828453874218683e+25,9.343385312851637e-24
1970230347759624,4.591802833868847e-40,0.0,nan,0.0,-1.1122815504099826e-27,-6.593303759920292e-26,-1.48443627803887e-35,3.5032461608120427e-44,3.587324068671532e-43,2.350988701644575e-38,-6.583517570612476e-26,-1.4844364215318328e-35,3.5032461608120427e-44,1196303010758656.0,1.340546699441549e+34
1633900149725701,-6.938893903907228e-18,1.5632127770004445e-06,9.161689359755654e-42,0.0,0.0,-6.583517570612476e-26,-8.755784282799014e-33,3.5032461608120427e-44,1.2053592541728662e-35,1.205386661328751e-35,8.75088305910326e-31,7.803433403268792e-37,-9.311877785538177e+24,-2.534271590337878e-37,6.844800161335308e-30
1867040308592640,2.9115478842508887e-40,0.0,0.0,0.0,-1.0692766474894262e-21,2.3467657485924857e-39,2.350988701644575e-38,1.46649226503368e-23,0.0,4.515232086181641,-0.6659491062164307,-6.273200035095215,1.1552324851935025e-12,2.34676714989095e-39,2.350988701644575e-38
1841445774368768,8.407790785948902e-44,4.591774807899561e-41,-6.583517570612476e-26,-2.0058863178137833e-30,3.5032461608120427e-44,4.9603308182395896e-18,9.167294553612953e-42,-0.11328125,24.28154754638672,-1.9756956899236179e-19,-6.613905971795787e-26,-2.0129642984385025e-30,3.5032461608120427e-44,1.1004863808964684e-17,9.167294553612953e-42
1688815517302784,7.346685549808221e-40,6.428512757028671e-40,0.0,2.571393892423754e-39,0.0,0.0870351791381836,-6.593238432376578e-26,-1.5339545255213909e-24,3.5032461608120427e-44,3.587324068671532e-43,2.350988701644575e-38,-6.583517570612476e-26,-1.533954624129004e-24,3.5032461608120427e-44,1.6663758425921946e+17
1970333427433461,0.0,2.571393892423754e-39,0.0,0.0870351791381836,-6.593238432376578e-26,-1.5339545255213909e-24,3.5032461608120427e-44,3.587324068671532e-43,2.350988701644575e-38,-6.583517570612476e-26,-1.533954624129004e-24,3.5032461608120427e-44,1.6663758425921946e+17,1.412294957841821e-37,-4.2002344495341655e+36
1688849860788217,0.0,2.3877229001077715e-39,0.0,2.0990154059319366e-16,-6.593284654695244e-26,-1.0364344873606774e-22,3.5032461608120427e-44,0.0,0.0,2.413804181016641e-35,0.0,1.0858565337106105e-19,-9.460094060773642e+32,-1.4927481148149408e+31,-1.0200677990260018e-17
1682279282123526,-6.938893903907228e-18,-6.951812175774953e-35,9.186912732113501e-42,0.0,0.0,-6.583517570612476e-26,-8.918721545167482e-22,3.5032461608120427e-44,-7.297615866698614e-35,9.186912732113501e-42,-3.520480687025686e-21,1.7195341863520616e-38,1.2597121000289917,-6.593117638050467e-26,-8.921047990640287e-22
1871550024253440,2.9187645713421615e-40,0.0,0.0,0.0,-1.1017155506072068e-18,2.352513874893146e-39,2.350988701644575e-38,1.6321715144752746e-23,0.0,0.033771708607673645,0.2589664161205292,-0.0033087157644331455,-0.0003081980103161186,2.3525152761916105e-39,0.0
1665786708369414,-6.938893903907228e-18,1.069360023831459e-31,9.18971532904215e-42,0.0,0.0,-6.583517570612476e-26,-7.415412466422202e-21,3.5032461608120427e-44,0.06097412109375,0.060974832624197006,1.9788740873336792,-3.3070132613173505e-32,1.0664449608219483e+22,-1.4947864522118483e-27,2870639.5
1971424348602393,nan,9.184950914263446e-41,1.2611686178923354e-44,0.0,9.175982604091767e-41,1.0,0.09910747408866882,-5.8026887485208115e-25,2.3602406346254332e-39,2.350988701644575e-38,0.0,3.587324068671532e-43,-5.835000491198664e-25,2.3602406346254332e-39,2.350988701644575e-38
1688828385427463,6.428484731059385e-40,0.0,nan,0.0,-9.215875710446734e-36,-6.593196524140989e-26,-3.604985977290198e-06,3.5032461608120427e-44,0.0,0.0,2.416595980099844e-35,0.0,-3.608377260035277e+16,765098.8125,-3.92476826967687e+36
1688862745165831,5.510129769479473e-40,0.0,8.265194654219209e-40,0.0,-1.5855980935425897e-27,-6.593159546286056e-26,-0.017142867669463158,3.5032461608120427e-44,3.587324068671532e-43,2.350988701644575e-38,-6.583517570612476e-26,-0.017142869532108307,3.5032461608120427e-44,5.545166992362701e+16,-1.098001266249184e+32
1688849860657155,0.0,8.265194654219209e-40,0.0,-1.5855980935425897e-27,-6.593159546286056e-26,-0.017142867669463158,3.5032461608120427e-44,3.587324068671532e-43,2.350988701644575e-38,-6.583517570612476e-26,-0.017142869532108307,3.5032461608120427e-44,5.545166992362701e+16,-1.098001266249184e+32,9.073696674022358e-06
1689949371891737,3.673433859304292e-40,8.407790785948902e-45,7.006492321624085e-45,0.0,9.177804292095389e-41,1.0,0.03752491623163223,1.3834688063909558e-31,2.3640731859253616e-39,2.350988701644575e-38,0.0,3.587324068671532e-43,1.3911725261685048e-31,2.3640731859253616e-39,2.350988701644575e-38
1971424348602393,2.755050871755093e-40,9.182848966566959e-41,2.802596928649634e-45,0.0,9.180466759177607e-41,1.0,0.026009341701865196,8.646680039943474e-33,2.3728313013273917e-39,2.350988701644575e-38,0.0,3.587324068671532e-43,8.694828288553155e-33,2.3728313013273917e-39,2.350988701644575e-38
1875805512736768,8.407790785948902e-44,4.591774807899561e-41,-6.583517570612476e-26,5.400412524687078e-34,3.6433760072445244e-44,5.51808625459671e-08,9.338252966260581e-42,-8.522240003913519e-33,6.119089235312458e-09,-5.904800876244882e-25,-6.613942333353137e-26,5.4017060276504635e-34,3.6433760072445244e-44,5.820766091346741e-08,9.338252966260581e-42
1970324836974618,9.18467065457058e-41,0.0,0.007984291762113571,-0.010758781805634499,-9.80030235950835e-05,0.6875,5.8714405655209835e-43,-6.583517570612476e-26,1.2976569583830206e-33,3.6433760072445244e-44,-6.993104012531504e-18,7.931668017692461e-13,1.5528557435062656e+35,0.032046638429164886,0.5791558623313904
1688849860263962,1.8368220270369702e-40,0.0,0.00798083283007145,-0.010758781805634499,-9.80030235950835e-05,0.6875,5.8714405655209835e-43,-6.583517570612476e-26,8.815526432190855e-32,3.6433760072445244e-44,8.903443813323975e-07,1.8661890937251012e-20,0.057923659682273865,2.0886035817151187e-20,3.731415620635829e-19
1877867097038848,1.1210387714598537e-43,4.591774807899561e-41,-6.583517570612476e-26,1.3385455359367107e-29,3.6433760072445244e-44,-2.783629397464718e-34,9.348062055510855e-42,-3.1468516681343317e-10,-3.2790779640190504e-12,-2.893528621272247e-30,-6.613967601554007e-26,1.3444005134309248e-29,3.6433760072445244e-44,-6.289482524074649e-34,9.348062055510855e-42
1689378141241344,0.0,6.112593045051324e-37,2.8398842914612032e-05,3.6157535887302295e-27,-6.593014100056656e-26,1.1499412974975514e-21,3.6433760072445244e-44,0.0,2.350988701644575e-38,-6.583517570612476e-26,1.1499413984717473e-21,3.6433760072445244e-44,-7.318533788671496e-33,-1.8355613670920606e-25,1.6888355280978513e-18
1689949371891738,4.203895392974451e-45,1.401298464324817e-45,0.007953173480927944,-0.013770978897809982,0.0020353072322905064,0.6875,5.8714405655209835e-43,-6.583517570612476e-26,9.801599928058242e-21,3.6433760072445244e-44,0.00015163421630859375,9.369081532475727e-42,5.04831636563563e-19,-0.003612447762861848,-1.9058947750008717e+19
1882677460410368,8.407790785948902e-44,4.591774807899561e-41,-6.583517570612476e-26,2.6675336568855727e-19,3.6433760072445244e-44,-3.1896084420044747e-21,9.371884129404377e-42,-1.2578729949279134e-33,-1.8543105906041508e-36,1.74849930090204e-07,-6.613998416433117e-26,2.6681294854205523e-19,3.6433760072445244e-44,-3.321957340012959e-21,9.371884129404377e-42
1553328115031486,-4.055991211737922e-18,3.4431642277565827e-23,0.0,8.902112987735356e-16,3.6433760072445244e-44,-8.579020740334675e-16,8.486922360201648e-21,-3.1186384977936995e-29,-1.0139841544543733e-18,3.4431673832002036e-23,0.0,8.90482349316657e-16,3.6433760072445244e-44,4.751038061209984e-28,-4.774223286090688e-33
1688849860270727,-7.93052722744739e-23,5.023330373887802e-08,-3.6160525077571553e-35,-2.277882320244037e-33,2.1725731390891964e-41,0.0,0.0,-6.583517570612476e-26,-3.3577984651801623e-34,3.6433760072445244e-44,0.0,0.0,0.0,0.0,0.0
1689369551306752,0.0,-1.68978013579936e-38,-1.1118770280844635e-26,-1.433206348882776e-16,-6.593065252755979e-26,-3.7378753427970664e-26,3.6433760072445244e-44,0.0,2.350988701644575e-38,-6.583517570612476e-26,-3.7378756509458575e-26,3.6433760072445244e-44,263882790666240.0,3557784746459136.0,3.2089422954722303e-27
1689610069475328,0.0,-28.00009536743164,5.647606072452338e-17,-3.0894411080584025e-25,-6.592976505904142e-26,-6.045703685231274e-06,3.6433760072445244e-44,0.0,2.350988701644575e-38,-6.583517570612476e-26,-6.045704139978625e-06,3.6433760072445244e-44,0.004547119140625,-5.7637824075505155e+28,-2.995217615597845e-11
1966271232999424,3.070679337859615e-40,0.0,0.0,0.0,1.7558822469893738e-28,2.4732119155208356e-39,0.0,4.203895392974451e-45,9.860761315262648e-32,-0.00041580433025956154,nan,1.2243245576295358e-38,0.0,0.0,0.0
1970780948660224,3.0778960249508877e-40,0.0,0.0,0.0,81.2922592163086,2.478960041821496e-39,2.350988701644575e-38,1.0518964766473714e-22,0.0,-0.11963105201721191,0.0011645471677184105,0.047825537621974945,85241112.0,2.478960041821496e-39,2.350988701644575e-38
1689408206012416,0.0,0.9375029802322388,-2.5272054656179253e-27,-3.5844487100700206e-12,-6.592938911751627e-26,3.072609932537807e-35,3.783505853677006e-44,0.0,2.350988701644575e-38,-6.583517570612476e-26,3.0726102195237324e-35,3.783505853677006e-44,1.8030021919912542e-13,-1.9969632536912798e+38,-6794142810112.0
1552774847032638,-4.055991211737922e-18,1.207283079205313e-22,0.0,3.8431700928653965e-28,3.783505853677006e-44,-1.6267820424076262e-12,-1.4556563249796203e-35,-3.9936671257019043,-4.055936204227187e-18,1.2073008759073348e-22,0.0,3.8518601295157148e-28,3.783505853677006e-44,-1.3048761235183875e+38,4.507851140710884e+26
1997843537592320,3.121280225406384e-40,0.0,0.0,0.0,-2.8880812129837563e-13,2.5134445957300654e-39,2.350988701644575e-38,1.840174571431606e-22,0.0,0.06999180465936661,-0.15010760724544525,0.04676023870706558,-1.793948527868596e-14,2.5134459970285298e-39,0.0
1970320540499968,0.0,0.0,0.0,1.0509738482436128e-43,0.0,0.1098424568772316,-5.982916203498442e-19,2.5310238849650203e-39,0.0,0.0,-1.0097419586828951e-28,2.152394441202919e-42,7.450580596923828e-09,-4.962777823491161e+31,-3.3424490205421947e+38
1689476925489152,0.0,-4.90627384185791,-1.2380812914102147e-26,0.4946012794971466,-6.593083125385863e-26,-3.4332195316410045e-23,3.783505853677006e-44,0.0,2.350988701644575e-38,-6.583517570612476e-26,-3.4332198471853666e-23,3.783505853677006e-44,2.7666929667911326e-26,4.747050481370264e+29,781142080.0
1989793944772608,8.407790785948902e-44,4.591774807899561e-41,-6.583517570612476e-26,-2.265661430273381e-21,3.783505853677006e-44,-3.682872784882096e-19,8.96831017167883e-44,2.3510604481259484e-38,-6.584464203698741e-26,-2.266662488451219e-21,3.783505853677006e-44,6.750155989720952e-13,9.905778844312132e-42,5.0198963769037884e+32,6.04445496080909e+27
1688918584131584,2.802596928649634e-45,0.008081820793449879,-0.010758781805634499,-9.80030235950835e-05,0.6875,5.8714405655209835e-43,-6.583517570612476e-26,-1.4025944494733267e-07,3.783505853677006e-44,-4.171637265227429e-20,-9.408723787159586e-32,0.01118500903248787,-1.1925324758477052e-20,-3.3575117512618657e-12,-1066287628288.0
1689485515423744,0.0,9.771352843148838e-38,3.9407909753208514e-06,-4.7169299932647846e-07,-6.593107160991569e-26,-8.131787035381421e-05,3.783505853677006e-44,0.0,2.350988701644575e-38,-6.583517570612476e-26,-8.131787762977183e-05,3.783505853677006e-44,-199011604627456.0,-2772735.75,6.845196398551973e+29
1689481220456448,0.0,5.886911295160065e-20,0.00011693424312397838,1.3374915324576575e-12,-6.592999925212266e-26,-0.005607986357063055,3.783505853677006e-44,0.0,2.350988701644575e-38,-6.583517570612476e-26,-0.005607986822724342,3.783505853677006e-44,-3.9271388750670725e+18,1.3895128563682077e-20,-2.9758980589452745e-17
1688905696018688,0.0,0.008043965324759483,-0.013770978897809982,0.0020353072322905064,0.6875,5.8714405655209835e-43,-6.583517570612476e-26,-0.005814627278596163,3.783505853677006e-44,-0.25390625,9.947817798241876e-42,-3.8518598887744717e-32,0.0004591935721691698,6487.818359375,-6.613999649028282e-26
1688850117182606,-6.938893903907228e-18,-0.07696834951639175,1.0037500899958665e-41,-2.6051342534018694e-26,2.5698650757991755e-39,6.938893903907228e-18,-9.433736755292541e-30,2.8701965675281826e-06,-2.094194498060304e-17,-0.18030770123004913,1.0037500899958665e-41,3.003515303134918e-08,2.56986647709764e-39,3.944304526105059e-31,-49530624.0
1574504945942528,3.923635700109488e-44,1.3414619604343965e-18,1.1711041927337646,-1.520145178801613e-05,-1.0139973893441742e-18,4.235911945320927e-22,0.0,5.294904338343824e-40,3.923635700109488e-44,-2.1554145120966858e-27,-6.142827848866061e-33,0.003427281975746155,-1.0139978029344804e-18,4.235916489159741e-22,0.0
1622883457564672,3.923635700109488e-44,-2.1554145120966858e-27,-6.142827848866061e-33,0.003427281975746155,-1.0139978029344804e-18,4.235916489159741e-22,0.0,5.327190254961868e-40,3.923635700109488e-44,1.3109865316754677e-32,-9.282166481018066,1.251128054491346e-07,-1.0139978029344804e-18,4.236052299453184e-22,0.0
1632779062214656,3.923635700109488e-44,1.3109865316754677e-32,-9.282166481018066,1.251128054491346e-07,-1.0139978029344804e-18,4.236052299453184e-22,0.0,6.292166416449867e-40,3.923635700109488e-44,-1.0588176538474771e-18,-3.6268866193667544e-26,6.08312676654486e-27,-4.055991211737922e-18,4.236056338421019e-22,0.0
1970346314366976,4.203895392974451e-45,0.008126183412969112,-0.010758781805634499,-9.80030235950835e-05,0.6875,5.8714405655209835e-43,-6.583517570612476e-26,8.54159405007465e-38,3.923635700109488e-44,-5.774199962615967e-07,-4.8369881016562334e-29,-7.560409936990808e-11,-8736411746304.0,-9.56803965003925e+24,-9.160842260827341e+18
1971424348602396,9.183521589829835e-40,1.836695910175181e-40,9.183409485952689e-41,0.0,1.1911036946760945e-43,1.0,0.030423970893025398,3.541680144360847e-29,2.5726256337738954e-39,2.350988701644575e-38,0.0,3.587324068671532e-43,3.561401666991372e-29,2.5726256337738954e-39,2.350988701644575e-38
1717464191084806,-6.938893903907228e-18,-5.907258314788512e-38,1.0052915183066238e-41,0.0,0.0,-6.583517570612476e-26,4.877233968269657e-35,3.923635700109488e-44,-1.4939913309352208e-37,-1.4940127427757557e-37,-2.2172645604353166e-36,4.135926872095297e-07,nan,9.584909255178076e-11,8.688050478813866e-44
1688892812951552,4.203895392974451e-45,0.008090997114777565,-0.010758781805634499,-9.80030235950835e-05,0.6875,5.8714405655209835e-43,-6.583517570612476e-26,3.942046478598946e-34,3.923635700109488e-44,2.5311726744122647e-22,1.4005032777786255,-6.725506762834199e-31,-80518.6640625,-1.3985198776822472e-08,-3.948476571847088e-28
1689481220456448,0.0,4.21877384185791,1.4337587540824703e-11,7.217961313201583e-31,-6.593002390402594e-26,2.7782441639700133e-32,3.923635700109488e-44,0.0,2.350988701644575e-38,-6.583517570612476e-26,2.778244457843601e-32,3.923635700109488e-44,14294188032.0,1.6351647813550585e-09,6.148745510866066e-26
1688871335034880,nan,9.183409485952689e-41,0.0,9.180186499484742e-41,0.0,0.04023364558815956,-0.6897832751274109,2.5819302555770122e-39,0.0,0.0,-1.6155871338926322e-27,2.152394441202919e-42,7.450580596923828e-09,1.3465790982269965e-16,-1.2433730242264274e-37
1688806927368192,9.182148317334796e-41,1.836695910175181e-40,0.0,nan,0.0,3.8034922908991575e-06,-6.593174337428029e-26,4.6046721123571555e-12,3.923635700109488e-44,3.587324068671532e-43,2.350988701644575e-38,-6.583517570612476e-26,4.6046725460380244e-12,3.923635700109488e-44,-1568702464.0
1689485515423744,0.0,2.7213557247447417e-17,2.4625774752706775e-09,1.0214292570591257e-35,-6.592986982963039e-26,2.6465272195963507e-09,3.923635700109488e-44,0.0,2.350988701644575e-38,-6.583517570612476e-26,2.6465274416409557e-09,3.923635700109488e-44,-18176.0,4.375242704102724e-22,-1.906692509499701e-14
1688836975362048,nan,0.0,0.0,2.802596928649634e-44,0.0,0.008969339542090893,-8.302964154408624e-36,2.5895939568784046e-39,0.0,0.0,-6.462348535570529e-27,2.152394441202919e-42,7.450580596923828e-09,-1.6484136722283438e-08,-1.3253061158668085e-36
1689459745619968,0.0,-4.9073613266384253e-26,0.04546529799699783,-2.64492915687687e-14,-6.593047996423677e-26,31.847265243530273,3.923635700109488e-44,0.0,2.350988701644575e-38,-6.583517570612476e-26,31.847267150878906,3.923635700109488e-44,-4.7134439086955455e-29,-8.924929842626248e-20,-2477889.75
1970337721876736,nan,0.0,0.0,1.3032075718220799e-43,1.0,0.018118668347597122,8.854200360902117e-30,2.6136794748832196e-39,2.350988701644575e-38,0.0,3.587324068671532e-43,8.90350416747843e-30,2.6136794748832196e-39,2.350988701644575e-38,-0.00027467915788292885
1688867040133376,nan,0.0,0.0,1.1210387714598537e-44,1.0,0.017506113275885582,-8.854200360902117e-30,2.6142259812843063e-39,2.350988701644575e-38,0.0,3.587324068671532e-43,-1.2623790502548218,2.614232987776628e-39,0.0,8.186467783892192e-22
1689472630521856,0.0,1.1675996205595696e-33,-5.7416793412103866e-36,1.201116165078578e-13,-6.592998076319519e-26,-1.3074074034495078e-38,3.923635700109488e-44,0.0,2.350988701644575e-38,-6.583517570612476e-26,-1.3074075435793542e-38,3.923635700109488e-44,782852278976512.0,2.2379134277416695e+31,-1.0237523469346458e+35
1689476925489152,0.0,2.5729335145168426e-34,5.246932888169908e-10,1.0197023087021861e-10,-6.593017181544567e-26,-9.149845809342935e-37,3.923635700109488e-44,0.0,2.350988701644575e-38,-6.583517570612476e-26,-9.149846706173952e-37,3.923635700109488e-44,3.966787845610502e+24,-1.491339232664762e+31,1.1671934264203443e-35
1720763011187206,-6.938893903907228e-18,-0.0031709421891719103,1.0236485281892789e-41,0.0,0.0,-6.583517570612476e-26,-4.5109485510209894e-33,3.923635700109488e-44,-0.0032959580421447754,1.0236485281892789e-41,-8.230927051045e-11,7.673661457374692e-06,5.0646303123569325e-11,-6.613381502553331e-26,-4.5136852488064975e-33
1689472630521856,0.0,-1.5328518081204003e-35,1.4908019920464027e-27,1.8194276824660937e-25,-6.593003622997759e-26,-3.1112081989232134e-20,3.923635700109488e-44,0.0,2.350988701644575e-38,-6.583517570612476e-26,-3.11120852204064e-20,3.923635700109488e-44,-6.887662211849341e-39,-76.11632537841797,-12531462144.0
1970324836974620,1.8368220270369702e-40,1.401298464324817e-45,0.00813728291541338,-0.010758781805634499,-9.80030235950835e-05,0.6875,5.8714405655209835e-43,-6.583517570612476e-26,-5.869329761792885e-12,3.923635700109488e-44,2.2026824808563106e-12,-1.5856137898716364e-27,-18690504704.0,-2.10671059140544e+26,-522405216256.0
1553330814295104,-4.055991211737922e-18,1.2532170991864627e-21,0.0,-0.055047035217285156,3.923635700109488e-44,1.0533369778848354e-33,-0.010787544772028923,-1.763175047977283e-16,-4.05598914378639e-18,1.2532316394706678e-21,0.0,-0.055184368044137955,3.923635700109488e-44,6.877092156490476e-27,-5.635390657056978e+35
1553324502951485,-4.055991211737922e-18,1.268466121272296e-21,0.0,-1.370269775390625,3.923635700109488e-44,-0.00043854862451553345,2.695395531362053e-29,-2.3977247732559498e-21,-4.055936617817493e-18,1.2684896482599333e-21,0.0,-1.3773499727249146,3.923635700109488e-44,4.470621206564829e-09,-3.3177183037107567e+22
1688850129963780,-6.938893903907228e-18,-3.945423525299115e-24,1.0316359294359303e-41,-1.6155871338926322e-27,2.641200976722559e-39,-3.0517578125e-05,-3.6114116583559963e-35,1.0846958747867674e-11,-2.0931600259862452e-17,-4.15231965263324e-24,1.0316359294359303e-41,-1.6940658945086007e-21,2.641200976722559e-39,-536870912.0,406656286720.0
1970320541351936,0.0,0.0,0.0,7.146622168056567e-44,0.0,0.02654660865664482,3.651682253111842e-23,2.6558277300931815e-39,0.0,0.0,-6.462348535570529e-27,2.152394441202919e-42,7.450580596923828e-09,7.243131505122077e-25,2.9791938753603993e-27
1689949371891740,nan,9.182989096413391e-41,1.401298464324817e-45,0.0,8.407790785948902e-45,1.0,0.0485808365046978,9.968943361505622e-15,2.6613152148794774e-39,2.350988701644575e-38,0.0,3.587324068671532e-43,1.002445451273688e-14,2.6613152148794774e-39,2.350988701644575e-38
1688944366321664,9.182708836720526e-41,9.183549615799121e-41,0.0,nan,0.0,-1.3903750625357123e-37,-6.593271712446017e-26,1.303614709331165e-25,4.0637655465419695e-44,3.587324068671532e-43,2.350988701644575e-38,-6.583517570612476e-26,1.3036148325906813e-25,4.0637655465419695e-44,0.0032501816749572754
1553329472926399,-4.055991211737922e-18,2.1583587776532422e-21,0.0,8.061847833729617e-18,4.0637655465419695e-44,-2.5015083338075783e-09,-1.299163244191004e-34,0.0033858560491353273,-1.0139973893441742e-18,2.1583607971371596e-21,0.0,8.063965416097753e-18,4.0637655465419695e-44,6.6229119668831315e-31,-6.488681062081025e-33
1970367803424768,9.185511433649176e-41,nan,0.0,3.03057137321371e-39,0.0,-3.7652744495530974e-21,-6.593229804210428e-26,5.310198392116661e-10,4.0637655465419695e-44,3.587324068671532e-43,2.350988701644575e-38,-6.583517570612476e-26,5.310198947228173e-10,4.0637655465419695e-44,24.12548828125
1970329131941888,1.8369621568834027e-40,9.183409485952689e-41,0.0,1.1203930531274928e-38,0.0,-3.3928415632544784e-13,-6.593237816078996e-26,4.441083945039281e-09,4.0637655465419695e-44,0.0,0.0,2.418065348038372e-35,0.0,-1.0650049893962248e+37,-2.7098081556431453e-09
1689472630521856,0.0,0.1835944950580597,-8.299876268006692e-16,4.4833703515247446e-33,-6.592921655419326e-26,0.0014670550590381026,4.0637655465419695e-44,0.0,2.350988701644575e-38,-6.583517570612476e-26,0.0014670551754534245,4.0637655465419695e-44,0.51171875,-4.795896573731272e+35,-5.906212045559664e-29
1970324836974621,nan,nan,1.401298464324817e-45,0.0,9.168135332691548e-41,0.0,0.046748872846364975,-1.460672901244737e-22,2.685399331585828e-39,0.0,0.0,-1.6155871338926322e-27,2.152394441202919e-42,7.450580596923828e-09,1.8562353545247228e-31
1689485515423744,0.0,-1.9342232931590403e-16,-6.440871043603694e-35,-6.438795718821666e-09,-6.593007320783252e-26,0.829028308391571,4.0637655465419695e-44,0.0,2.350988701644575e-38,-6.583517570612476e-26,0.8290283679962158,4.0637655465419695e-44,1.2272308984584602e+17,nan,2.8512466482146774e-38
1970317315924104,-2.6266945614986583e-25,2.6897699814960572e-39,2.350988701644575e-38,2.673270227135049e-21,0.0,0.11047308892011642,1.1154651641845703,-0.011831091716885567,-1.6315866813498325e-26,2.6897713827945215e-39,0.0,2.67332152202655e-21,0.0,-2.213683605194092,1.3350239992141724
1688850928875589,-2.754288876518017e-19,2.6996239122971893e-39,2.350988701644575e-38,3.0368175199908468e-21,0.0,0.21487218141555786,0.7117176055908203,-0.03100643679499626,1.4839194421709476e-38,2.6996253135956536e-39,0.0,3.0368375128816287e-21,0.0,1.104680061340332,-0.44626206159591675
1689949371891741,nan,9.183129226259824e-41,0.0,0.0,9.177383902556092e-41,1.0,0.013318631798028946,-3.802850098230599e-20,2.7029155623898883e-39,2.350988701644575e-38,0.0,3.587324068671532e-43,-3.8240259219119565e-20,2.7029155623898883e-39,2.350988701644575e-38
1689949371891741,1.836808014052327e-40,2.802596928649634e-45,0.008236120454967022,-0.013770978897809982,0.0020353072322905064,0.6875,5.8714405655209835e-43,-6.583517570612476e-26,-1.3730527360509505e-24,4.0637655465419695e-44,-1.7487744821589912e-31,-1.1426901817321777,-2.112347796678904e-10,-2.4027538314021213e-13,398.52777099609375
1689481220456448,0.0,3.0544160006136516e-34,-40.05661392211914,-4.5117460103938356e-05,-6.59306833424389e-26,-1.2125356057754444e-12,4.0637655465419695e-44,0.0,2.350988701644575e-38,-6.583517570612476e-26,-1.2125357141956616e-12,4.0637655465419695e-44,1.1368683772161603e-10,646913984.0,7.371040609397365e+22
1689481220456448,0.0,-1.9467886593164438e-25,2.678709900251114e-27,3.05132849123282e-35,-6.59298451777271e-26,-8.462206840515137,4.0637655465419695e-44,0.0,2.350988701644575e-38,-6.583517570612476e-26,-8.462207794189453,4.0637655465419695e-44,0.859375,4.511480648287851e+27,1.8853994869180588e-31
1689485515423744,0.0,-9.614289302155114e-31,-6.2403667599761045e-18,3.759307177499869e-22,-6.593009169675999e-26,-70.9886703491211,4.0637655465419695e-44,0.0,2.350988701644575e-38,-6.583517570612476e-26,-70.98867797851562,4.0637655465419695e-44,7.46133904293404e+23,0.02761700190603733,1.2084519510228712e+36
1751549185771782,-6.938893903907228e-18,-1.888823391027472e-07,1.0768978698336219e-41,0.0,0.0,-6.583517570612476e-26,1.6957143119366093e-35,4.203895392974451e-44,9.101675075074102e-21,9.101829363645389e-21,1.119551432354586e-13,-1.3090413174589105e-38,-4.6064999324223786e-38,3.506339667301886e-38,1.5629609992717454e-37
1970483754762240,1.401298464324817e-45,0.008237846195697784,-0.010758781805634499,-9.80030235950835e-05,0.6875,5.8714405655209835e-43,-6.583517570612476e-26,6.4898088607485626e-31,4.203895392974451e-44,-2.5673907444456745e-15,-1.5548711174017294e-16,7.195451259613037,2.825759266813276e+29,2.684430804030175e-22,-1.8023535187226012e+22
1890883717674687,1.6115565477050186e-27,-8.575388884879079e-38,1.23358686021903e-39,6.1477294366341084e-09,12.172056198120117,-1.0383335384466712e-15,7.562922034095135e-21,0.0,2.018945985848338e-37,4.556539599832533e-31,2.6166646031337028e-17,8.96831017167883e-44,-1.0383133155350555e-15,7.562922034095135e-21,0.0
1689949371891742,nan,nan,1.401298464324817e-45,0.0,3.2229864679470793e-44,1.0,0.0845058485865593,9.735296251470334e-18,2.7620335420028237e-39,2.350988701644575e-38,0.0,3.587324068671532e-43,9.789506360094609e-18,2.7620335420028237e-39,2.350988701644575e-38
1689489810391040,0.0,-3.50299110207076e-36,2.874007868374865e-32,3.361666032822004e-15,-6.593040600852691e-26,3.3423490094719455e-05,4.203895392974451e-44,0.0,2.350988701644575e-38,-6.583517570612476e-26,3.342349373269826e-05,4.203895392974451e-44,-2.408406906263519e+24,2.579906232223761e-13,1.0492053886146076e-19
1688875630198772,0.0,0.0,nan,0.0,-0.01448047161102295,-6.59320515230714e-26,0.16271667182445526,4.203895392974451e-44,3.587324068671532e-43,2.350988701644575e-38,-6.583517570612476e-26,0.16271668672561646,4.203895392974451e-44,3934257152000.0,-9.52312818710619e-32
1739454843084038,-6.938893903907228e-18,-4.3075645828061226e-10,1.0850254009267059e-41,0.0,0.0,-6.583517570612476e-26,1.3747477531433105,4.203895392974451e-44,1.2333715297563133e-22,1.2333956373455768e-22,4.1318052100105507e-17,-3.506583639144489e-18,1.7959476626052257e-19,-4.698233124643363e-30,2.6484540975739043e-43
1738355297900294,-6.938893903907228e-18,4.226293185638497e-06,1.0853056606195708e-41,0.0,0.0,-6.583517570612476e-26,11.411312103271484,4.203895392974451e-44,1.2333715297563133e-22,1.2333956373455768e-22,8.459588565376227e-16,-3.521512594839846e-18,0.0005616871640086174,9.3442565685109e-07,2.6484540975739043e-43
1688829454492282,5.93567776868379e-38,2.7855669484126946e-39,0.0,1.1277570445220573e-20,0.0,-1.0884087085723877,0.45874619483947754,-9.241543769836426,6.262527850863119e-32,2.7855669484126946e-39,0.0,1.127757933094981e-20,0.0,-0.0689200907945633,0.159746453166008
1688842339142992,3.798833771957626e-36,2.7943250638147247e-39,0.0,1.2570041767921813e-20,0.0,2.6848530769348145,-0.6042793989181519,-8.834528923034668,1.002004456138099e-30,2.7943250638147247e-39,0.0,1.257005065365105e-20,0.0,-0.2819729447364807,-0.33134037256240845
1688842339225086,-6.52634672539933e-26,2.7948687676188828e-39,0.0,1.2650394609613097e-20,0.0,1.4973291158676147,-1.0065052509307861,-9.557578086853027,-6.885722191295043e-20,2.7948687676188828e-39,0.0,1.2650405110929467e-20,0.0,-0.25747185945510864,-0.12041805684566498
1970290477039616,9.183269356106256e-41,1.401298464324817e-45,0.0,9.167714943152251e-41,0.0,0.026319602504372597,-1.460672901244737e-22,2.7992548318122195e-39,0.0,0.0,-1.0339757656912846e-25,2.152394441202919e-42,7.450580596923828e-09,2.7159945558234897e-30,2793153232896.0
1970277591941376,2.755050871755093e-40,0.0,0.0,9.16995702069517e-41,1.0,0.0490906797349453,0.0006850605714134872,2.7998027395117705e-39,2.350988701644575e-38,0.0,3.587324068671532e-43,0.0006888752686791122,2.7998027395117705e-39,2.350988701644575e-38,0.02737690880894661
1689489810391040,0.0,9.148007529134728e-19,-1.7721664784882676e-19,5.033212066263585e-26,-6.592925969502401e-26,-6.594037311728629e-30,4.203895392974451e-44,0.0,2.350988701644575e-38,-6.583517570612476e-26,-6.594038064045013e-30,4.203895392974451e-44,-2.3096799850463867e-07,2.7413587182319897e+38,0.007102568633854389
1688867040133120,9.183689745645554e-41,1.401298464324817e-45,0.0,9.178364811481119e-41,0.0,0.01448881346732378,0.002694465918466449,2.8085608549138006e-39,0.0,0.0,-1.0339757656912846e-25,2.152394441202919e-42,7.450580596923828e-09,3730380423168.0,282614104064.0
1553331287313983,-4.055991211737922e-18,1.5891183236432156e-20,0.0,-1.2158239815628322e-25,4.203895392974451e-44,9.947503394398526e-33,-1.3683954423303616e-31,-1.716126013695795e-34,-1.0139841544543733e-18,1.58916000579127e-20,0.0,-1.2239335949280207e-25,4.203895392974451e-44,5.22602371253346e-21,2.2350436117753864e-13
1970346311745536,4.203895392974451e-45,1.401298464324817e-45,0.0,9.668959403841238e-44,0.0,0.0200160164386034,-4.210102997603826e-05,2.810749683115076e-39,0.0,0.0,-1.6155871338926322e-27,2.152394441202919e-42,7.450580596923828e-09,-40468255604736.0,nan
1688846634112008,-4.202711298397853e-24,2.8123835971244787e-39,2.350988701644575e-38,1.6917735379243204e-20,0.0,-0.0791497677564621,0.13965316116809845,0.0403684563934803,-2.5493541896091132e-28,2.812384998422943e-39,0.0,1.6918137660439543e-20,0.0,-1.3852897882461548,0.09961593896150589
1689481220456448,0.0,-1.7690740745882543e-25,9.64681080243418e-14,5.744555320439973e-24,-6.592950621405689e-26,-7.2253497553592155e-19,4.203895392974451e-44,0.0,2.350988701644575e-38,-6.583517570612476e-26,-7.225350272347098e-19,4.203895392974451e-44,-7.264316082000732e-08,-3149632000.0,-46244659462144.0
1716365015020806,-6.938893903907228e-18,3.1816398492722334e-19,1.1011403332664413e-41,0.0,0.0,-6.583517570612476e-26,-9.358412711435449e-09,4.203895392974451e-44,1.2333715297563133e-22,1.2333956373455768e-22,2.4043065174672473e-23,-3.535806275824762e-18,-0.004058860242366791,871723.75,8.547920632381384e-44
1713066798910214,-6.938893903907228e-18,2.928820033720747e-11,1.1015607228057387e-41,0.0,0.0,-6.583517570612476e-26,-6.483276138169458e-07,4.203895392974451e-44,1.2333715297563133e-22,1.2333956373455768e-22,3.4443304797188614e-23,-3.535806275824762e-18,-2.0841384641196386e-26,2.3224008640124714e-15,8.407790785948902e-44
1742753428308998,-6.938893903907228e-18,0.0029878367204219103,1.1019811123450361e-41,0.0,0.0,-6.583517570612476e-26,-4.465480742510408e-05,4.203895392974451e-44,1.2333715297563133e-22,1.2333956373455768e-22,2.271822219372991e-22,-3.535806275824762e-18,1.549747677999799e-28,-1.2729113763043642e-08,2.620428128287408e-43
1970320542007296,0.0,0.0,0.0,1.6815581571897805e-44,0.0,0.008170095272362232,1.5316265480956013e-16,2.8277194075180495e-39,0.0,0.0,-6.462348535570529e-27,2.152394441202919e-42,7.450580596923828e-09,-55227910717440.0,2.859403094933417e-34
1970333426974720,nan,0.0,0.0,7.006492321624085e-45,0.0,0.012331589125096798,-1.4957290508746106e-19,2.8299082357193248e-39,0.0,0.0,-1.0097419586828951e-28,2.152394441202919e-42,7.450580596923828e-09,5.893193991053686e-35,3.63935059011481e-22
1688836975296512,2.802596928649634e-45,0.0,0.0,1.3592595103950726e-43,0.0,0.01152797881513834,-5.842691604978948e-22,2.838666351121355e-39,0.0,0.0,-1.0097419586828951e-28,2.152394441202919e-42,7.450580596923828e-09,418.140625,5.988820550584251e-09
1688832680394752,2.802596928649634e-45,0.0,0.0,1.0369608636003646e-43,0.0,0.011161946691572666,2.7591331005096436,2.839214258820906e-39,0.0,0.0,-1.0097419586828951e-28,2.152394441202919e-42,7.450580596923828e-09,-2.531017578047411e-21,1.8133307695388794
1688841287106560,0.0,0.0,0.0,7.255004196481306e-39,0.0,5.410911398939788e-07,-6.592945074727449e-26,nan,4.203895392974451e-44,3.587324068671532e-43,2.350988701644575e-38,-6.583517570612476e-26,nan,4.203895392974451e-44,3694427788804096.0
1508529953308672,4.344025239406933e-44,1.9480417279282847e-11,2.2363110474543646e-07,2.6148559152544467e-31,-4.055991211737922e-18,2.710953271967276e-20,0.0,4.957681862904057e-40,4.344025239406933e-44,6.581371868950275e-25,-2.7626377955059258e-30,-1.7163312435150146,-1.0139973893441742e-18,2.711057315778699e-20,0.0
1688845565296640,7.006492321624085e-45,0.0,0.0,1.2305956485170822e-38,0.0,-4.665298654799076e-22,-6.593024577115554e-26,3.100016227464681e-36,4.344025239406933e-44,0.0,0.0,2.4182122848322246e-35,0.0,-3.7673216411411945e-37,-5.372671210150691e+19
1832914606499846,-6.938893903907228e-18,4.990754124122596e-15,1.1137520194453646e-41,0.0,0.0,-6.583517570612476e-26,1.2921706287007255e-31,4.344025239406933e-44,1.2333715297563133e-22,1.2333956373455768e-22,4.5801690142020765e-23,-3.535806275824762e-18,8.04005663908273e+22,1.052324124197709e-34,8.547920632381384e-44
1843909940880390,-6.938893903907228e-18,4.038417102947278e-07,1.114172408984662e-41,0.0,0.0,-6.583517570612476e-26,8.917774856976509e-30,4.344025239406933e-44,1.2333715297563133e-22,1.2333956373455768e-22,1.2366460440422314e-23,-3.535806275824762e-18,1.2722014330655347e-36,-2.2082867090489344e-08,8.407790785948902e-44
1858203524931590,-6.938893903907228e-18,-0.005060146097093821,1.1143125388310945e-41,0.0,0.0,-6.583517570612476e-26,7.402617482631012e-29,4.344025239406933e-44,1.2333715297563133e-22,1.2333956373455768e-22,8.384644000552185e-24,-3.535806275824762e-18,3.868697067722801e-22,-1.0660196900918147e-23,8.407790785948902e-44
1774639785591558,-6.938893903907228e-18,-3.3374389948594164e-34,1.1166947462204467e-41,0.0,0.0,-6.583517570612476e-26,9.20876601307828e-19,4.344025239406933e-44,1.2333715297563133e-22,1.2333956373455768e-22,1.1871010132674324e-21,-3.535806275824762e-18,4.5285078637934523e-38,3.045576432328149e-35,2.6484540975739043e-43
1688845565296896,0.0,0.0,0.0,7.286752014489049e-44,1.0,0.006309364456683397,2.8060081005096436,2.8611095473259812e-39,2.350988701644575e-38,0.0,3.587324068671532e-43,2.8216331005096436,2.8611095473259812e-39,2.350988701644575e-38,0.019651317968964577
1762545006700550,-6.938893903907228e-18,-2.9789927484119885e-18,1.1175355252990416e-41,0.0,0.0,-6.583517570612476e-26,4.507216472336532e-15,4.344025239406933e-44,1.2333715297563133e-22,1.2333956373455768e-22,8.321145651728378e-22,-3.535806275824762e-18,-3.647813663491044e+19,-1.5111661289554418e+27,8.407790785948902e-44
1689949371891743,4.203895392974451e-45,0.0,0.00834133755415678,-0.013770978897809982,0.0020353072322905064,0.6875,5.8714405655209835e-43,-6.583517570612476e-26,1.7227898274629894e-10,4.344025239406933e-44,6.03975203183893e-13,-1.5009200576022355e-28,2.0542624599909457e+35,-5.595327836785546e-32,4.508015081228223e-06
1688849860263967,2.802596928649634e-45,0.0,0.008354421705007553,-0.010758781805634499,-9.80030235950835e-05,0.6875,5.8714405655209835e-43,-6.583517570612476e-26,0.0036983026657253504,4.344025239406933e-44,-1.4155343563970746e-15,1.058282563803914e-07,0.0008058712119236588,2.5776816085815074e+27,3.272820443782416e-23
1970329131941888,0.0,0.0,0.0,9.167855072998683e-41,0.0,0.009463023394346237,2.450602476952962e-15,2.88026809993023e-39,0.0,0.0,-6.462348535570529e-27,2.152394441202919e-42,7.450580596923828e-09,1.896244911308543e-24,5.080909944472234e+26
1689472630521856,0.0,-0.08984412252902985,-5.303490979713388e-09,0.00232291198335588,-6.592993145938861e-26,-4.9878382542718355e-37,4.344025239406933e-44,0.0,2.350988701644575e-38,-6.583517570612476e-26,-4.987838702687344e-37,4.344025239406933e-44,1.8611563782443123e-24,-7335.51708984375,-1.1272133937410867e+17
1722962739094790,-6.938893903907228e-18,-2.436542274608655e-07,1.1305676010172624e-41,0.0,0.0,-6.583517570612476e-26,-4.244612238618687e-36,4.344025239406933e-44,1.2333715297563133e-22,1.2333956373455768e-22,2.7113116091935735e-20,-3.535806275824762e-18,-4.745684653891928e-25,-2.5146375529090253e+17,8.267660939516421e-44
1713066916342022,-6.938893903907228e-18,-11.863179206848145,1.1309879905565599e-41,0.0,0.0,-6.583517570612476e-26,-2.910038202861308e-34,4.344025239406933e-44,1.2333715297563133e-22,1.2333956373455768e-22,1.9348476695064167e-20,-3.535806275824762e-18,-1.267808386028521e-29,2.4218507282688747e-36,8.547920632381384e-44
1688824090722304,1.836695910175181e-40,0.0,0.0,9.172619487777388e-41,0.0,0.01950703002512455,-5.982916203498442e-19,2.8999731589355657e-39,0.0,0.0,-4.0389678347315804e-28,2.152394441202919e-42,7.450580596923828e-09,11634261098496.0,1.9929855260141014e-35
1688832680526080,3.6734058333350052e-40,9.183409485952689e-41,0.0,9.176823383170362e-41,1.0,0.01677163504064083,2.6760178570839344e-06,2.9005210666351167e-39,2.350988701644575e-38,0.0,3.587324068671532e-43,2.690919018277782e-06,2.9005210666351167e-39,2.350988701644575e-38,0.034957122057676315
1821919423113222,-6.938893903907228e-18,-2.5701283552056586e-31,1.133370197945912e-41,0.0,0.0,-6.583517570612476e-26,-3.636558842925669e-24,4.344025239406933e-44,1.2333715297563133e-22,1.2333956373455768e-22,2.4246805463955262e-24,-3.535806275824762e-18,9.171517590745232e+21,-0.1010718122124672,8.407790785948902e-44
1827417048363270,-6.938893903907228e-18,-2.3244898866213474e-23,1.1337905874852095e-41,0.0,0.0,-6.583517570612476e-26,-2.5462127808868464e-22,4.344025239406933e-44,1.2333715297563133e-22,1.2333956373455768e-22,2.2880624593857305e-24,-3.535806275824762e-18,9.349951288845562e+23,-6617.34228515625,8.267660939516421e-44
1834014470448134,-6.938893903907228e-18,-2.2039435180971944e-15,1.134210977024507e-41,0.0,0.0,-6.583517570612476e-26,-1.76978329359532e-20,4.344025239406933e-44,1.2333715297563133e-22,1.2333956373455768e-22,3.028001366708556e-24,-3.535806275824762e-18,15544073846784.0,-5.563942137618591e-32,2.6064151436441598e-43
1837313038884102,-6.938893903907228e-18,9.863105341137435e-13,1.1344912367173719e-41,0.0,0.0,-6.583517570612476e-26,-1.453281373012657e-19,4.344025239406933e-44,1.2333715297563133e-22,1.2333956373455768e-22,3.045722338083441e-24,-3.535806275824762e-18,8404202422272.0,-4.4051420803450234e-17,7.987401246651457e-44
1841710984732422,-6.938893903907228e-18,-2.1030275831890322e-07,1.1346313665638044e-41,0.0,0.0,-6.583517570612476e-26,-1.2226056189875707e-18,4.344025239406933e-44,1.2333715297563133e-22,1.2333956373455768e-22,3.0821740227918933e-24,-3.535806275824762e-18,2521896583168.0,-0.22820945084095,7.987401246651457e-44
1689476925489152,0.0,-9.015230943987262e-07,8.375551918682334e-10,-2.637149565567456e-17,-6.593003006700177e-26,-4.6059683167119433e-14,4.344025239406933e-44,0.0,2.350988701644575e-38,-6.583517570612476e-26,-4.605968655525122e-14,4.344025239406933e-44,3.4088960015654075e-32,-0.0020636047702282667,1.9306363153182106e-28
1689481220456448,0.0,1.1956220114529993e-30,6.817058508431226e-35,-0.0008134198724292219,-6.592958633274258e-26,-0.0048486231826245785,4.344025239406933e-44,0.0,2.350988701644575e-38,-6.583517570612476e-26,-0.004848623648285866,4.344025239406933e-44,-10878976.0,-3697692639232.0,-1.1709912726019859e-36
1970311952072960,nan,9.183409485952689e-41,0.0,4.624284932271896e-44,1.0,0.01138318795710802,-0.010960969142615795,2.9289842410424824e-39,2.350988701644575e-38,0.0,3.587324068671532e-43,-0.011022004298865795,2.9289842410424824e-39,2.350988701644575e-38,0.03609476983547211
1755947433619462,-6.938893903907228e-18,7.5174723403882485e-34,1.149905519824945e-41,0.0,0.0,-6.583517570612476e-26,1.6825759065353717e-30,4.484155085839415e-44,1.2333715297563133e-22,1.2333956373455768e-22,6.021690340876006e-25,-3.535806275824762e-18,-3.593565608046762e-23,1.01426373078084e-07,7.987401246651457e-44
1750449858703622,-6.938893903907228e-18,-1.4736778989094996e-28,1.1500456496713774e-41,0.0,0.0,-6.583517570612476e-26,1.4323809053357332e-29,4.484155085839415e-44,1.2333715297563133e-22,1.2333956373455768e-22,5.5859866857043365e-25,-3.535806275824762e-18,-6.656372472415364e-22,4.462899349953457e-38,2.634441112930656e-43
1761445109195526,-6.938893903907228e-18,5.334569247644812e-18,1.1507462989035398e-41,0.0,0.0,-6.583517570612476e-26,8.222836475503034e-27,4.484155085839415e-44,1.2333715297563133e-22,1.2333956373455768e-22,1.5198066996167047e-24,-3.535806275824762e-18,1.2822437939380568e+37,-32.0651741027832,2.634441112930656e-43
1970324836974624,9.183970005338419e-41,2.802596928649634e-45,0.00844618584960699,-0.010758781805634499,-9.80030235950835e-05,0.6875,5.8714405655209835e-43,-6.583517570612476e-26,6.915253919078124e-26,4.484155085839415e-44,-6.288441989354965e-13,1.1508864287499723e-41,-8.404155023538761e-22,-8.427927974795113e+20,3682290.5
1758146591085830,-6.938893903907228e-18,3.6891081856005314e-10,1.1511666884428372e-41,0.0,0.0,-6.583517570612476e-26,5.681153386196002e-25,4.484155085839415e-44,1.2333715297563133e-22,1.2333956373455768e-22,3.709867292417405e-24,-3.535806275824762e-18,1565862.0,1.6754861908140146e-38,2.6484540975739043e-43
1688849859543022,nan,0.0,4.683610304057552e-39,0.0,-2.6818746422617694e-25,-6.593276026529093e-26,2.735318638258377e-10,4.484155085839415e-44,0.0,0.0,2.417918411244519e-35,0.0,1.0858565337106105e-19,50132041728.0,-48286.12109375
1970346311811062,nan,0.0,nan,0.0,-4.4141712472247825e-31,-6.593200221926482e-26,1.5853656520903314e-07,4.484155085839415e-44,3.587324068671532e-43,2.350988701644575e-38,-6.583517570612476e-26,1.5853657941988786e-07,4.484155085839415e-44,-5910009217024.0,8.710718044710085e+33
1688879924969462,nan,0.0,3.6734198463196485e-39,0.0,nan,-6.5931996056289e-26,1.3178269000491127e-06,4.484155085839415e-44,0.0,0.0,2.4178449428475926e-35,0.0,-1.586981101924516e+29,1.0112881040043639e-17,-1.455007628681994e+28
1688922874642424,nan,0.0,3.948926334793622e-39,0.0,-2.5428293796987723e-34,-6.593252607220969e-26,9.064411278814077e-05,4.484155085839415e-44,0.0,0.0,2.4176245376568134e-35,0.0,3.96745275481129e+28,1.4331825783770618e-31,5.641510093987362e+25
1970324836974592,8.407790785948902e-45,4.5917748078995606e-39,0.00022540238569490612,0.005702692549675703,0.01137953344732523,1.0949392870291724e-18,2.9979631579488715e-39,0.0,2.79693624094972e-19,0.0,0.18530648946762085,0.12834635376930237,-9.75869083404541,1.1552324851935025e-12,2.9979631579488715e-39
1688871335100416,0.0,9.639089549983444e-36,-2.3916008559711342e-31,-1.9398638471440134e-38,-6.59299561112919e-26,-0.007563733961433172,4.484155085839415e-44,0.0,2.350988701644575e-38,-6.583517570612476e-26,-0.0075637344270944595,4.484155085839415e-44,4.269395482186548e-35,-214665502130176.0,-0.0816575214266777
1688849860263936,8.407790785948902e-45,4.5917748078995606e-39,0.00011818335769930854,0.0007257665856741369,0.000692744564730674,9.507125245576498e-21,3.020397946362712e-39,0.0,0.0,3.587324068671532e-43,9.560064804779891e-21,3.020397946362712e-39,0.0,0.02133571356534958,0.008603136986494064
1688849860263936,8.407790785948902e-45,4.5917748078995606e-39,0.00012522593897301704,0.001076925196684897,0.0013806119095534086,9.066701169563768e-27,3.0220402681629005e-39,0.0,0.0,3.587324068671532e-43,9.117188267497913e-27,3.0220402681629005e-39,0.0,0.02125414088368416,0.00859210267663002
1688849860263936,8.407790785948902e-45,4.5917748078995606e-39,0.00012360447726678103,0.001367810065858066,0.0021265435498207808,-3.7137207990533194e-23,3.024229096364176e-39,0.0,0.0,3.587324068671532e-43,-3.734400314367145e-23,3.024229096364176e-39,0.0,0.02112552896142006,0.00860278308391571
1970324836974592,8.407790785948902e-45,4.5917748078995606e-39,0.0001034181987051852,0.0017158417031168938,0.0031285651493817568,1.0453194754234119e-08,3.031892797665568e-39,0.0,0.0,3.587324068671532e-43,1.0511402415147586e-08,3.031892797665568e-39,0.0,0.0208023339509964,0.008573716506361961
1970324836974592,8.407790785948902e-45,4.5917748078995606e-39,9.202619548887014e-05,0.001706407405436039,0.0030935783870518208,-6.690044642709836e-07,3.0340816258668436e-39,0.0,0.0,3.587324068671532e-43,-6.727297545694455e-07,3.0340816258668436e-39,0.0,0.020707910880446434,0.008611430414021015
1970324836974592,8.407790785948902e-45,4.5917748078995606e-39,7.02033139532432e-05,0.0009099565795622766,0.0017245711060240865,-4.1812779016936474e-08,3.042839741268874e-39,0.0,0.0,3.587324068671532e-43,-4.2045609660590344e-08,3.042839741268874e-39,0.0,0.02040668949484825,0.008646462112665176
1970324836974592,8.407790785948902e-45,4.5917748078995606e-39,5.99442319071386e-05,0.0004241921997163445,0.0008763917139731348,-1.4166720577443387e-28,3.0444820630690624e-39,0.0,0.0,3.587324068671532e-43,-1.4245606667965489e-28,3.0444820630690624e-39,0.0,0.020333871245384216,0.008627694100141525
1970324836974592,8.407790785948902e-45,4.5917748078995606e-39,6.770206528017297e-05,0.0005556955584324896,0.0010738031705841422,4.1812779016936474e-08,3.0450299707686134e-39,0.0,0.0,3.587324068671532e-43,4.2045609660590344e-08,3.0450299707686134e-39,0.0,0.020315464586019516,0.008635866455733776
1970324836974592,8.407790785948902e-45,4.5917748078995606e-39,5.520200284081511e-05,0.00015574081044178456,0.00030523171881213784,1.4854883196213277e-22,3.046672292568802e-39,0.0,0.0,3.587324068671532e-43,1.493760125746858e-22,3.046672292568802e-39,0.0,0.020261574536561966,0.008648809976875782
1970324836974592,8.407790785948902e-45,4.5917748078995606e-39,4.196189547656104e-05,0.00026550315669737756,0.0006462838500738144,1.4506721871302029e-25,3.059809465671847e-39,0.0,0.0,3.587324068671532e-43,1.458750122799666e-25,3.059809465671847e-39,0.0,0.019873499870300293,0.00869819801300764
1970324836974592,8.407790785948902e-45,4.5917748078995606e-39,4.42570963059552e-05,0.0001882564538391307,0.00035411756834946573,-1.672511160677459e-07,3.060355972072934e-39,0.0,0.0,3.587324068671532e-43,-1.6818243864236138e-07,3.060355972072934e-39,0.0,0.019852176308631897,0.008706433698534966
1970324836974592,8.407790785948902e-45,4.5917748078995606e-39,3.674087201943621e-05,9.39825113164261e-05,0.00016674415383022279,-1.4506721871302029e-25,3.0619982938731227e-39,0.0,0.0,3.587324068671532e-43,-1.458750122799666e-25,3.0619982938731227e-39,0.0,0.019807111471891403,0.008666899986565113
1970324836974592,8.407790785948902e-45,4.5917748078995606e-39,3.777663368964568e-05,0.00030783505644649267,0.00031003248295746744,2.6132986885585296e-09,3.0625462015726737e-39,0.0,0.0,3.587324068671532e-43,2.6278506037868965e-09,3.0625462015726737e-39,0.0,0.019799889996647835,0.008654563687741756
