TimeUS,PLX,PLY,PLZ,AX,AY,BX,BY,CX,CY,F,P,X,Y,SW
897258001,0.20057359337806702,0.09278727322816849,-23.511489868164062,0.0,0.0,0.0,0.0,0.0,0.0,0.5794000029563904,0.0,0.0,0.0,0
897268167,0.19294428825378418,0.09303833544254303,-23.517065048217773,0.0,0.0,0.0,0.0,0.0,0.0,0.5794000029563904,0.0,0.0,0.0,0
897278775,0.19661349058151245,0.094040147960186,-23.523183822631836,0.0,0.0,0.0,0.0,0.0,0.0,0.5794000029563904,0.0,0.0,0.0,0
897287953,0.1909954994916916,0.09845589101314545,-23.522859573364258,0.0,0.0,0.0,0.0,0.0,0.0,0.5794000029563904,0.0,0.0,0.0,0
897297930,0.19183340668678284,0.09386316686868668,-23.51459312438965,0.0,0.0,0.0,0.0,0.0,0.0,0.5794000029563904,0.0,0.0,0.0,0
897307854,0.19277523458003998,0.09730822592973709,-23.512130737304688,0.0,0.0,0.0,0.0,0.0,0.0,0.5794000029563904,0.0,0.0,0.0,0
897318134,0.19618040323257446,0.1069585457444191,-23.5156307220459,0.0,0.0,0.0,0.0,0.0,0.0,0.5794000029563904,0.0,0.0,0.0,0
897328269,0.19575120508670807,0.10958525538444519,-23.517375946044922,0.0,0.0,0.0,0.0,0.0,0.0,0.5794000029563904,0.0,0.0,0.0,0
897337845,0.19145099818706512,0.10438107699155807,-23.517593383789062,0.0,0.0,0.0,0.0,0.0,0.0,0.5794000029563904,0.0,0.0,0.0,0
897347939,0.18935348093509674,0.09688230603933334,-23.51348114013672,0.0,0.0,0.0,0.0,0.0,0.0,0.5794000029563904,0.0,0.0,0.0,0
897357806,0.1952536702156067,0.10188361257314682,-23.509769439697266,0.0,0.0,0.0,0.0,0.0,0.0,0.5794000029563904,0.0,0.0,0.0,0
897368253,0.19385097920894623,0.10830066353082657,-23.513593673706055,0.0,0.0,0.0,0.0,0.0,0.0,0.5794000029563904,0.0,0.0,0.0,0
897378127,0.19567809998989105,0.10863400250673294,-23.514314651489258,0.0,0.0,0.0,0.0,0.0,0.0,0.5794000029563904,0.0,0.0,0.0,0
897387854,0.20281095802783966,0.0963638424873352,-23.509267807006836,0.0,0.0,0.0,0.0,0.0,0.0,0.5794000029563904,0.0,0.0,0.0,0
897397858,0.19922737777233124,0.09227120876312256,-23.514406204223633,0.0,0.0,0.0,0.0,0.0,0.0,0.5794000029563904,0.0,0.0,0.0,0
897407875,0.19258782267570496,0.1024731919169426,-23.524375915527344,0.0,0.0,0.0,0.0,0.0,0.0,0.5794000029563904,0.0,0.0,0.0,0
897418164,0.18963275849819183,0.11314728856086731,-23.527841567993164,0.0,0.0,0.0,0.0,0.0,0.0,0.5794000029563904,0.0,0.0,0.0,0
897428329,0.18492716550827026,0.10086208581924438,-23.514543533325195,0.0,0.0,0.0,0.0,0.0,0.0,0.5794000029563904,0.0,0.0,0.0,0
897437870,0.19235581159591675,0.0976594015955925,-23.504919052124023,0.0,0.0,0.0,0.0,0.0,0.0,0.5794000029563904,0.0,0.0,0.0,0
897447956,0.1956460326910019,0.09767595678567886,-23.51315689086914,0.0,0.0,0.0,0.0,0.0,0.0,0.5794000029563904,0.0,0.0,0.0,0
897457860,0.1952940821647644,0.09790074825286865,-23.518171310424805,0.0,0.0,0.0,0.0,0.0,0.0,0.5794000029563904,0.0,0.0,0.0,0
897468166,0.19732579588890076,0.09742611646652222,-23.524028778076172,0.0,0.0,0.0,0.0,0.0,0.0,0.5794000029563904,0.0,0.0,0.0,0
897478213,0.19485405087471008,0.09414977580308914,-23.51612091064453,0.0,0.0,0.0,0.0,0.0,0.0,0.5794000029563904,0.0,0.0,0.0,0
897487926,0.19775079190731049,0.09481638669967651,-23.508724212646484,0.0,0.0,0.0,0.0,0.0,0.0,0.5794000029563904,0.0,0.0,0.0,0
897497898,0.1946297436952591,0.10015711933374405,-23.50336265563965,0.0,0.0,0.0,0.0,0.0,0.0,0.5794000029563904,0.0,0.0,0.0,0
897507886,0.1903877854347229,0.10387483239173889,-23.512277603149414,0.0,0.0,0.0,0.0,0.0,0.0,0.5794000029563904,0.0,0.0,0.0,0
897518161,0.1932835429906845,0.09642485529184341,-23.521127700805664,0.0,0.0,0.0,0.0,0.0,0.0,0.5794000029563904,0.0,0.0,0.0,0
897528172,0.1941182017326355,0.0977979227900505,-23.51983642578125,0.0,0.0,0.0,0.0,0.0,0.0,0.5794000029563904,0.0,0.0,0.0,0
897537941,0.19659078121185303,0.10926064848899841,-23.51509666442871,0.0,0.0,0.0,0.0,0.0,0.0,0.5794000029563904,0.0,0.0,0.0,0
897548009,0.19567270576953888,0.1074770912528038,-23.50901222229004,0.0,0.0,0.0,0.0,0.0,0.0,0.5794000029563904,0.0,0.0,0.0,0
897557859,0.1962401568889618,0.101629838347435,-23.51219940185547,0.0,0.0,0.0,0.0,0.0,0.0,0.5794000029563904,0.0,0.0,0.0,0
897568378,0.197167307138443,0.09802193194627762,-23.517797470092773,0.0,0.0,0.0,0.0,0.0,0.0,0.5794000029563904,0.0,0.0,0.0,0
897578170,0.19621993601322174,0.10361173748970032,-23.51451301574707,0.0,0.0,0.0,0.0,0.0,0.0,0.5794000029563904,0.0,0.0,0.0,0
897587842,0.1948644518852234,0.10934201627969742,-23.512990951538086,0.0,0.0,0.0,0.0,0.0,0.0,0.5794000029563904,0.0,0.0,0.0,0
897597856,0.19894947111606598,0.10454011708498001,-23.512916564941406,0.0,0.0,0.0,0.0,0.0,0.0,0.5794000029563904,0.0,0.0,0.0,0
897607867,0.19841259717941284,0.09536775201559067,-23.511205673217773,0.0,0.0,0.0,0.0,0.0,0.0,0.5794000029563904,0.0,0.0,0.0,0
897618201,0.19717538356781006,0.09674321115016937,-23.511606216430664,0.0,0.0,0.0,0.0,0.0,0.0,0.5794000029563904,0.0,0.0,0.0,0
897628381,0.19871637225151062,0.10293454676866531,-23.513561248779297,0.0,0.0,0.0,0.0,0.0,0.0,0.5794000029563904,0.0,0.0,0.0,0
897637867,0.19726024568080902,0.10650259256362915,-23.520071029663086,0.0,0.0,0.0,0.0,0.0,0.0,0.5794000029563904,0.0,0.0,0.0,0
897648003,0.19735568761825562,0.10002557188272476,-23.524126052856445,0.0,0.0,0.0,0.0,0.0,0.0,0.5794000029563904,0.0,0.0,0.0,0
897657891,0.19581295549869537,0.0956084132194519,-23.519466400146484,0.0,0.0,0.0,0.0,0.0,0.0,0.5794000029563904,0.0,0.0,0.0,0
897668172,0.1975483000278473,0.0976654440164566,-23.51171112060547,0.0,0.0,0.0,0.0,0.0,0.0,0.5794000029563904,0.0,0.0,0.0,0
897678194,0.19725874066352844,0.09692227840423584,-23.50581932067871,0.0,0.0,0.0,0.0,0.0,0.0,0.5794000029563904,0.0,0.0,0.0,0
897687923,0.20017766952514648,0.09952176362276077,-23.506671905517578,0.0,0.0,0.0,0.0,0.0,0.0,0.5794000029563904,0.0,0.0,0.0,0
897697868,0.2003113478422165,0.10753441601991653,-23.5147647857666,0.0,0.0,0.0,0.0,0.0,0.0,0.5794000029563904,0.0,0.0,0.0,0
897707874,0.19998911023139954,0.1079828068614006,-23.519258499145508,0.0,0.0,0.0,0.0,0.0,0.0,0.5794000029563904,0.0,0.0,0.0,0
897718177,0.19940273463726044,0.10762631148099899,-23.515209197998047,0.0,0.0,0.0,0.0,0.0,0.0,0.5794000029563904,0.0,0.0,0.0,0
897728172,0.19930270314216614,0.10750501602888107,-23.505172729492188,0.0,0.0,0.0,0.0,0.0,0.0,0.5794000029563904,0.0,0.0,0.0,0
897737855,0.19999779760837555,0.1059286966919899,-23.50853157043457,0.0,0.0,0.0,0.0,0.0,0.0,0.5794000029563904,0.0,0.0,0.0,0
897747968,0.19383126497268677,0.0994938388466835,-23.517498016357422,0.0,0.0,0.0,0.0,0.0,0.0,0.5794000029563904,0.0,0.0,0.0,0
897757862,0.19520337879657745,0.09892361611127853,-23.522008895874023,0.0,0.0,0.0,0.0,0.0,0.0,0.5794000029563904,0.0,0.0,0.0,0
897768249,0.1910390853881836,0.10184475779533386,-23.514774322509766,0.0,0.0,0.0,0.0,0.0,0.0,0.5794000029563904,0.0,0.0,0.0,0
897778179,0.19398903846740723,0.09906795620918274,-23.51191520690918,0.0,0.0,0.0,0.0,0.0,0.0,0.5794000029563904,0.0,0.0,0.0,0
897787869,0.19277650117874146,0.0986626148223877,-23.509929656982422,0.0,0.0,0.0,0.0,0.0,0.0,0.5794000029563904,0.0,0.0,0.0,0
897797877,0.189894899725914,0.09643322974443436,-23.512094497680664,0.0,0.0,0.0,0.0,0.0,0.0,0.5794000029563904,0.0,0.0,0.0,0
897807901,0.19900527596473694,0.10246608406305313,-23.514909744262695,0.0,0.0,0.0,0.0,0.0,0.0,0.5794000029563904,0.0,0.0,0.0,0
897818172,0.2021205723285675,0.09495409578084946,-23.515764236450195,0.0,0.0,0.0,0.0,0.0,0.0,0.5794000029563904,0.0,0.0,0.0,0
897828302,0.2003975659608841,0.09189582616090775,-23.5103816986084,0.0,0.0,0.0,0.0,0.0,0.0,0.5794000029563904,0.0,0.0,0.0,0
897837847,0.1972215324640274,0.09858103841543198,-23.51111602783203,0.0,0.0,0.0,0.0,0.0,0.0,0.5794000029563904,0.0,0.0,0.0,0
897847985,0.19413620233535767,0.1055135503411293,-23.514245986938477,0.0,0.0,0.0,0.0,0.0,0.0,0.5794000029563904,0.0,0.0,0.0,0
897857864,0.1988709717988968,0.10240873694419861,-23.510351181030273,0.0,0.0,0.0,0.0,0.0,0.0,0.5794000029563904,0.0,0.0,0.0,0
897868181,0.19853393733501434,0.09700244665145874,-23.507171630859375,0.0,0.0,0.0,0.0,0.0,0.0,0.5794000029563904,0.0,0.0,0.0,0
897878184,0.1926223486661911,0.09888862073421478,-23.510541915893555,0.0,0.0,0.0,0.0,0.0,0.0,0.5794000029563904,0.0,0.0,0.0,0
897887877,0.1940627247095108,0.10232260078191757,-23.514789581298828,0.0,0.0,0.0,0.0,0.0,0.0,0.5794000029563904,0.0,0.0,0.0,0
897897869,0.19175250828266144,0.10463836789131165,-23.51763916015625,0.0,0.0,0.0,0.0,0.0,0.0,0.5794000029563904,0.0,0.0,0.0,0
897907896,0.1945246458053589,0.10351700335741043,-23.512054443359375,0.0,0.0,0.0,0.0,0.0,0.0,0.5794000029563904,0.0,0.0,0.0,0
897918181,0.19895154237747192,0.10570312291383743,-23.50476837158203,0.0,0.0,0.0,0.0,0.0,0.0,0.5794000029563904,0.0,0.0,0.0,0
897928225,0.19627995789051056,0.1059616431593895,-23.507375717163086,0.0,0.0,0.0,0.0,0.0,0.0,0.5794000029563904,0.0,0.0,0.0,0
897937882,0.19709940254688263,0.10628604888916016,-23.51816749572754,0.0,0.0,0.0,0.0,0.0,0.0,0.5794000029563904,0.0,0.0,0.0,0
897948031,0.19567075371742249,0.10169177502393723,-23.527149200439453,0.0,0.0,0.0,0.0,0.0,0.0,0.5794000029563904,0.0,0.0,0.0,0
897957910,0.19707460701465607,0.09880457073450089,-23.52815055847168,0.0,0.0,0.0,0.0,0.0,0.0,0.5794000029563904,0.0,0.0,0.0,0
897968394,0.1988193392753601,0.10429691523313522,-23.51934242248535,0.0,0.0,0.0,0.0,0.0,0.0,0.5794000029563904,0.0,0.0,0.0,0
897978190,0.19692358374595642,0.10539877414703369,-23.510644912719727,0.0,0.0,0.0,0.0,0.0,0.0,0.5794000029563904,0.0,0.0,0.0,0
897987835,0.19033600389957428,0.1047448143362999,-23.51353645324707,0.0,0.0,0.0,0.0,0.0,0.0,0.5794000029563904,0.0,0.0,0.0,0
897997857,0.18880200386047363,0.09940797090530396,-23.517362594604492,0.0,0.0,0.0,0.0,0.0,0.0,0.5794000029563904,0.0,0.0,0.0,0
898007863,0.18796589970588684,0.10176441818475723,-23.520668029785156,0.0,0.0,0.0,0.0,0.0,0.0,0.5794000029563904,0.0,0.0,0.0,0
898018212,0.1937303990125656,0.10503990948200226,-23.52106475830078,0.0,0.0,0.0,0.0,0.0,0.0,0.5794000029563904,0.0,0.0,0.0,0
898028315,0.19027023017406464,0.10906645655632019,-23.51737403869629,0.0,0.0,0.0,0.0,0.0,0.0,0.5794000029563904,0.0,0.0,0.0,0
898037860,0.19288502633571625,0.10449497401714325,-23.51231575012207,0.0,0.0,0.0,0.0,0.0,0.0,0.5794000029563904,0.0,0.0,0.0,0
898047967,0.1948913037776947,0.1016259714961052,-23.516427993774414,0.0,0.0,0.0,0.0,0.0,0.0,0.5794000029563904,0.0,0.0,0.0,0
898057831,0.1955575793981552,0.10485582053661346,-23.521425247192383,0.0,0.0,0.0,0.0,0.0,0.0,0.5794000029563904,0.0,0.0,0.0,0
898068146,0.19253167510032654,0.10568972676992416,-23.527490615844727,0.0,0.0,0.0,0.0,0.0,0.0,0.5794000029563904,0.0,0.0,0.0,0
898078180,0.1962137073278427,0.10031523555517197,-23.52229881286621,0.0,0.0,0.0,0.0,0.0,0.0,0.5794000029563904,0.0,0.0,0.0,0
898087974,0.1989602893590927,0.10220340639352798,-23.517473220825195,0.0,0.0,0.0,0.0,0.0,0.0,0.5794000029563904,0.0,0.0,0.0,0
898097870,0.1977686733007431,0.0988432765007019,-23.515483856201172,0.0,0.0,0.0,0.0,0.0,0.0,0.5794000029563904,0.0,0.0,0.0,0
898107931,0.19735212624073029,0.09896693378686905,-23.51578140258789,0.0,0.0,0.0,0.0,0.0,0.0,0.5794000029563904,0.0,0.0,0.0,0
898118189,0.19787248969078064,0.10220082849264145,-23.514501571655273,0.0,0.0,0.0,0.0,0.0,0.0,0.5794000029563904,0.0,0.0,0.0,0
898128179,0.1963757574558258,0.10034505277872086,-23.521282196044922,0.0,0.0,0.0,0.0,0.0,0.0,0.5794000029563904,0.0,0.0,0.0,0
898137868,0.18926526606082916,0.09819992631673813,-23.51947784423828,0.0,0.0,0.0,0.0,0.0,0.0,0.5794000029563904,0.0,0.0,0.0,0
898148024,0.1895126849412918,0.09954850375652313,-23.51422882080078,0.0,0.0,0.0,0.0,0.0,0.0,0.5794000029563904,0.0,0.0,0.0,0
898157854,0.18897509574890137,0.10309116542339325,-23.51471519470215,0.0,0.0,0.0,0.0,0.0,0.0,0.5794000029563904,0.0,0.0,0.0,0
898168390,0.19524864852428436,0.10209464281797409,-23.51104164123535,0.0,0.0,0.0,0.0,0.0,0.0,0.5794000029563904,0.0,0.0,0.0,0
898178179,0.19743157923221588,0.0994458869099617,-23.506235122680664,0.0,0.0,0.0,0.0,0.0,0.0,0.5794000029563904,0.0,0.0,0.0,0
898187862,0.19661182165145874,0.09629323333501816,-23.511892318725586,0.0,0.0,0.0,0.0,0.0,0.0,0.5794000029563904,0.0,0.0,0.0,0
898197890,0.19352027773857117,0.09829765558242798,-23.516347885131836,0.0,0.0,0.0,0.0,0.0,0.0,0.5794000029563904,0.0,0.0,0.0,0
898207900,0.19245053827762604,0.09799899905920029,-23.515453338623047,0.0,0.0,0.0,0.0,0.0,0.0,0.5794000029563904,0.0,0.0,0.0,0
898218165,0.19058822095394135,0.09475500136613846,-23.511798858642578,0.0,0.0,0.0,0.0,0.0,0.0,0.5794000029563904,0.0,0.0,0.0,0
898228285,0.19360430538654327,0.09344371408224106,-23.511011123657227,0.0,0.0,0.0,0.0,0.0,0.0,0.5794000029563904,0.0,0.0,0.0,0
898237907,0.1900278627872467,0.09672024101018906,-23.5123233795166,0.0,0.0,0.0,0.0,0.0,0.0,0.5794000029563904,0.0,0.0,0.0,0
898247979,0.18602223694324493,0.10005960613489151,-23.518648147583008,0.0,0.0,0.0,0.0,0.0,0.0,0.5794000029563904,0.0,0.0,0.0,0
898257841,0.19367125630378723,0.10013870894908905,-23.51764488220215,0.0,0.0,0.0,0.0,0.0,0.0,0.5794000029563904,0.0,0.0,0.0,0
898268219,0.19632528722286224,0.09744323045015335,-23.510299682617188,0.0,0.0,0.0,0.0,0.0,0.0,0.5794000029563904,0.0,0.0,0.0,0
898278183,0.19626086950302124,0.0954907238483429,-23.513668060302734,0.0,0.0,0.0,0.0,0.0,0.0,0.5794000029563904,0.0,0.0,0.0,0
898287917,0.19570229947566986,0.09782567620277405,-23.515066146850586,0.0,0.0,0.0,0.0,0.0,0.0,0.5794000029563904,0.0,0.0,0.0,0
898297864,0.19092659652233124,0.09673405438661575,-23.51630210876465,0.0,0.0,0.0,0.0,0.0,0.0,0.5794000029563904,0.0,0.0,0.0,0
898307873,0.18798185884952545,0.10033063590526581,-23.520456314086914,0.0,0.0,0.0,0.0,0.0,0.0,0.5794000029563904,0.0,0.0,0.0,0
898318206,0.19015368819236755,0.10227535665035248,-23.51171112060547,0.0,0.0,0.0,0.0,0.0,0.0,0.5794000029563904,0.0,0.0,0.0,0
898328200,0.19509470462799072,0.10066848993301392,-23.511735916137695,0.0,0.0,0.0,0.0,0.0,0.0,0.5794000029563904,0.0,0.0,0.0,0
898337923,0.19734598696231842,0.1001155748963356,-23.514543533325195,0.0,0.0,0.0,0.0,0.0,0.0,0.5794000029563904,0.0,0.0,0.0,0
898348043,0.19666045904159546,0.09855491667985916,-23.51260757446289,0.0,0.0,0.0,0.0,0.0,0.0,0.5794000029563904,0.0,0.0,0.0,0
898357877,0.1925651580095291,0.0977119728922844,-23.51479721069336,0.0,0.0,0.0,0.0,0.0,0.0,0.5794000029563904,0.0,0.0,0.0,0
898368260,0.18962211906909943,0.10373193025588989,-23.51370620727539,0.0,0.0,0.0,0.0,0.0,0.0,0.5794000029563904,0.0,0.0,0.0,0
898378210,0.1925457864999771,0.10563506186008453,-23.515514373779297,0.0,0.0,0.0,0.0,0.0,0.0,0.5794000029563904,0.0,0.0,0.0,0
898387828,0.1985682100057602,0.10422804951667786,-23.51270294189453,0.0,0.0,0.0,0.0,0.0,0.0,0.5794000029563904,0.0,0.0,0.0,0
898397841,0.20188412070274353,0.09935403615236282,-23.509538650512695,0.0,0.0,0.0,0.0,0.0,0.0,0.5794000029563904,0.0,0.0,0.0,0
898407898,0.19975820183753967,0.09622274339199066,-23.504837036132812,0.0,0.0,0.0,0.0,0.0,0.0,0.5794000029563904,0.0,0.0,0.0,0
898418206,0.1950547844171524,0.10224168002605438,-23.51494598388672,0.0,0.0,0.0,0.0,0.0,0.0,0.5794000029563904,0.0,0.0,0.0,0
898428358,0.18850086629390717,0.10164013504981995,-23.51697540283203,0.0,0.0,0.0,0.0,0.0,0.0,0.5794000029563904,0.0,0.0,0.0,0
898437904,0.18831852078437805,0.09814438968896866,-23.5134334564209,0.0,0.0,0.0,0.0,0.0,0.0,0.5794000029563904,0.0,0.0,0.0,0
898448018,0.1922629475593567,0.09911160916090012,-23.516714096069336,0.0,0.0,0.0,0.0,0.0,0.0,0.5794000029563904,0.0,0.0,0.0,0
898457890,0.19261755049228668,0.1055474728345871,-23.513477325439453,0.0,0.0,0.0,0.0,0.0,0.0,0.5794000029563904,0.0,0.0,0.0,0
898468219,0.19187738001346588,0.10590710490942001,-23.506656646728516,0.0,0.0,0.0,0.0,0.0,0.0,0.5794000029563904,0.0,0.0,0.0,0
898478191,0.19880035519599915,0.1029239296913147,-23.51023292541504,0.0,0.0,0.0,0.0,0.0,0.0,0.5794000029563904,0.0,0.0,0.0,0
898487856,0.19972999393939972,0.10329316556453705,-23.512733459472656,0.0,0.0,0.0,0.0,0.0,0.0,0.5794000029563904,0.0,0.0,0.0,0
898497885,0.1946951001882553,0.10217168927192688,-23.513320922851562,0.0,0.0,0.0,0.0,0.0,0.0,0.5794000029563904,0.0,0.0,0.0,0
898507928,0.1931287944316864,0.1006069928407669,-23.510948181152344,0.0,0.0,0.0,0.0,0.0,0.0,0.5794000029563904,0.0,0.0,0.0,0
898518185,0.1902928352355957,0.09811879694461823,-23.504047393798828,0.0,0.0,0.0,0.0,0.0,0.0,0.5794000029563904,0.0,0.0,0.0,0
898528161,0.18629032373428345,0.09517475962638855,-23.506885528564453,0.0,0.0,0.0,0.0,0.0,0.0,0.5794000029563904,0.0,0.0,0.0,0
898537834,0.19450125098228455,0.09878838807344437,-23.512062072753906,0.0,0.0,0.0,0.0,0.0,0.0,0.5794000029563904,0.0,0.0,0.0,0
898548047,0.1947493702173233,0.10366231203079224,-23.509809494018555,0.0,0.0,0.0,0.0,0.0,0.0,0.5794000029563904,0.0,0.0,0.0,0
898557859,0.19456696510314941,0.10361665487289429,-23.51618003845215,0.0,0.0,0.0,0.0,0.0,0.0,0.5794000029563904,0.0,0.0,0.0,0
898568262,0.19430848956108093,0.1007673367857933,-23.516441345214844,0.0,0.0,0.0,0.0,0.0,0.0,0.5794000029563904,0.0,0.0,0.0,0
898578187,0.19466125965118408,0.09573047608137131,-23.507848739624023,0.0,0.0,0.0,0.0,0.0,0.0,0.5794000029563904,0.0,0.0,0.0,0
898587965,0.19507849216461182,0.09733414649963379,-23.50860023498535,0.0,0.0,0.0,0.0,0.0,0.0,0.5794000029563904,0.0,0.0,0.0,0
898597938,0.19891294836997986,0.10093264281749725,-23.508750915527344,0.0,0.0,0.0,0.0,0.0,0.0,0.5794000029563904,0.0,0.0,0.0,0
898607865,0.20065824687480927,0.0982654020190239,-23.508533477783203,0.0,0.0,0.0,0.0,0.0,0.0,0.5794000029563904,0.0,0.0,0.0,0
898618167,0.19642500579357147,0.0946008712053299,-23.515111923217773,0.0,0.0,0.0,0.0,0.0,0.0,0.5794000029563904,0.0,0.0,0.0,0
898628355,0.19713115692138672,0.10060243308544159,-23.515033721923828,0.0,0.0,0.0,0.0,0.0,0.0,0.5794000029563904,0.0,0.0,0.0,0
898637878,0.19629518687725067,0.10530787706375122,-23.509986877441406,0.0,0.0,0.0,0.0,0.0,0.0,0.5794000029563904,0.0,0.0,0.0,0
898648010,0.19501006603240967,0.10283751785755157,-23.50655746459961,0.0,0.0,0.0,0.0,0.0,0.0,0.5794000029563904,0.0,0.0,0.0,0
898657883,0.19603998959064484,0.10537132620811462,-23.507740020751953,0.0,0.0,0.0,0.0,0.0,0.0,0.5794000029563904,0.0,0.0,0.0,0
898668184,0.19252096116542816,0.1058850809931755,-23.509443283081055,0.0,0.0,0.0,0.0,0.0,0.0,0.5794000029563904,0.0,0.0,0.0,0
898678223,0.19114461541175842,0.10272026807069778,-23.513324737548828,0.0,0.0,0.0,0.0,0.0,0.0,0.5794000029563904,0.0,0.0,0.0,0
898687880,0.19493624567985535,0.1069139838218689,-23.514705657958984,0.0,0.0,0.0,0.0,0.0,0.0,0.5794000029563904,0.0,0.0,0.0,0
898697909,0.1941191703081131,0.10695675760507584,-23.50767707824707,0.0,0.0,0.0,0.0,0.0,0.0,0.5794000029563904,0.0,0.0,0.0,0
898707851,0.19094334542751312,0.10044287145137787,-23.507200241088867,0.0,0.0,0.0,0.0,0.0,0.0,0.5794000029563904,0.0,0.0,0.0,0
898718162,0.1873798668384552,0.0997396931052208,-23.509506225585938,0.0,0.0,0.0,0.0,0.0,0.0,0.5794000029563904,0.0,0.0,0.0,0
898728161,0.19530269503593445,0.09970247745513916,-23.514263153076172,0.0,0.0,0.0,0.0,0.0,0.0,0.5794000029563904,0.0,0.0,0.0,0
898737865,0.2011067420244217,0.09688903391361237,-23.513538360595703,0.0,0.0,0.0,0.0,0.0,0.0,0.5794000029563904,0.0,0.0,0.0,0
898748063,0.20046527683734894,0.09757032245397568,-23.5197811126709,0.0,0.0,0.0,0.0,0.0,0.0,0.5794000029563904,0.0,0.0,0.0,0
898757904,0.19860251247882843,0.09990458190441132,-23.51642608642578,0.0,0.0,0.0,0.0,0.0,0.0,0.5794000029563904,0.0,0.0,0.0,0
898768401,0.19866949319839478,0.10120675712823868,-23.508811950683594,0.0,0.0,0.0,0.0,0.0,0.0,0.5794000029563904,0.0,0.0,0.0,0
898778175,0.19981004297733307,0.09754618257284164,-23.506921768188477,0.0,0.0,0.0,0.0,0.0,0.0,0.5794000029563904,0.0,0.0,0.0,0
898787850,0.1976882815361023,0.09809384495019913,-23.508981704711914,0.0,0.0,0.0,0.0,0.0,0.0,0.5794000029563904,0.0,0.0,0.0,0
898797880,0.19486959278583527,0.1053217202425003,-23.513654708862305,0.0,0.0,0.0,0.0,0.0,0.0,0.5794000029563904,0.0,0.0,0.0,0
898807867,0.19397927820682526,0.10478385537862778,-23.513668060302734,0.0,0.0,0.0,0.0,0.0,0.0,0.5794000029563904,0.0,0.0,0.0,0
898818201,0.19352221488952637,0.10398174822330475,-23.513877868652344,0.0,0.0,0.0,0.0,0.0,0.0,0.5794000029563904,0.0,0.0,0.0,0
898828397,0.1876489222049713,0.10332422703504562,-23.508230209350586,0.0,0.0,0.0,0.0,0.0,0.0,0.5794000029563904,0.0,0.0,0.0,0
898837851,0.18917322158813477,0.09969387203454971,-23.506366729736328,0.0,0.0,0.0,0.0,0.0,0.0,0.5794000029563904,0.0,0.0,0.0,0
898847988,0.18805497884750366,0.1038835272192955,-23.512418746948242,0.0,0.0,0.0,0.0,0.0,0.0,0.5794000029563904,0.0,0.0,0.0,0
898857863,0.19058763980865479,0.10207599401473999,-23.516294479370117,0.0,0.0,0.0,0.0,0.0,0.0,0.5794000029563904,0.0,0.0,0.0,0
898868160,0.19135455787181854,0.0944952741265297,-23.514453887939453,0.0,0.0,0.0,0.0,0.0,0.0,0.5794000029563904,0.0,0.0,0.0,0
898878158,0.19640767574310303,0.09335747361183167,-23.514766693115234,0.0,0.0,0.0,0.0,0.0,0.0,0.5794000029563904,0.0,0.0,0.0,0
898887957,0.19486063718795776,0.09777215123176575,-23.50730323791504,0.0,0.0,0.0,0.0,0.0,0.0,0.5794000029563904,0.0,0.0,0.0,0
898897840,0.18823911249637604,0.09968698769807816,-23.50788688659668,0.0,0.0,0.0,0.0,0.0,0.0,0.5794000029563904,0.0,0.0,0.0,0
898907885,0.19001488387584686,0.09958944469690323,-23.50788688659668,0.0,0.0,0.0,0.0,0.0,0.0,0.5794000029563904,0.0,0.0,0.0,0
898918175,0.1976117044687271,0.09564309567213058,-23.512285232543945,0.0,0.0,0.0,0.0,0.0,0.0,0.5794000029563904,0.0,0.0,0.0,0
898928197,0.1980808675289154,0.09290294349193573,-23.512676239013672,0.0,0.0,0.0,0.0,0.0,0.0,0.5794000029563904,0.0,0.0,0.0,0
898937887,0.19999046623706818,0.1042390763759613,-23.506956100463867,0.0,0.0,0.0,0.0,0.0,0.0,0.5794000029563904,0.0,0.0,0.0,0
898948050,0.19668598473072052,0.10451226681470871,-23.505002975463867,0.0,0.0,0.0,0.0,0.0,0.0,0.5794000029563904,0.0,0.0,0.0,0
898957886,0.1983613222837448,0.09780199080705643,-23.50291633605957,0.0,0.0,0.0,0.0,0.0,0.0,0.5794000029563904,0.0,0.0,0.0,0
898968372,0.19473734498023987,0.09475402534008026,-23.506778717041016,0.0,0.0,0.0,0.0,0.0,0.0,0.5794000029563904,0.0,0.0,0.0,0
898978173,0.18875479698181152,0.1010708287358284,-23.514606475830078,0.0,0.0,0.0,0.0,0.0,0.0,0.5794000029563904,0.0,0.0,0.0,0
898987835,0.19066964089870453,0.1052018254995346,-23.521717071533203,0.0,0.0,0.0,0.0,0.0,0.0,0.5794000029563904,0.0,0.0,0.0,0
898997874,0.19165821373462677,0.09919337928295135,-23.518150329589844,0.0,0.0,0.0,0.0,0.0,0.0,0.5794000029563904,0.0,0.0,0.0,0
899007907,0.19430296123027802,0.09354052692651749,-23.506006240844727,0.0,0.0,0.0,0.0,0.0,0.0,0.5794000029563904,0.0,0.0,0.0,0
899018189,0.19588561356067657,0.09974880516529083,-23.50467872619629,0.0,0.0,0.0,0.0,0.0,0.0,0.5794000029563904,0.0,0.0,0.0,0
899028271,0.19240663945674896,0.10854744911193848,-23.509401321411133,0.0,0.0,0.0,0.0,0.0,0.0,0.5794000029563904,0.0,0.0,0.0,0
899037862,0.1920919418334961,0.11322922259569168,-23.51081657409668,0.0,0.0,0.0,0.0,0.0,0.0,0.5794000029563904,0.0,0.0,0.0,0
899047962,0.197005033493042,0.10619553178548813,-23.51190185546875,0.0,0.0,0.0,0.0,0.0,0.0,0.5794000029563904,0.0,0.0,0.0,0
899057925,0.19228337705135345,0.09947360306978226,-23.510547637939453,0.0,0.0,0.0,0.0,0.0,0.0,0.5794000029563904,0.0,0.0,0.0,0
899068166,0.19462013244628906,0.09906810522079468,-23.504976272583008,0.0,0.0,0.0,0.0,0.0,0.0,0.5794000029563904,0.0,0.0,0.0,0
899078191,0.19640761613845825,0.10549435019493103,-23.510988235473633,0.0,0.0,0.0,0.0,0.0,0.0,0.5794000029563904,0.0,0.0,0.0,0
899087910,0.19582366943359375,0.10502017289400101,-23.515155792236328,0.0,0.0,0.0,0.0,0.0,0.0,0.5794000029563904,0.0,0.0,0.0,0
899097868,0.19678327441215515,0.10269100964069366,-23.51750946044922,0.0,0.0,0.0,0.0,0.0,0.0,0.5794000029563904,0.0,0.0,0.0,0
899107857,0.1915387213230133,0.0982949286699295,-23.514562606811523,0.0,0.0,0.0,0.0,0.0,0.0,0.5794000029563904,0.0,0.0,0.0,0
899118187,0.18447132408618927,0.09949057549238205,-23.512516021728516,0.0,0.0,0.0,0.0,0.0,0.0,0.5794000029563904,0.0,0.0,0.0,0
899128188,0.18880721926689148,0.10081025958061218,-23.513761520385742,0.0,0.0,0.0,0.0,0.0,0.0,0.5794000029563904,0.0,0.0,0.0,0
899137866,0.18708613514900208,0.10264375805854797,-23.514305114746094,0.0,0.0,0.0,0.0,0.0,0.0,0.5794000029563904,0.0,0.0,0.0,0
899148031,0.19219154119491577,0.1000082939863205,-23.513872146606445,0.0,0.0,0.0,0.0,0.0,0.0,0.5794000029563904,0.0,0.0,0.0,0
899157852,0.1990927755832672,0.10556947439908981,-23.511211395263672,0.0,0.0,0.0,0.0,0.0,0.0,0.5794000029563904,0.0,0.0,0.0,0
899168407,0.1985221952199936,0.10173127800226212,-23.515443801879883,0.0,0.0,0.0,0.0,0.0,0.0,0.5794000029563904,0.0,0.0,0.0,0
899178215,0.19503028690814972,0.09567288309335709,-23.518083572387695,0.0,0.0,0.0,0.0,0.0,0.0,0.5794000029563904,0.0,0.0,0.0,0
899187837,0.19129833579063416,0.09277329593896866,-23.516504287719727,0.0,0.0,0.0,0.0,0.0,0.0,0.5794000029563904,0.0,0.0,0.0,0
899197826,0.18859070539474487,0.09498849511146545,-23.50417709350586,0.0,0.0,0.0,0.0,0.0,0.0,0.5794000029563904,0.0,0.0,0.0,0
899207864,0.19053083658218384,0.09693057090044022,-23.499820709228516,0.0,0.0,0.0,0.0,0.0,0.0,0.5794000029563904,0.0,0.0,0.0,0
899218214,0.1990819275379181,0.1033770963549614,-23.50652313232422,0.0,0.0,0.0,0.0,0.0,0.0,0.5794000029563904,0.0,0.0,0.0,0
899228362,0.20009902119636536,0.1026972234249115,-23.52227020263672,0.0,0.0,0.0,0.0,0.0,0.0,0.5794000029563904,0.0,0.0,0.0,0
899237928,0.1966252475976944,0.10745610296726227,-23.523012161254883,0.0,0.0,0.0,0.0,0.0,0.0,0.5794000029563904,0.0,0.0,0.0,0
899247967,0.19103555381298065,0.10682185739278793,-23.515737533569336,0.0,0.0,0.0,0.0,0.0,0.0,0.5794000029563904,0.0,0.0,0.0,0
899257855,0.18299606442451477,0.0999746173620224,-23.507125854492188,0.0,0.0,0.0,0.0,0.0,0.0,0.5794000029563904,0.0,0.0,0.0,0
899268188,0.18152828514575958,0.10096263885498047,-23.5091552734375,0.0,0.0,0.0,0.0,0.0,0.0,0.5794000029563904,0.0,0.0,0.0,0
899278204,0.18637384474277496,0.10510990023612976,-23.518003463745117,0.0,0.0,0.0,0.0,0.0,0.0,0.5794000029563904,0.0,0.0,0.0,0
899287945,0.19552680850028992,0.10011645406484604,-23.5185489654541,0.0,0.0,0.0,0.0,0.0,0.0,0.5794000029563904,0.0,0.0,0.0,0
899297884,0.203826442360878,0.09739988297224045,-23.51062774658203,0.0,0.0,0.0,0.0,0.0,0.0,0.5794000029563904,0.0,0.0,0.0,0
899307903,0.19759215414524078,0.09786757826805115,-23.507213592529297,0.0,0.0,0.0,0.0,0.0,0.0,0.5794000029563904,0.0,0.0,0.0,0
899318198,0.19418388605117798,0.0960230752825737,-23.503564834594727,0.0,0.0,0.0,0.0,0.0,0.0,0.5794000029563904,0.0,0.0,0.0,0
899328192,0.19279152154922485,0.099070243537426,-23.510957717895508,0.0,0.0,0.0,0.0,0.0,0.0,0.5794000029563904,0.0,0.0,0.0,0
899337838,0.1907387524843216,0.10151241719722748,-23.51485252380371,0.0,0.0,0.0,0.0,0.0,0.0,0.5794000029563904,0.0,0.0,0.0,0
899348061,0.18903231620788574,0.10257860273122787,-23.51152801513672,0.0,0.0,0.0,0.0,0.0,0.0,0.5794000029563904,0.0,0.0,0.0,0
899357947,0.189069926738739,0.09924355149269104,-23.510011672973633,0.0,0.0,0.0,0.0,0.0,0.0,0.5794000029563904,0.0,0.0,0.0,0
899368382,0.19305896759033203,0.09758719056844711,-23.5120792388916,0.0,0.0,0.0,0.0,0.0,0.0,0.5794000029563904,0.0,0.0,0.0,0
899378178,0.1945170909166336,0.10125177353620529,-23.512853622436523,0.0,0.0,0.0,0.0,0.0,0.0,0.5794000029563904,0.0,0.0,0.0,0
899387858,0.19172538816928864,0.09997409582138062,-23.508298873901367,0.0,0.0,0.0,0.0,0.0,0.0,0.5794000029563904,0.0,0.0,0.0,0
899397854,0.19433557987213135,0.09749747067689896,-23.509565353393555,0.0,0.0,0.0,0.0,0.0,0.0,0.5794000029563904,0.0,0.0,0.0,0
899407963,0.19119544327259064,0.10285945236682892,-23.514171600341797,0.0,0.0,0.0,0.0,0.0,0.0,0.5794000029563904,0.0,0.0,0.0,0
899418167,0.1907002329826355,0.0719943419098854,-23.52042007446289,0.0,0.0,0.0,0.0,0.0,0.0,0.5794000029563904,0.0,0.0,0.0,0
899428434,0.1966698169708252,0.07893363386392593,-23.5270938873291,0.0,0.0,0.0,0.0,0.0,0.0,0.5794000029563904,0.0,0.0,0.0,0
899437874,0.1791858822107315,0.2598557770252228,-23.495750427246094,0.0,0.0,0.0,0.0,0.0,0.0,0.5794000029563904,0.0,0.0,0.0,0
899447979,0.15981702506542206,-0.10194271802902222,-23.538898468017578,0.0,0.0,0.0,0.0,0.0,0.0,0.5794000029563904,0.0,0.0,0.0,0
899457902,0.22526915371418,0.20618478953838348,-23.492101669311523,0.0,0.0,0.0,0.0,0.0,0.0,0.5794000029563904,0.0,0.0,0.0,0
899468200,0.17902818322181702,0.0705755427479744,-23.538040161132812,0.0,0.0,0.0,0.0,0.0,0.0,0.5794000029563904,0.0,0.0,0.0,0
899478191,0.2121429294347763,0.04505215957760811,-23.521194458007812,0.0,0.0,0.0,0.0,0.0,0.0,0.5794000029563904,0.0,0.0,0.0,0
899487894,0.20488916337490082,0.3110845386981964,-23.496305465698242,0.0,0.0,0.0,0.0,0.0,0.0,0.5794000029563904,0.0,0.0,0.0,0
899497880,0.18598364293575287,-0.12930214405059814,-23.528249740600586,0.0,0.0,0.0,0.0,0.0,0.0,0.5794000029563904,0.0,0.0,0.0,0
899507925,0.18622846901416779,0.224688321352005,-23.474374771118164,0.0,0.0,0.0,0.0,0.0,0.0,0.5794000029563904,0.0,0.0,0.0,0
899518164,0.18863795697689056,0.06883824616670609,-23.52887535095215,0.0,0.0,0.0,0.0,0.0,0.0,0.5794000029563904,0.0,0.0,0.0,0
899528220,0.1801576167345047,0.09883615374565125,-23.505189895629883,0.0,0.0,0.0,0.0,0.0,0.0,0.5794000029563904,0.0,0.0,0.0,0
899537939,0.19028887152671814,0.16699960827827454,-23.512746810913086,0.0,0.0,0.0,0.0,0.0,0.0,0.5794000029563904,0.0,0.0,0.0,0
899548049,0.20401695370674133,0.019149664789438248,-23.510818481445312,0.0,0.0,0.0,0.0,0.0,0.0,0.5794000029563904,0.0,0.0,0.0,0
899557865,0.20584914088249207,0.08465523272752762,-23.505706787109375,0.0,0.0,0.0,0.0,0.0,0.0,0.5794000029563904,0.0,0.0,0.0,0
899568262,0.19444361329078674,0.21392373740673065,-23.507266998291016,0.0,0.0,0.0,0.0,0.0,0.0,0.5794000029563904,0.0,0.0,0.0,0
899578191,0.18240460753440857,0.020682334899902344,-23.519906997680664,0.0,0.0,0.0,0.0,0.0,0.0,0.5794000029563904,0.0,0.0,0.0,0
899587829,0.19196780025959015,0.14725026488304138,-23.51604652404785,0.0,0.0,0.0,0.0,0.0,0.0,0.5794000029563904,0.0,0.0,0.0,0
899597830,0.16988243162631989,0.06293429434299469,-23.528255462646484,0.0,0.0,0.0,0.0,0.0,0.0,0.5794000029563904,0.0,0.0,0.0,0
899607927,0.1901203840970993,0.06716245412826538,-23.51896095275879,0.0,0.0,0.0,0.0,0.0,0.0,0.5794000029563904,0.0,0.0,0.0,0
899618185,0.20444843173027039,0.22173114120960236,-23.504465103149414,0.0,0.0,0.0,0.0,0.0,0.0,0.5794000029563904,0.0,0.0,0.0,0
899628361,0.21590903401374817,0.001819141674786806,-23.518037796020508,0.0,0.0,0.0,0.0,0.0,0.0,0.5794000029563904,0.0,0.0,0.0,0
899637963,0.20235787332057953,0.13298849761486053,-23.49640464782715,0.0,0.0,0.0,0.0,0.0,0.0,0.5794000029563904,0.0,0.0,0.0,0
899647981,0.18933434784412384,0.09445568919181824,-23.52107048034668,0.0,0.0,0.0,0.0,0.0,0.0,0.5794000029563904,0.0,0.0,0.0,0
899657910,0.18089735507965088,0.09382409602403641,-23.51833724975586,0.0,0.0,0.0,0.0,0.0,0.0,0.5794000029563904,0.0,0.0,0.0,0
899668178,0.1821194440126419,0.16651421785354614,-23.5145206451416,0.0,0.0,0.0,0.0,0.0,0.0,0.5794000029563904,0.0,0.0,0.0,0
899678194,0.18395806849002838,0.03189241141080856,-23.53139305114746,0.0,0.0,0.0,0.0,0.0,0.0,0.5794000029563904,0.0,0.0,0.0,0
899687914,0.20755426585674286,0.08507399260997772,-23.511295318603516,0.0,0.0,0.0,0.0,0.0,0.0,0.5794000029563904,0.0,0.0,0.0,0
899697928,0.2039210945367813,0.1547643393278122,-23.517356872558594,0.0,0.0,0.0,0.0,0.0,0.0,0.5794000029563904,0.0,0.0,0.0,0
899707905,0.19893454015254974,0.059162676334381104,-23.522974014282227,0.0,0.0,0.0,0.0,0.0,0.0,0.5794000029563904,0.0,0.0,0.0,0
899718175,0.19935405254364014,0.14541566371917725,-23.510587692260742,0.0,0.0,0.0,0.0,0.0,0.0,0.5794000029563904,0.0,0.0,0.0,0
899728231,0.19660481810569763,0.05570095032453537,-23.527069091796875,0.0,0.0,0.0,0.0,0.0,0.0,0.5794000029563904,0.0,0.0,0.0,0
899737869,0.180119588971138,0.08210458606481552,-23.519102096557617,0.0,0.0,0.0,0.0,0.0,0.0,0.5794000029563904,0.0,0.0,0.0,0
899748017,0.1884908527135849,0.16525691747665405,-23.509044647216797,0.0,0.0,0.0,0.0,0.0,0.0,0.5794000029563904,0.0,0.0,0.0,0
899757908,0.18735598027706146,0.050084471702575684,-23.520206451416016,0.0,0.0,0.0,0.0,0.0,0.0,0.5794000029563904,0.0,0.0,0.0,0
899768387,0.19667445123195648,0.12847203016281128,-23.513818740844727,0.0,0.0,0.0,0.0,0.0,0.0,0.5794000029563904,0.0,0.0,0.0,0
899778175,0.19646933674812317,0.07805172353982925,-23.513349533081055,0.0,0.0,0.0,0.0,0.0,0.0,0.5794000029563904,0.0,0.0,0.0,0
899787903,0.1931121051311493,0.09376983344554901,-23.52092742919922,0.0,0.0,0.0,0.0,0.0,0.0,0.5794000029563904,0.0,0.0,0.0,0
899797874,0.19034665822982788,0.14052382111549377,-23.516178131103516,0.0,0.0,0.0,0.0,0.0,0.0,0.5794000029563904,0.0,0.0,0.0,0
899807929,0.1929539442062378,0.07247424870729446,-23.51235008239746,0.0,0.0,0.0,0.0,0.0,0.0,0.5794000029563904,0.0,0.0,0.0,0
899818178,0.19545261561870575,0.08818389475345612,-23.528776168823242,0.0,0.0,0.0,0.0,0.0,0.0,0.5794000029563904,0.0,0.0,0.0,0
899828382,0.19913522899150848,0.13828523457050323,-23.51679229736328,0.0,0.0,0.0,0.0,0.0,0.0,0.5794000029563904,0.0,0.0,0.0,0
899837853,0.18532401323318481,0.06808364391326904,-23.527616500854492,0.0,0.0,0.0,0.0,0.0,0.0,0.5794000029563904,0.0,0.0,0.0,0
899848005,0.1931641548871994,0.13122732937335968,-23.521451950073242,0.0,0.0,0.0,0.0,0.0,0.0,0.5794000029563904,0.0,0.0,0.0,0
899857883,0.19480736553668976,0.06837094575166702,-23.51820182800293,0.0,0.0,0.0,0.0,0.0,0.0,0.5794000029563904,0.0,0.0,0.0,0
899868175,0.20090316236019135,0.09582513570785522,-23.51742935180664,0.0,0.0,0.0,0.0,0.0,0.0,0.5794000029563904,0.0,0.0,0.0,0
899878172,0.19838427007198334,0.14011560380458832,-23.516138076782227,0.0,0.0,0.0,0.0,0.0,0.0,0.5794000029563904,0.0,0.0,0.0,0
899887962,0.20204374194145203,0.0775531679391861,-23.524932861328125,0.0,0.0,0.0,0.0,0.0,0.0,0.5794000029563904,0.0,0.0,0.0,0
899897851,0.18606458604335785,0.10903183370828629,-23.52744483947754,0.0,0.0,0.0,0.0,0.0,0.0,0.5794000029563904,0.0,0.0,0.0,0
899907944,0.1821293979883194,0.0745345801115036,-23.528268814086914,0.0,0.0,0.0,0.0,0.0,0.0,0.5794000029563904,0.0,0.0,0.0,0
899918180,0.18996039032936096,0.1006338819861412,-23.51812171936035,0.0,0.0,0.0,0.0,0.0,0.0,0.5794000029563904,0.0,0.0,0.0,0
899928209,0.20327074825763702,0.13768640160560608,-23.509273529052734,0.0,0.0,0.0,0.0,0.0,0.0,0.5794000029563904,0.0,0.0,0.0,0
899937950,0.20246276259422302,0.09315193444490433,-23.51777458190918,0.0,0.0,0.0,0.0,0.0,0.0,0.5794000029563904,0.0,0.0,0.0,0
899948045,0.2012295424938202,0.10212850570678711,-23.51345443725586,0.0,0.0,0.0,0.0,0.0,0.0,0.5794000029563904,0.0,0.0,0.0,0
899957951,0.18717749416828156,0.09699534624814987,-23.528791427612305,0.0,0.0,0.0,0.0,0.0,0.0,0.5794000029563904,0.0,0.0,0.0,0
899968390,0.18565060198307037,0.08001666516065598,-23.524433135986328,0.0,0.0,0.0,0.0,0.0,0.0,0.5794000029563904,0.0,0.0,0.0,0
899978201,0.19513054192066193,0.13014130294322968,-23.508378982543945,0.0,0.0,0.0,0.0,0.0,0.0,0.5794000029563904,0.0,0.0,0.0,0
899987956,0.2006935477256775,0.07696128636598587,-23.51586151123047,0.0,0.0,0.0,0.0,0.0,0.0,0.5794000029563904,0.0,0.0,0.0,0
899997934,0.20095597207546234,0.10575210303068161,-23.51555633544922,0.0,0.0,0.0,0.0,0.0,0.0,0.5794000029563904,0.0,0.0,0.0,0
900007894,0.2056169956922531,0.11553424596786499,-23.511459350585938,0.0,0.0,0.0,0.0,0.0,0.0,0.5794000029563904,0.0,0.0,0.0,0
900018192,0.19799768924713135,0.08253363519906998,-23.525163650512695,0.0,0.0,0.0,0.0,0.0,0.0,0.5794000029563904,0.0,0.0,0.0,0
900028410,0.2023317962884903,0.12298646569252014,-23.51949119567871,0.0,0.0,0.0,0.0,0.0,0.0,0.5794000029563904,0.0,0.0,0.0,0
900037952,0.19890230894088745,0.08920269459486008,-23.50641441345215,0.0,0.0,0.0,0.0,0.0,0.0,0.5794000029563904,0.0,0.0,0.0,0
900048000,0.18902182579040527,0.10760915279388428,-23.513872146606445,0.0,0.0,0.0,0.0,0.0,0.0,0.5794000029563904,0.0,0.0,0.0,0
900057905,0.18253004550933838,0.12405216693878174,-23.519235610961914,0.0,0.0,0.0,0.0,0.0,0.0,0.5794000029563904,0.0,0.0,0.0,0
900068170,0.1850425750017166,0.07674030214548111,-23.533231735229492,0.0,0.0,0.0,0.0,0.0,0.0,0.5794000029563904,0.0,0.0,0.0,0
900078212,0.20432403683662415,0.09133713692426682,-23.52895736694336,0.0,0.0,0.0,0.0,0.0,0.0,0.5794000029563904,0.0,0.0,0.0,0
900087993,0.20930792391300201,0.10356488078832626,-23.520471572875977,0.0,0.0,0.0,0.0,0.0,0.0,0.5794000029563904,0.0,0.0,0.0,0
900097872,0.20869658887386322,0.09558284282684326,-23.510066986083984,0.0,0.0,0.0,0.0,0.0,0.0,0.5794000029563904,0.0,0.0,0.0,0
900107881,0.1917230784893036,0.1289677619934082,-23.524757385253906,0.0,0.0,0.0,0.0,0.0,0.0,0.5794000029563904,0.0,0.0,0.0,0
900118196,0.18599461019039154,0.08699091523885727,-23.521678924560547,0.0,0.0,0.0,0.0,0.0,0.0,0.5794000029563904,0.0,0.0,0.0,0
900128225,0.17664432525634766,0.09430833905935287,-23.516374588012695,0.0,0.0,0.0,0.0,0.0,0.0,0.5794000029563904,0.0,0.0,0.0,0
900137888,0.18365417420864105,0.09758703410625458,-23.525968551635742,0.0,0.0,0.0,0.0,0.0,0.0,0.5794000029563904,0.0,0.0,0.0,0
900148050,0.1965218335390091,0.10094169527292252,-23.507293701171875,0.0,0.0,0.0,0.0,0.0,0.0,0.5794000029563904,0.0,0.0,0.0,0
900157869,0.20194017887115479,0.11408654600381851,-23.51603889465332,0.0,0.0,0.0,0.0,0.0,0.0,0.5794000029563904,0.0,0.0,0.0,0
900168366,0.20104022324085236,0.08648888021707535,-23.5295352935791,0.0,0.0,0.0,0.0,0.0,0.0,0.5794000029563904,0.0,0.0,0.0,0
900178209,0.20687420666217804,0.09226462990045547,-23.518808364868164,0.0,0.0,0.0,0.0,0.0,0.0,0.5794000029563904,0.0,0.0,0.0,0
900187955,0.19761015474796295,0.09655486047267914,-23.522302627563477,0.0,0.0,0.0,0.0,0.0,0.0,0.5794000029563904,0.0,0.0,0.0,0
900197850,0.19785532355308533,0.10215116292238235,-23.524932861328125,0.0,0.0,0.0,0.0,0.0,0.0,0.5794000029563904,0.0,0.0,0.0,0
900207867,0.19537295401096344,0.1164766401052475,-23.515296936035156,0.0,0.0,0.0,0.0,0.0,0.0,0.5794000029563904,0.0,0.0,0.0,0
900218176,0.19146393239498138,0.0948224887251854,-23.520305633544922,0.0,0.0,0.0,0.0,0.0,0.0,0.5794000029563904,0.0,0.0,0.0,0
900228387,0.18525108695030212,0.10410358011722565,-23.518545150756836,0.0,0.0,0.0,0.0,0.0,0.0,0.5794000029563904,0.0,0.0,0.0,0
900237941,0.19459474086761475,0.10192622989416122,-23.5137996673584,0.0,0.0,0.0,0.0,0.0,0.0,0.5794000029563904,0.0,0.0,0.0,0
900248023,0.19803254306316376,0.09077391773462296,-23.528465270996094,0.0,0.0,0.0,0.0,0.0,0.0,0.5794000029563904,0.0,0.0,0.0,0
900257882,0.20831575989723206,0.12362276762723923,-23.511995315551758,0.0,0.0,0.0,0.0,0.0,0.0,0.5794000029563904,0.0,0.0,0.0,0
900268254,0.18650810420513153,0.08877667039632797,-23.511869430541992,0.0,0.0,0.0,0.0,0.0,0.0,0.5794000029563904,0.0,0.0,0.0,0
900278189,0.1814442127943039,0.10168766975402832,-23.533161163330078,0.0,0.0,0.0,0.0,0.0,0.0,0.5794000029563904,0.0,0.0,0.0,0
900287978,0.18466702103614807,0.1107255294919014,-23.518878936767578,0.0,0.0,0.0,0.0,0.0,0.0,0.5794000029563904,0.0,0.0,0.0,0
900297879,0.19134610891342163,0.0791507437825203,-23.520917892456055,0.0,0.0,0.0,0.0,0.0,0.0,0.5794000029563904,0.0,0.0,0.0,0
900307953,0.20692293345928192,0.10819774866104126,-23.522924423217773,0.0,0.0,0.0,0.0,0.0,0.0,0.5794000029563904,0.0,0.0,0.0,0
900318178,0.21403829753398895,0.11181312054395676,-23.503459930419922,0.0,0.0,0.0,0.0,0.0,0.0,0.5794000029563904,0.0,0.0,0.0,0
900328221,0.2013450562953949,0.09905783087015152,-23.515453338623047,0.0,0.0,0.0,0.0,0.0,0.0,0.5794000029563904,0.0,0.0,0.0,0
900337864,0.18825381994247437,0.12289487570524216,-23.524444580078125,0.0,0.0,0.0,0.0,0.0,0.0,0.5794000029563904,0.0,0.0,0.0,0
900348057,0.18334904313087463,0.07901205867528915,-23.505367279052734,0.0,0.0,0.0,0.0,0.0,0.0,0.5794000029563904,0.0,0.0,0.0,0
900357879,0.18208816647529602,0.0929291769862175,-23.514909744262695,0.0,0.0,0.0,0.0,0.0,0.0,0.5794000029563904,0.0,0.0,0.0,0
900368315,0.1981431394815445,0.11661262810230255,-23.51874351501465,0.0,0.0,0.0,0.0,0.0,0.0,0.5794000029563904,0.0,0.0,0.0,0
900378164,0.20233513414859772,0.09747248888015747,-23.514041900634766,0.0,0.0,0.0,0.0,0.0,0.0,0.5794000029563904,0.0,0.0,0.0,0
900387860,0.19172006845474243,0.1108340322971344,-23.5368595123291,0.0,0.0,0.0,0.0,0.0,0.0,0.5794000029563904,0.0,0.0,0.0,0
900397896,0.19265049695968628,0.10089117288589478,-23.527498245239258,0.0,0.0,0.0,0.0,0.0,0.0,0.5794000029563904,0.0,0.0,0.0,0
900407932,0.1975102573633194,0.0864197313785553,-23.509727478027344,0.0,0.0,0.0,0.0,0.0,0.0,0.5794000029563904,0.0,0.0,0.0,0
900418188,0.20126289129257202,0.10944872349500656,-23.522136688232422,0.0,0.0,0.0,0.0,0.0,0.0,0.5794000029563904,0.0,0.0,0.0,0
900428368,0.19621330499649048,0.11323732137680054,-23.515512466430664,0.0,0.0,0.0,0.0,0.0,0.0,0.5794000029563904,0.0,0.0,0.0,0
900437862,0.18137483298778534,0.10077730566263199,-23.521081924438477,0.0,0.0,0.0,0.0,0.0,0.0,0.5794000029563904,0.0,0.0,0.0,0
900447986,0.18133576214313507,0.09809739887714386,-23.529752731323242,0.0,0.0,0.0,0.0,0.0,0.0,0.5794000029563904,0.0,0.0,0.0,0
900457858,0.19460636377334595,0.09073764830827713,-23.51477813720703,0.0,0.0,0.0,0.0,0.0,0.0,0.5794000029563904,0.0,0.0,0.0,0
900468183,0.20896340906620026,0.10088701546192169,-23.513874053955078,0.0,0.0,0.0,0.0,0.0,0.0,0.5794000029563904,0.0,0.0,0.0,0
900478237,0.20880746841430664,0.11103504151105881,-23.525697708129883,0.0,0.0,0.0,0.0,0.0,0.0,0.5794000029563904,0.0,0.0,0.0,0
900487928,0.20499086380004883,0.11148549616336823,-23.502805709838867,0.0,0.0,0.0,0.0,0.0,0.0,0.5794000029563904,0.0,0.0,0.0,0
900497878,0.16924193501472473,0.10200166702270508,-23.534015655517578,0.0,0.0,0.0,0.0,0.0,0.0,0.5794000029563904,0.0,0.0,0.0,0
900507974,0.17966419458389282,0.10602134466171265,-23.52947425842285,0.0,0.0,0.0,0.0,0.0,0.0,0.5794000029563904,0.0,0.0,0.0,0
900518191,0.19917242228984833,0.09576926380395889,-23.512052536010742,0.0,0.0,0.0,0.0,0.0,0.0,0.5794000029563904,0.0,0.0,0.0,0
900528230,0.21272079646587372,0.09400666505098343,-23.52505111694336,0.0,0.0,0.0,0.0,0.0,0.0,0.5794000029563904,0.0,0.0,0.0,0
900537903,0.20876358449459076,0.10850853472948074,-23.50209617614746,0.0,0.0,0.0,0.0,0.0,0.0,0.5794000029563904,0.0,0.0,0.0,0
900548027,0.20758654177188873,0.10707587003707886,-23.498943328857422,0.0,0.0,0.0,0.0,0.0,0.0,0.5794000029563904,0.0,0.0,0.0,0
900557854,0.18163008987903595,0.1068936139345169,-23.526302337646484,0.0,0.0,0.0,0.0,0.0,0.0,0.5794000029563904,0.0,0.0,0.0,0
900568315,0.18452595174312592,0.10251282900571823,-23.527008056640625,0.0,0.0,0.0,0.0,0.0,0.0,0.5794000029563904,0.0,0.0,0.0,0
900578194,0.18118233978748322,0.0855969488620758,-23.520700454711914,0.0,0.0,0.0,0.0,0.0,0.0,0.5794000029563904,0.0,0.0,0.0,0
900587893,0.19652393460273743,0.10913433879613876,-23.524953842163086,0.0,0.0,0.0,0.0,0.0,0.0,0.5794000029563904,0.0,0.0,0.0,0
900597968,0.19888122379779816,0.11474419385194778,-23.504793167114258,0.0,0.0,0.0,0.0,0.0,0.0,0.5794000029563904,0.0,0.0,0.0,0
900607977,0.18908071517944336,0.10059384256601334,-23.520462036132812,0.0,0.0,0.0,0.0,0.0,0.0,0.5794000029563904,0.0,0.0,0.0,0
900618185,0.19012810289859772,0.10473732650279999,-23.532493591308594,0.0,0.0,0.0,0.0,0.0,0.0,0.5794000029563904,0.0,0.0,0.0,0
900628413,0.20400719344615936,0.0942508801817894,-23.51491355895996,0.0,0.0,0.0,0.0,0.0,0.0,0.5794000029563904,0.0,0.0,0.0,0
900637891,0.20379868149757385,0.09777090698480606,-23.51988983154297,0.0,0.0,0.0,0.0,0.0,0.0,0.5794000029563904,0.0,0.0,0.0,0
900647979,0.2036878615617752,0.12603984773159027,-23.513151168823242,0.0,0.0,0.0,0.0,0.0,0.0,0.5794000029563904,0.0,0.0,0.0,0
900657865,0.18864479660987854,0.10567998886108398,-23.504810333251953,0.0,0.0,0.0,0.0,0.0,0.0,0.5794000029563904,0.0,0.0,0.0,0
900668219,0.16965140402317047,0.10689008980989456,-23.521385192871094,0.0,0.0,0.0,0.0,0.0,0.0,0.5794000029563904,0.0,0.0,0.0,0
900678248,0.17254526913166046,0.09960286319255829,-23.537843704223633,0.0,0.0,0.0,0.0,0.0,0.0,0.5794000029563904,0.0,0.0,0.0,0
900687991,0.2007916271686554,0.09499520808458328,-23.514375686645508,0.0,0.0,0.0,0.0,0.0,0.0,0.5794000029563904,0.0,0.0,0.0,0
900697882,0.20979905128479004,0.10868403315544128,-23.522197723388672,0.0,0.0,0.0,0.0,0.0,0.0,0.5794000029563904,0.0,0.0,0.0,0
900707855,0.20497414469718933,0.11044737696647644,-23.506956100463867,0.0,0.0,0.0,0.0,0.0,0.0,0.5794000029563904,0.0,0.0,0.0,0
900718211,0.18631242215633392,0.10162275284528732,-23.5119571685791,0.0,0.0,0.0,0.0,0.0,0.0,0.5794000029563904,0.0,0.0,0.0,0
900728198,0.1763133406639099,0.10474622994661331,-23.53285026550293,0.0,0.0,0.0,0.0,0.0,0.0,0.5794000029563904,0.0,0.0,0.0,0
900737870,0.18622197210788727,0.09583831578493118,-23.510425567626953,0.0,0.0,0.0,0.0,0.0,0.0,0.5794000029563904,0.0,0.0,0.0,0
900748019,0.19616036117076874,0.09801775217056274,-23.51955223083496,0.0,0.0,0.0,0.0,0.0,0.0,0.5794000029563904,0.0,0.0,0.0,0
900757913,0.2157575488090515,0.1063714325428009,-23.5260009765625,0.0,0.0,0.0,0.0,0.0,0.0,0.5794000029563904,0.0,0.0,0.0,0
900768386,0.21367910504341125,0.10603660345077515,-23.32352066040039,0.0,0.0,0.0,0.0,0.0,0.0,0.5794000029563904,0.0,0.0,0.0,0
900778152,0.1980314403772354,0.10327237099409103,-23.328996658325195,0.0,0.0,0.0,0.0,0.0,0.0,0.5794000029563904,0.0,0.0,0.0,0
900787865,0.18489579856395721,0.09900201112031937,-23.31991195678711,0.0,0.0,0.0,0.0,0.0,0.0,0.5794000029563904,0.0,0.0,0.0,0
900797881,0.19702459871768951,0.10067427158355713,-23.327945709228516,0.0,0.0,0.0,0.0,0.0,0.0,0.5794000029563904,0.0,0.0,0.0,0
900807929,0.1980019062757492,0.10258717089891434,-23.32947540283203,0.0,0.0,0.0,0.0,0.0,0.0,0.5794000029563904,0.0,0.0,0.0,0
900818187,0.19281017780303955,0.11635597795248032,-23.33101463317871,0.0,0.0,0.0,0.0,0.0,0.0,0.5794000029563904,0.0,0.0,0.0,0
900828449,0.1761213093996048,0.09274328500032425,-23.31406593322754,0.0,0.0,0.0,0.0,0.0,0.0,0.5794000029563904,0.0,0.0,0.0,0
900837887,0.16893623769283295,0.09750626981258392,-23.324556350708008,0.0,0.0,0.0,0.0,0.0,0.0,0.5794000029563904,0.0,0.0,0.0,0
900848054,0.1912519484758377,0.08795228600502014,-23.311508178710938,0.0,0.0,0.0,0.0,0.0,0.0,0.5794000029563904,0.0,0.0,0.0,0
900857874,0.21355891227722168,0.09480500966310501,-23.304489135742188,0.0,0.0,0.0,0.0,0.0,0.0,0.5794000029563904,0.0,0.0,0.0,0
900868197,0.2057933807373047,0.11147245019674301,-23.321609497070312,0.0,0.0,0.0,0.0,0.0,0.0,0.5794000029563904,0.0,0.0,0.0,0
900878190,0.1878499686717987,0.10256820172071457,-23.31493377685547,0.0,0.0,0.0,0.0,0.0,0.0,0.5794000029563904,0.0,0.0,0.0,0
900887963,0.1723085641860962,0.10332238674163818,-23.30987548828125,0.0,0.0,0.0,0.0,0.0,0.0,0.5794000029563904,0.0,0.0,0.0,0
900897888,0.17867207527160645,0.08974745124578476,-23.30398178100586,0.0,0.0,0.0,0.0,0.0,0.0,0.5794000029563904,0.0,0.0,0.0,0
900907926,0.19423076510429382,0.09916963428258896,-23.301143646240234,0.0,0.0,0.0,0.0,0.0,0.0,0.5794000029563904,0.0,0.0,0.0,0
900918217,0.20241782069206238,0.1241668313741684,-23.306476593017578,0.0,0.0,0.0,0.0,0.0,0.0,0.5794000029563904,0.0,0.0,0.0,0
900928239,0.19635744392871857,0.10865480452775955,-23.312877655029297,0.0,0.0,0.0,0.0,0.0,0.0,0.5794000029563904,0.0,0.0,0.0,0
900937890,0.20208348333835602,0.09399216622114182,-23.306581497192383,0.0,0.0,0.0,0.0,0.0,0.0,0.5794000029563904,0.0,0.0,0.0,0
900948047,0.19860868155956268,0.08045785874128342,-23.298336029052734,0.0,0.0,0.0,0.0,0.0,0.0,0.5794000029563904,0.0,0.0,0.0,0
900957867,0.18836772441864014,0.11305326968431473,-23.302927017211914,0.0,0.0,0.0,0.0,0.0,0.0,0.5794000029563904,0.0,0.0,0.0,0
900968388,0.18689890205860138,0.11876367777585983,-23.30470848083496,0.0,0.0,0.0,0.0,0.0,0.0,0.5794000029563904,0.0,0.0,0.0,0
900978209,0.1887640357017517,0.10417070239782333,-23.308486938476562,0.0,0.0,0.0,0.0,0.0,0.0,0.5794000029563904,0.0,0.0,0.0,0
900987901,0.19039148092269897,0.07454396039247513,-23.303213119506836,0.0,0.0,0.0,0.0,0.0,0.0,0.5794000029563904,0.0,0.0,0.0,0
900997876,0.19930842518806458,0.10459081083536148,-23.31431007385254,0.0,0.0,0.0,0.0,0.0,0.0,0.5794000029563904,0.0,0.0,0.0,0
901007892,0.19416587054729462,0.11390956491231918,-23.31315040588379,0.0,0.0,0.0,0.0,0.0,0.0,0.5794000029563904,0.0,0.0,0.0,0
901018188,0.19950512051582336,0.12354782223701477,-23.303550720214844,0.0,0.0,0.0,0.0,0.0,0.0,0.5794000029563904,0.0,0.0,0.0,0
901028380,0.20380547642707825,0.08060497790575027,-23.286096572875977,0.0,0.0,0.0,0.0,0.0,0.0,0.5794000029563904,0.0,0.0,0.0,0
901037877,0.1961158663034439,0.06561317294836044,-23.287641525268555,0.0,0.0,0.0,0.0,0.0,0.0,0.5794000029563904,0.0,0.0,0.0,0
901047995,0.17399854958057404,0.11994900554418564,-23.305944442749023,0.0,0.0,0.0,0.0,0.0,0.0,0.5794000029563904,0.0,0.0,0.0,0
901057871,0.16921551525592804,0.13137172162532806,-23.303844451904297,0.0,0.0,0.0,0.0,0.0,0.0,0.5794000029563904,0.0,0.0,0.0,0
901068169,0.2027766853570938,0.09857389330863953,-23.301687240600586,0.0,0.0,0.0,0.0,0.0,0.0,0.5794000029563904,0.0,0.0,0.0,0
901078202,0.22472445666790009,0.06505759060382843,-23.279333114624023,0.0,0.0,0.0,0.0,0.0,0.0,0.5794000029563904,0.0,0.0,0.0,0
901087971,0.21182255446910858,0.10286597162485123,-23.308515548706055,0.0,0.0,0.0,0.0,0.0,0.0,0.5794000029563904,0.0,0.0,0.0,0
901097842,0.18081653118133545,0.1342497169971466,-23.31777572631836,0.0,0.0,0.0,0.0,0.0,0.0,0.5794000029563904,0.0,0.0,0.0,0
901107979,0.18116846680641174,0.12383713573217392,-23.30447769165039,0.0,0.0,0.0,0.0,0.0,0.0,0.5794000029563904,0.0,0.0,0.0,0
901118188,0.19102004170417786,0.05597576126456261,-23.279155731201172,0.0,0.0,0.0,0.0,0.0,0.0,0.5794000029563904,0.0,0.0,0.0,0
901128202,0.19560208916664124,0.08556905388832092,-23.295324325561523,0.0,0.0,0.0,0.0,0.0,0.0,0.5794000029563904,0.0,0.0,0.0,0
901137880,0.18957975506782532,0.10794220864772797,-23.292264938354492,0.0,0.0,0.0,0.0,0.0,0.0,0.5794000029563904,0.0,0.0,0.0,0
901148044,0.1985083818435669,0.15350911021232605,-23.318988800048828,0.0,0.0,0.0,0.0,0.0,0.0,0.5794000029563904,0.0,0.0,0.0,0
901157871,0.19475194811820984,0.07441923022270203,-23.28631591796875,0.0,0.0,0.0,0.0,0.0,0.0,0.5794000029563904,0.0,0.0,0.0,0
901168404,0.20882487297058105,0.07031118124723434,-23.287702560424805,0.0,0.0,0.0,0.0,0.0,0.0,0.5794000029563904,0.0,0.0,0.0,0
901178201,0.1955990344285965,0.10950807482004166,-23.303218841552734,0.0,0.0,0.0,0.0,0.0,0.0,0.5794000029563904,0.0,0.0,0.0,0
901187970,0.18820111453533173,0.15044884383678436,-23.321367263793945,0.0,0.0,0.0,0.0,0.0,0.0,0.5794000029563904,0.0,0.0,0.0,0
901197873,0.1861751675605774,0.11477456986904144,-23.316368103027344,0.0,0.0,0.0,0.0,0.0,0.0,0.5794000029563904,0.0,0.0,0.0,0
901207894,0.1900598555803299,0.039539970457553864,-23.284170150756836,0.0,0.0,0.0,0.0,0.0,0.0,0.5794000029563904,0.0,0.0,0.0,0
901218174,0.19022135436534882,0.0961616113781929,-23.306859970092773,0.0,0.0,0.0,0.0,0.0,0.0,0.5794000029563904,0.0,0.0,0.0,0
901228392,0.20252272486686707,0.1288251131772995,-23.309511184692383,0.0,0.0,0.0,0.0,0.0,0.0,0.5794000029563904,0.0,0.0,0.0,0
901237889,0.21058204770088196,0.12906163930892944,-23.32927894592285,0.0,0.0,0.0,0.0,0.0,0.0,0.5794000029563904,0.0,0.0,0.0,0
901248028,0.20686444640159607,0.03713011369109154,-23.289291381835938,0.0,0.0,0.0,0.0,0.0,0.0,0.5794000029563904,0.0,0.0,0.0,0
901257871,0.18791987001895905,0.0776841789484024,-23.29400062561035,0.0,0.0,0.0,0.0,0.0,0.0,0.5794000029563904,0.0,0.0,0.0,0
901268239,0.1751304417848587,0.13029834628105164,-23.30253028869629,0.0,0.0,0.0,0.0,0.0,0.0,0.5794000029563904,0.0,0.0,0.0,0
901278209,0.18372058868408203,0.16759367287158966,-23.330114364624023,0.0,0.0,0.0,0.0,0.0,0.0,0.5794000029563904,0.0,0.0,0.0,0
901287904,0.19587711989879608,0.053374793380498886,-23.299211502075195,0.0,0.0,0.0,0.0,0.0,0.0,0.5794000029563904,0.0,0.0,0.0,0
901297867,0.21037332713603973,0.037519071251153946,-23.29642105102539,0.0,0.0,0.0,0.0,0.0,0.0,0.5794000029563904,0.0,0.0,0.0,0
901307955,0.2002633810043335,0.1076110228896141,-23.314359664916992,0.0,0.0,0.0,0.0,0.0,0.0,0.5794000029563904,0.0,0.0,0.0,0
901318245,0.1893579065799713,0.1671857088804245,-23.325206756591797,0.0,0.0,0.0,0.0,0.0,0.0,0.5794000029563904,0.0,0.0,0.0,0
901328252,0.19350217282772064,0.12281922250986099,-23.31378173828125,0.0,0.0,0.0,0.0,0.0,0.0,0.5794000029563904,0.0,0.0,0.0,0
901337936,0.2000165432691574,0.028296053409576416,-23.278316497802734,0.0,0.0,0.0,0.0,0.0,0.0,0.5794000029563904,0.0,0.0,0.0,0
901348085,0.1885501593351364,0.07964067906141281,-23.291240692138672,0.0,0.0,0.0,0.0,0.0,0.0,0.5794000029563904,0.0,0.0,0.0,0
901357860,0.18121092021465302,0.1563219428062439,-23.319002151489258,0.0,0.0,0.0,0.0,0.0,0.0,0.5794000029563904,0.0,0.0,0.0,0
901368265,0.20345743000507355,0.1526019275188446,-23.324960708618164,0.0,0.0,0.0,0.0,0.0,0.0,0.5794000029563904,0.0,0.0,0.0,0
901378156,0.2122529298067093,0.05195373296737671,-23.28449249267578,0.0,0.0,0.0,0.0,0.0,0.0,0.5794000029563904,0.0,0.0,0.0,0
901387949,0.19992823898792267,0.057456180453300476,-23.287851333618164,0.0,0.0,0.0,0.0,0.0,0.0,0.5794000029563904,0.0,0.0,0.0,0
901397898,0.18414203822612762,0.10185164213180542,-23.292434692382812,0.0,0.0,0.0,0.0,0.0,0.0,0.5794000029563904,0.0,0.0,0.0,0
901407895,0.18674926459789276,0.18157640099525452,-23.32839012145996,0.0,0.0,0.0,0.0,0.0,0.0,0.5794000029563904,0.0,0.0,0.0,0
901418208,0.18532346189022064,0.07396408170461655,-23.29722785949707,0.0,0.0,0.0,0.0,0.0,0.0,0.5794000029563904,0.0,0.0,0.0,0
901428412,0.19066458940505981,0.06939583271741867,-23.30375862121582,0.0,0.0,0.0,0.0,0.0,0.0,0.5794000029563904,0.0,0.0,0.0,0
901437904,0.1851424127817154,0.09142102301120758,-23.29861831665039,0.0,0.0,0.0,0.0,0.0,0.0,0.5794000029563904,0.0,0.0,0.0,0
901448016,0.1881357729434967,0.1525087207555771,-23.31429100036621,0.0,0.0,0.0,0.0,0.0,0.0,0.5794000029563904,0.0,0.0,0.0,0
901457862,0.20250463485717773,0.1144469827413559,-23.322307586669922,0.0,0.0,0.0,0.0,0.0,0.0,0.5794000029563904,0.0,0.0,0.0,0
901468203,0.20991520583629608,0.04604912921786308,-23.28669548034668,0.0,0.0,0.0,0.0,0.0,0.0,0.5794000029563904,0.0,0.0,0.0,0
901478216,0.19205516576766968,0.09580863267183304,-23.305950164794922,0.0,0.0,0.0,0.0,0.0,0.0,0.5794000029563904,0.0,0.0,0.0,0
901487888,0.18741698563098907,0.1404501497745514,-23.319854736328125,0.0,0.0,0.0,0.0,0.0,0.0,0.5794000029563904,0.0,0.0,0.0,0
901497886,0.18305134773254395,0.13400988280773163,-23.312488555908203,0.0,0.0,0.0,0.0,0.0,0.0,0.5794000029563904,0.0,0.0,0.0,0
901507984,0.191788911819458,0.038816433399915695,-23.274137496948242,0.0,0.0,0.0,0.0,0.0,0.0,0.5794000029563904,0.0,0.0,0.0,0
901518188,0.2069477140903473,0.08151781558990479,-23.299665451049805,0.0,0.0,0.0,0.0,0.0,0.0,0.5794000029563904,0.0,0.0,0.0,0
901528260,0.19666264951229095,0.1222640722990036,-23.293289184570312,0.0,0.0,0.0,0.0,0.0,0.0,0.5794000029563904,0.0,0.0,0.0,0
901537862,0.19524885714054108,0.17327286303043365,-23.330204010009766,0.0,0.0,0.0,0.0,0.0,0.0,0.5794000029563904,0.0,0.0,0.0,0
901548004,0.19244703650474548,0.054215993732213974,-23.2896785736084,0.0,0.0,0.0,0.0,0.0,0.0,0.5794000029563904,0.0,0.0,0.0,0
901557860,0.1919456422328949,0.0558328814804554,-23.287851333618164,0.0,0.0,0.0,0.0,0.0,0.0,0.5794000029563904,0.0,0.0,0.0,0
901568286,0.1794787347316742,0.09982296079397202,-23.297142028808594,0.0,0.0,0.0,0.0,0.0,0.0,0.5794000029563904,0.0,0.0,0.0,0
901578169,0.18782983720302582,0.17047789692878723,-23.319087982177734,0.0,0.0,0.0,0.0,0.0,0.0,0.5794000029563904,0.0,0.0,0.0,0
901587870,0.19215217232704163,0.10297860205173492,-23.306522369384766,0.0,0.0,0.0,0.0,0.0,0.0,0.5794000029563904,0.0,0.0,0.0,0
901597889,0.1945585161447525,0.035339806228876114,-23.2835636138916,0.0,0.0,0.0,0.0,0.0,0.0,0.5794000029563904,0.0,0.0,0.0,0
901607859,0.18954379856586456,0.10646110773086548,-23.307104110717773,0.0,0.0,0.0,0.0,0.0,0.0,0.5794000029563904,0.0,0.0,0.0,0
901618222,0.18248362839221954,0.1575736403465271,-23.310129165649414,0.0,0.0,0.0,0.0,0.0,0.0,0.5794000029563904,0.0,0.0,0.0,0
901628400,0.200264111161232,0.1510743796825409,-23.328229904174805,0.0,0.0,0.0,0.0,0.0,0.0,0.5794000029563904,0.0,0.0,0.0,0
901637879,0.20175021886825562,0.035924557596445084,-23.280540466308594,0.0,0.0,0.0,0.0,0.0,0.0,0.5794000029563904,0.0,0.0,0.0,0
901648002,0.18064287304878235,0.06382816284894943,-23.305768966674805,0.0,0.0,0.0,0.0,0.0,0.0,0.5794000029563904,0.0,0.0,0.0,0
901657835,0.16872140765190125,0.14064428210258484,-23.313764572143555,0.0,0.0,0.0,0.0,0.0,0.0,0.5794000029563904,0.0,0.0,0.0,0
901668155,0.18303914368152618,0.16839616000652313,-23.317001342773438,0.0,0.0,0.0,0.0,0.0,0.0,0.5794000029563904,0.0,0.0,0.0,0
901678232,0.2143431305885315,0.053132880479097366,-23.28498649597168,0.0,0.0,0.0,0.0,0.0,0.0,0.5794000029563904,0.0,0.0,0.0,0
901687987,0.22201286256313324,0.05712078884243965,-23.291271209716797,0.0,0.0,0.0,0.0,0.0,0.0,0.5794000029563904,0.0,0.0,0.0,0
901697897,0.18792477250099182,0.094898521900177,-23.299758911132812,0.0,0.0,0.0,0.0,0.0,0.0,0.5794000029563904,0.0,0.0,0.0,0
901707947,0.178610160946846,0.1896742731332779,-23.32625389099121,0.0,0.0,0.0,0.0,0.0,0.0,0.5794000029563904,0.0,0.0,0.0,0
901718181,0.1805557757616043,0.08264601230621338,-23.29393196105957,0.0,0.0,0.0,0.0,0.0,0.0,0.5794000029563904,0.0,0.0,0.0,0
901728201,0.19563689827919006,0.03489520028233528,-23.274459838867188,0.0,0.0,0.0,0.0,0.0,0.0,0.5794000029563904,0.0,0.0,0.0,0
901737879,0.20220381021499634,0.08508514612913132,-23.298431396484375,0.0,0.0,0.0,0.0,0.0,0.0,0.5794000029563904,0.0,0.0,0.0,0
901747989,0.19876430928707123,0.15854735672473907,-23.313720703125,0.0,0.0,0.0,0.0,0.0,0.0,0.5794000029563904,0.0,0.0,0.0,0
901757846,0.18372702598571777,0.15416492521762848,-23.31623649597168,0.0,0.0,0.0,0.0,0.0,0.0,0.5794000029563904,0.0,0.0,0.0,0
901768317,0.1979275941848755,0.03164670243859291,-23.268787384033203,0.0,0.0,0.0,0.0,0.0,0.0,0.5794000029563904,0.0,0.0,0.0,0
901778179,0.19481003284454346,0.06888604164123535,-23.291358947753906,0.0,0.0,0.0,0.0,0.0,0.0,0.5794000029563904,0.0,0.0,0.0,0
901787918,0.18802359700202942,0.12492793798446655,-23.30786895751953,0.0,0.0,0.0,0.0,0.0,0.0,0.5794000029563904,0.0,0.0,0.0,0
901797950,0.1821342557668686,0.1684878170490265,-23.32305145263672,0.0,0.0,0.0,0.0,0.0,0.0,0.5794000029563904,0.0,0.0,0.0,0
901807943,0.1838303655385971,0.05775904655456543,-23.276620864868164,0.0,0.0,0.0,0.0,0.0,0.0,0.5794000029563904,0.0,0.0,0.0,0
901818196,0.18500110507011414,0.05763132497668266,-23.282407760620117,0.0,0.0,0.0,0.0,0.0,0.0,0.5794000029563904,0.0,0.0,0.0,0
901828420,0.19362613558769226,0.10092935711145401,-23.294424057006836,0.0,0.0,0.0,0.0,0.0,0.0,0.5794000029563904,0.0,0.0,0.0,0
901837863,0.21128441393375397,0.1793575882911682,-23.33024787902832,0.0,0.0,0.0,0.0,0.0,0.0,0.5794000029563904,0.0,0.0,0.0,0
901847948,0.2150227129459381,0.0852913185954094,-23.310941696166992,0.0,0.0,0.0,0.0,0.0,0.0,0.5794000029563904,0.0,0.0,0.0,0
901857844,0.19963204860687256,0.04661397263407707,-23.277746200561523,0.0,0.0,0.0,0.0,0.0,0.0,0.5794000029563904,0.0,0.0,0.0,0
901868188,0.1725778877735138,0.08708592504262924,-23.299823760986328,0.0,0.0,0.0,0.0,0.0,0.0,0.5794000029563904,0.0,0.0,0.0,0
901878187,0.17485982179641724,0.16958284378051758,-23.320419311523438,0.0,0.0,0.0,0.0,0.0,0.0,0.5794000029563904,0.0,0.0,0.0,0
901888001,0.18876127898693085,0.1412970870733261,-23.325645446777344,0.0,0.0,0.0,0.0,0.0,0.0,0.5794000029563904,0.0,0.0,0.0,0
901897848,0.20730088651180267,0.024503950029611588,-23.280864715576172,0.0,0.0,0.0,0.0,0.0,0.0,0.5794000029563904,0.0,0.0,0.0,0
901907966,0.20223823189735413,0.07372685521841049,-23.29692268371582,0.0,0.0,0.0,0.0,0.0,0.0,0.5794000029563904,0.0,0.0,0.0,0
901918207,0.18915502727031708,0.14122016727924347,-23.304428100585938,0.0,0.0,0.0,0.0,0.0,0.0,0.5794000029563904,0.0,0.0,0.0,0
901928227,0.19033080339431763,0.177416130900383,-23.32088279724121,0.0,0.0,0.0,0.0,0.0,0.0,0.5794000029563904,0.0,0.0,0.0,0
901937954,0.19515199959278107,0.05173763260245323,-23.285560607910156,0.0,0.0,0.0,0.0,0.0,0.0,0.5794000029563904,0.0,0.0,0.0,0
901948028,0.18448349833488464,0.03672970458865166,-23.288400650024414,0.0,0.0,0.0,0.0,0.0,0.0,0.5794000029563904,0.0,0.0,0.0,0
901957868,0.181407168507576,0.10972034931182861,-23.304927825927734,0.0,0.0,0.0,0.0,0.0,0.0,0.5794000029563904,0.0,0.0,0.0,0
