TimeUS,PLX,PLY,PLZ,AX,AY,BX,BY,CX,CY,F,P,X,Y,SW
358750179,0.24087990820407867,0.14990709722042084,-23.512798309326172,-0.0006340778199955821,0.0006176925380714238,-3.366134478710592e-05,-0.0005145709146745503,0.2412678301334381,0.1500905603170395,0.5794000029563904,0.0,267.52508544921875,300.70611572265625,0
358760181,0.2458374798297882,0.14604371786117554,-23.51483154296875,-0.0005846883868798614,0.0005798987112939358,0.00013152096653357148,-0.0006409718771465123,0.2413732409477234,0.1500099003314972,0.5794000029563904,0.0,267.25079345703125,300.5653076171875,0
358770207,0.2445938140153885,0.14654096961021423,-23.497920989990234,-0.0005504703731276095,0.0005483736167661846,0.00023866520496085286,-0.0007396840373985469,0.24144147336483002,0.14994703233242035,0.5794000029563904,0.0,267.0629577636719,300.46783447265625,0
358780386,0.24528342485427856,0.15091559290885925,-23.491844177246094,-0.0005081366980448365,0.0005710288533009589,0.000363137514796108,-0.0006730715394951403,0.24152061343193054,0.14998938143253326,0.5794000029563904,0.0,266.8515625,300.533447265625,0
358790418,0.24522659182548523,0.14761735498905182,-23.501893997192383,-0.00046712689800187945,0.0005510492483153939,0.00047663587611168623,-0.0007283668383024633,0.24159269034862518,0.14995425939559937,0.5794000029563904,0.0,266.67657470703125,300.4775695800781,0
358800166,0.2464957982301712,0.1466328650712967,-23.513816833496094,-0.00041003344813361764,0.00051831518067047,0.0006256825872696936,-0.0008138215634971857,0.24168728291988373,0.14990003407001495,0.5794000029563904,0.0,266.48138427734375,300.3970031738281,0
358810189,0.2441657930612564,0.14716215431690216,-23.51067352294922,-0.00038576373481191695,0.0004933251766487956,0.0006855466635897756,-0.0008754623122513294,0.24172526597976685,0.1498609185218811,0.5794000029563904,0.0,266.413818359375,300.3430480957031,0
358820153,0.24205484986305237,0.14812490344047546,-23.500120162963867,-0.0003915451525244862,0.00048225538921542466,0.0006720452220179141,-0.0009013137314468622,0.24171669781208038,0.14984451234340668,0.5794000029563904,0.0,266.4288024902344,300.3211975097656,0
358830393,0.24216409027576447,0.14636394381523132,-23.49671745300293,-0.00039546453626826406,0.0004458508628886193,0.0006633700104430318,-0.0009818915277719498,0.24171118438243866,0.1497933268547058,0.5794000029563904,0.0,266.4388427734375,300.2561340332031,0
358840366,0.2413659244775772,0.14371268451213837,-23.503501892089844,-0.00041094422340393066,0.00037088405224494636,0.0006308482843451202,-0.0011393913300707936,0.2416905015707016,0.14969314634799957,0.5794000029563904,0.0,266.4786376953125,300.14459228515625,0
358850111,0.2430526465177536,0.14886003732681274,-23.503326416015625,-0.0004002096538897604,0.0003758577804546803,0.0006522752228192985,-0.0011294634314253926,0.24170415103435516,0.14969947934150696,0.5794000029563904,0.0,266.45159912109375,300.1511535644531,0
358860136,0.2415429949760437,0.15432175993919373,-23.502670288085938,-0.0004130197921767831,0.0004654370713979006,0.0006279535591602325,-0.0009593858267180622,0.24168860912322998,0.1498081535100937,0.5794000029563904,0.0,266.4830627441406,300.2815856933594,0
358870224,0.23789779841899872,0.1453961580991745,-23.50761604309082,-0.00048317963955923915,0.0004104960826225579,0.0005011426983401179,-0.0010586893185973167,0.24160730838775635,0.14974449574947357,0.5794000029563904,0.0,266.6684265136719,300.1997985839844,0
358880988,0.2376444935798645,0.1405251920223236,-23.502405166625977,-0.0005552425282076001,0.0002777553745545447,0.0003770774055738002,-0.0012872189981862903,0.24152745306491852,0.1495974063873291,0.5794000029563904,0.0,266.87548828125,300.04241943359375,0
358890382,0.23784486949443817,0.14836324751377106,-23.50556182861328,-0.0006216182955540717,0.0002781827934086323,0.0002681294863577932,-0.0012865174794569612,0.241457000374794,0.14959785342216492,0.5794000029563904,0.0,267.0648498535156,300.0428466796875,0
358900180,0.24174028635025024,0.15285111963748932,-23.497509002685547,-0.0006200888892635703,0.0003539706813171506,0.0002705231891013682,-0.0011678988812491298,0.24145855009555817,0.14967498183250427,0.5794000029563904,0.0,267.0606994628906,300.1241760253906,0
358910141,0.24794481694698334,0.15122468769550323,-23.493690490722656,-0.0005118286935612559,0.0003993813879787922,0.00043218283099122345,-0.0011000892845913768,0.24156434834003448,0.14971935749053955,0.5794000029563904,0.0,266.7708435058594,300.1781311035156,0
358920163,0.24404174089431763,0.14724329113960266,-23.50594711303711,-0.0004743548925034702,0.0003737289516720921,0.0004855852166656405,-0.0011366455582901835,0.24159954488277435,0.1496952623128891,0.5794000029563904,0.0,266.67498779296875,300.1475524902344,0
358930414,0.248931884765625,0.14799898862838745,-23.513391494750977,-0.00035108960582874715,0.00036181180621497333,0.0006532528786920011,-0.0011528554605320096,0.24171099066734314,0.14968448877334595,0.5794000029563904,0.0,266.3944396972656,300.1340026855469,0
358940845,0.24232834577560425,0.15251190960407257,-23.508216857910156,-0.0003496783901937306,0.00043085424113087356,0.0006550849648192525,-0.0010632227640599012,0.24171221256256104,0.14974461495876312,0.5794000029563904,0.0,266.3916015625,300.21490478515625,0
358950092,0.2445153295993805,0.1551169604063034,-23.50083351135254,-0.0003081664035562426,0.0005447780131362379,0.0007065274985507131,-0.0009220460196956992,0.24174708127975464,0.14984031021595,0.5794000029563904,0.0,266.3125915527344,300.3635559082031,0
358960135,0.24387101829051971,0.15377269685268402,-23.489727020263672,-0.00027942893211729825,0.0006299706874415278,0.0007405165815725923,-0.0008212849497795105,0.24177038669586182,0.1499093919992447,0.5794000029563904,0.0,266.2621154785156,300.4842224121094,0
358970231,0.24400971829891205,0.14773514866828918,-23.49627685546875,-0.00024861248675733805,0.0005993835511617362,0.0007752897217869759,-0.0008557993569411337,0.24179454147815704,0.1498854160308838,0.5794000029563904,0.0,266.21160888671875,300.4408874511719,0
358980422,0.23855869472026825,0.1491798311471939,-23.507102966308594,-0.0003211836447007954,0.0005963727016933262,0.0006971659022383392,-0.0008590405341237783,0.24173951148986816,0.14988313615322113,0.5794000029563904,0.0,266.3330078125,300.4367370605469,0
358990428,0.24459505081176758,0.15114878118038177,-23.503890991210938,-0.0002760994539130479,0.0006303551490418613,0.0007434319122694433,-0.0008241673349402845,0.2417726069688797,0.14990808069705963,0.5794000029563904,0.0,266.25689697265625,300.4828186035156,0
359000163,0.2470354437828064,0.14928056299686432,-23.50229835510254,-0.00018502386228647083,0.0006266931886784732,0.0008324902737513185,-0.0008277481538243592,0.24183741211891174,0.1499054729938507,0.5794000029563904,0.0,266.1199951171875,300.4779357910156,0
359010191,0.24339516460895538,0.14412353932857513,-23.501052856445312,-0.0001670284109422937,0.0005223428597673774,0.0008492458728142083,-0.0009249087888747454,0.2418498396873474,0.14983344078063965,0.5794000029563904,0.0,266.0954895019531,300.343994140625,0
359020145,0.24080544710159302,0.14559541642665863,-23.502382278442383,-0.00019987253472208977,0.0004493681190069765,0.0008201122400350869,-0.0009896394331008196,0.24182778596878052,0.14978444576263428,0.5794000029563904,0.0,266.1403503417969,300.2561340332031,0
359030383,0.2425903081893921,0.1529025137424469,-23.51238250732422,-0.00019605520355980843,0.0005220963503234088,0.0008233726839534938,-0.0009275215561501682,0.24183031916618347,0.1498325765132904,0.5794000029563904,0.0,266.13507080078125,300.34259033203125,0
359040425,0.24116095900535583,0.15420612692832947,-23.50874137878418,-0.00022026055376045406,0.0006176519673317671,0.0008034802740439773,-0.0008489920874126256,0.241814523935318,0.14989490807056427,0.5794000029563904,0.0,266.16888427734375,300.4588623046875,0
359050168,0.24185848236083984,0.1490987241268158,-23.508676528930664,-0.0002292845892952755,0.0006074983393773437,0.0007963557145558298,-0.0008570084464736283,0.2418087273836136,0.14988838136196136,0.5794000029563904,0.0,266.1816711425781,300.4465637207031,0
359060228,0.24399502575397491,0.14801570773124695,-23.51360321044922,-0.0001947084383573383,0.0005752444267272949,0.000822543865069747,-0.0008814376778900623,0.24183060228824615,0.1498679667711258,0.5794000029563904,0.0,266.1337585449219,300.40814208984375,0
359070250,0.24183426797389984,0.15302641689777374,-23.50704002380371,-0.0002042402047663927,0.0006440801080316305,0.0008156264084391296,-0.0008314817678183317,0.2418246567249298,0.1499108523130417,0.5794000029563904,0.0,266.1466979980469,300.4889831542969,0
359080947,0.24479970335960388,0.1605839878320694,-23.50117301940918,-0.00015312944015022367,0.0008622112218290567,0.0008510907646268606,-0.0006801265408284962,0.24185599386692047,0.15004457533359528,0.5794000029563904,0.0,266.079345703125,300.7328186035156,0
359090382,0.24118435382843018,0.1584557443857193,-23.497900009155273,-0.00017631328955758363,0.0010290412465110421,0.000835738203022629,-0.0005696501466445625,0.24184201657772064,0.15014517307281494,0.5794000029563904,0.0,266.1092529296875,300.8951110839844,0
359100143,0.23575618863105774,0.15234751999378204,-23.497840881347656,-0.00030839614919386804,0.0010657504899427295,0.000752283085603267,-0.0005464557907544076,0.24176393449306488,0.15016686916351318,0.5794000029563904,0.0,266.2903747558594,300.9269104003906,0
359110116,0.2377927005290985,0.15185967087745667,-23.504140853881836,-0.0003945617063436657,0.0010906355455517769,0.0007001186604611576,-0.0005313904257491231,0.2417142391204834,0.15018121898174286,0.5794000029563904,0.0,266.4145202636719,300.94732666015625,0
359120132,0.24556057155132294,0.15449154376983643,-23.504819869995117,-0.0003176132158841938,0.0011681788600981236,0.000744736404158175,-0.00048642780166119337,0.2417575716972351,0.15022487938404083,0.5794000029563904,0.0,266.304443359375,301.0061340332031,0
359130455,0.24352136254310608,0.154801607131958,-23.50075912475586,-0.00028463875059969723,0.0012489254586398602,0.0007630478357896209,-0.0004415875009726733,0.2417757213115692,0.1502693146467209,0.5794000029563904,0.0,266.25836181640625,301.06085205078125,0
359140890,0.2418891340494156,0.15066082775592804,-23.50018882751465,-0.000285993330180645,0.0012403582222759724,0.0007623278652317822,-0.00044614108628593385,0.24177499115467072,0.1502646952867508,0.5794000029563904,0.0,266.2602233886719,301.055419921875,0
359150205,0.2444223165512085,0.1484592705965042,-23.50267219543457,-0.00023393282026518136,0.0011854059994220734,0.0007886987295933068,-0.0004739767173305154,0.24180248379707336,0.15023566782474518,0.5794000029563904,0.0,266.1896667480469,301.02032470703125,0
359160181,0.24200034141540527,0.15244577825069427,-23.50693130493164,-0.00023349754337687045,0.0012148978421464562,0.0007889069966040552,-0.0004598645609803498,0.24180270731449127,0.15025104582309723,0.5794000029563904,0.0,266.1890869140625,301.0388488769531,0
359170228,0.2429855465888977,0.15508680045604706,-23.511198043823242,-0.00021158131130505353,0.0012987875379621983,0.0007988025317899883,-0.0004219869151711464,0.2418140172958374,0.15029431879520416,0.5794000029563904,0.0,266.1602478027344,301.0865478515625,0
359180433,0.23425143957138062,0.15525896847248077,-23.51029396057129,-0.000375694886315614,0.00138318189419806,0.0007290195790119469,-0.00038610148476436734,0.24173012375831604,0.15033745765686035,0.5794000029563904,0.0,266.3771667480469,301.12847900390625,0
359190417,0.23682841658592224,0.14881989359855652,-23.503005981445312,-0.0004790657840203494,0.0013266566675156355,0.0006877468549646437,-0.0004086701956111938,0.2416776567697525,0.150308758020401,0.5794000029563904,0.0,266.5097351074219,301.10186767578125,0
359200115,0.24163152277469635,0.14943695068359375,-23.497201919555664,-0.0004756395937874913,0.0012844911543652415,0.0006890275981277227,-0.0004244317242410034,0.241679385304451,0.150287464261055,0.5794000029563904,0.0,266.5054931640625,301.08154296875,0
359210215,0.24038177728652954,0.1453206092119217,-23.50394630432129,-0.0004984527477063239,0.0011549683986231685,0.0006810841732658446,-0.0004695306997746229,0.24166791141033173,0.1502223163843155,0.5794000029563904,0.0,266.5330810546875,301.0145568847656,0
359220221,0.2389766424894333,0.14557819068431854,-23.509910583496094,-0.0005498800310306251,0.0010348667856305838,0.0006644949316978455,-0.0005082726129330695,0.24164210259914398,0.15016204118728638,0.5794000029563904,0.0,266.59259033203125,300.94415283203125,0
359230411,0.24229615926742554,0.15218865871429443,-23.50223159790039,-0.0005281048943288624,0.0010593733750283718,0.0006709549343213439,-0.0005010022432543337,0.24165302515029907,0.1501743346452713,0.5794000029563904,0.0,266.568115234375,300.9589538574219,0
359240417,0.23961935937404633,0.15232934057712555,-23.50008201599121,-0.0005633197142742574,0.0010853847488760948,0.0006614362937398255,-0.000493971339892596,0.24163535237312317,0.1501873880624771,0.5794000029563904,0.0,266.60675048828125,300.9736022949219,0
359250170,0.24195683002471924,0.15226368606090546,-23.497520446777344,-0.0005473176133818924,0.0011084794532507658,0.0006653281161561608,-0.0004883545334450901,0.24164339900016785,0.15019899606704712,0.5794000029563904,0.0,266.5896911621094,300.9857177734375,0
359260190,0.23930522799491882,0.14862729609012604,-23.498533248901367,-0.0005868796724826097,0.0010540507500991225,0.0006568048847839236,-0.0005000806413590908,0.24162344634532928,0.15017154812812805,0.5794000029563904,0.0,266.6305236816406,300.95770263671875,0
359270243,0.23735420405864716,0.1482720673084259,-23.50510597229004,-0.0006648005219176412,0.0009939605370163918,0.0006422539590857923,-0.0005113018560223281,0.24158397316932678,0.15014110505580902,0.5794000029563904,0.0,266.7039489746094,300.92559814453125,0
359280983,0.2385403960943222,0.1527549773454666,-23.50358009338379,-0.0007146304124034941,0.0010280241258442402,0.0006344381254166365,-0.000505958974827081,0.24155859649181366,0.15015845000743866,0.5794000029563904,0.0,266.7460632324219,300.943359375,0
359290377,0.24195519089698792,0.15920774638652802,-23.50677490234375,-0.0006924592307768762,0.0011914647184312344,0.0006372307543642819,-0.0004853722348343581,0.24156996607780457,0.15024222433567047,0.5794000029563904,0.0,266.72821044921875,301.0138854980469,0
359300206,0.24158135056495667,0.15848107635974884,-23.510032653808594,-0.0006782630225643516,0.001333023770712316,0.000638557830825448,-0.0004721391305793077,0.24157729744911194,0.1503153294324875,0.5794000029563904,0.0,266.71685791015625,301.0603332519531,0
359310195,0.2446078360080719,0.15504227578639984,-23.5025691986084,-0.0006041984888724983,0.0013999812072142959,0.0006429735221900046,-0.00046814719098620117,0.2416158765554428,0.1503501981496811,0.5794000029563904,0.0,266.6556396484375,301.0780334472656,0
359320107,0.2417970448732376,0.1489132195711136,-23.498750686645508,-0.000587904651183635,0.0013438679743558168,0.0006433667149394751,-0.0004695012466982007,0.24162444472312927,0.15032069385051727,0.5794000029563904,0.0,266.6416931152344,301.06463623046875,0
359330467,0.23991787433624268,0.15564653277397156,-23.499858856201172,-0.0006081313476897776,0.0014197429409250617,0.0006436260300688446,-0.00047047401312738657,0.2416137009859085,0.15036100149154663,0.5794000029563904,0.0,266.6583557128906,301.08074951171875,0
359340881,0.24120160937309265,0.1567903608083725,-23.504981994628906,-0.0006027203635312617,0.0015137149021029472,0.0006433520466089249,-0.0004752323729917407,0.2416166067123413,0.1504114717245102,0.5794000029563904,0.0,266.65411376953125,301.0965270996094,0
359350180,0.23586474359035492,0.14996203780174255,-23.508419036865234,-0.0006966873188503087,0.0014759639743715525,0.0006517320871353149,-0.0004718657291959971,0.2415655255317688,0.15039095282554626,0.5794000029563904,0.0,266.72003173828125,301.09130859375,0
359360191,0.23639219999313354,0.14534629881381989,-23.504558563232422,-0.0007763135945424438,0.001355362473987043,0.0006619810592383146,-0.00045634267735295,0.2415216863155365,0.15032455325126648,0.5794000029563904,0.0,266.7660217285156,301.0759582519531,0
359370220,0.24245604872703552,0.15027391910552979,-23.498519897460938,-0.0007430254481732845,0.0013288359623402357,0.0006563426577486098,-0.0004518495697993785,0.24154026806354523,0.150309756398201,0.5794000029563904,0.0,266.7485656738281,301.0729675292969,0
359380397,0.24498140811920166,0.154347226023674,-23.501779556274414,-0.0006666696281172335,0.0013751554070040584,0.000640193815343082,-0.0004616458900272846,0.24158349633216858,0.15033598244190216,0.5794000029563904,0.0,266.70697021484375,301.07684326171875,0
359390433,0.2404550015926361,0.1508101224899292,-23.5061092376709,-0.0006716495263390243,0.0013583669206127524,0.0006414633826352656,-0.00045736576430499554,0.24158063530921936,0.15032632648944855,0.5794000029563904,0.0,266.7096862792969,301.0759582519531,0
359400134,0.23662960529327393,0.14788362383842468,-23.504226684570312,-0.0007403865456581116,0.0012933046091347933,0.0006620900821872056,-0.0004378418088890612,0.24154047667980194,0.15028831362724304,0.5794000029563904,0.0,266.7424621582031,301.0743103027344,0
359410167,0.2344871461391449,0.14516344666481018,-23.504100799560547,-0.0008404501713812351,0.0011871171882376075,0.0006968435482122004,-0.00040096143493428826,0.2414809912443161,0.1502251923084259,0.5794000029563904,0.0,266.77984619140625,301.07501220703125,0
359420237,0.2302660346031189,0.14736361801624298,-23.50352668762207,-0.0010023275390267372,0.0011216766433790326,0.0007610114407725632,-0.00037502095801755786,0.24138300120830536,0.15018558502197266,0.5794000029563904,0.0,266.82269287109375,301.0780944824219,0
359430402,0.23412029445171356,0.14873766899108887,-23.49433708190918,-0.0010955801699310541,0.001081165042705834,0.0008028217125684023,-0.0003568573447410017,0.24132545292377472,0.15016058087348938,0.5794000029563904,0.0,266.8396911621094,301.0819396972656,0
359440423,0.2377411127090454,0.1500168740749359,-23.49656105041504,-0.001129147014580667,0.0010622369591146708,0.00081970589235425,-0.00034733646316453815,0.24130430817604065,0.1501486599445343,0.5794000029563904,0.0,266.8441467285156,301.084716796875,0
359450071,0.24190989136695862,0.14663201570510864,-23.503795623779297,-0.0011001366656273603,0.0009953484404832125,0.0008034326019696891,-0.0003098155139014125,0.24132297933101654,0.15010561048984528,0.5794000029563904,0.0,266.84130859375,301.0989990234375,0
359460188,0.2405044585466385,0.15124571323394775,-23.501911163330078,-0.0010925275273621082,0.0009973077103495598,0.000798694440163672,-0.0003110355173703283,0.24132798612117767,0.15010690689086914,0.5794000029563904,0.0,266.8408203125,301.09844970703125,0
359470209,0.2381613701581955,0.15704742074012756,-23.506895065307617,-0.0011170230573043227,0.001077672466635704,0.0008155740797519684,-0.00036641419865190983,0.2413114458322525,0.15016116201877594,0.5794000029563904,0.0,266.8414306640625,301.0730285644531,0
359481041,0.23941358923912048,0.15472164750099182,-23.51117706298828,-0.0011236884165555239,0.00112274126149714,0.0008206958882510662,-0.000401046039769426,0.24130681157112122,0.1501924991607666,0.5794000029563904,0.0,266.8412780761719,301.0577087402344,0
359490358,0.24535323679447174,0.14625880122184753,-23.50212287902832,-0.0010561535600572824,0.0010599590605124831,0.0007641377742402256,-0.0003484681947156787,0.24135498702526093,0.1501477062702179,0.5794000029563904,0.0,266.84576416015625,301.0831604003906,0
359500144,0.247125506401062,0.14790618419647217,-23.500225067138672,-0.0009723461116664112,0.0010212657507508993,0.0006868579657748342,-0.00031278867390938103,0.24141666293144226,0.15011923015117645,0.5794000029563904,0.0,266.8570861816406,301.10357666015625,0
359510205,0.24334199726581573,0.15338048338890076,-23.506473541259766,-0.0009373556240461767,0.0010473207803443074,0.000651360081974417,-0.000339221500325948,0.24144329130649567,0.15013906359672546,0.5794000029563904,0.0,266.86480712890625,301.0875549316406,0
359520198,0.240813210606575,0.15321439504623413,-23.513689041137695,-0.000932130089495331,0.001069810357876122,0.0006455197581090033,-0.0003643569943960756,0.24144741892814636,0.15015682578086853,0.5794000029563904,0.0,266.86639404296875,301.0725402832031,0
359530401,0.2401181161403656,0.14668607711791992,-23.514867782592773,-0.0009344155550934374,0.0010249257320538163,0.0006483368342742324,-0.00030903174774721265,0.24144554138183594,0.15011993050575256,0.5794000029563904,0.0,266.8655090332031,301.1079406738281,0
359540848,0.2450815588235855,0.15066155791282654,-23.509197235107422,-0.0008896957733668387,0.0010216099908575416,0.0005874069174751639,-0.00030451410566456616,0.24148398637771606,0.15011708438396454,0.5794000029563904,0.0,266.8885498046875,301.1111145019531,0
359550101,0.24736948311328888,0.15270909667015076,-23.497419357299805,-0.0008289320394396782,0.0010368344374001026,0.000495600572321564,-0.00032751625985838473,0.2415388822555542,0.15013083815574646,0.5794000029563904,0.0,266.9332275390625,301.0948486328125,0
359560098,0.24256721138954163,0.1506783664226532,-23.4934024810791,-0.0008133143419399858,0.0010342103196308017,0.0004693112859968096,-0.00032309917150996625,0.24155379831790924,0.1501283347606659,0.5794000029563904,0.0,266.94873046875,301.0979919433594,0
359570223,0.23843587934970856,0.14829152822494507,-23.499408721923828,-0.0008304014918394387,0.0010141362436115742,0.0005015249480493367,-0.0002852542675100267,0.24153640866279602,0.15010790526866913,0.5794000029563904,0.0,266.92877197265625,301.1266174316406,0
359580398,0.23347605764865875,0.142896831035614,-23.515396118164062,-0.0008795566391199827,0.000959639553911984,0.0006060700980015099,-0.0001693485100986436,0.241482675075531,0.15004833042621613,0.5794000029563904,0.0,266.8687438964844,301.22613525390625,0
359590395,0.237296000123024,0.14959405362606049,-23.513303756713867,-0.0008993789087980986,0.0009530620300211012,0.0006541027687489986,-0.00015341013204306364,0.24145913124084473,0.15004052221775055,0.5794000029563904,0.0,266.8432922363281,301.2412109375,0
359600203,0.24259084463119507,0.15114794671535492,-23.503259658813477,-0.0008878083317540586,0.0009559792233631015,0.0006217786576598883,-0.00016155968478415161,0.24147425591945648,0.15004433691501617,0.5794000029563904,0.0,266.86114501953125,301.2333984375,0
359610192,0.23941779136657715,0.14881885051727295,-23.495269775390625,-0.0008931055781431496,0.0009475494734942913,0.0006391206406988204,-0.00013396251597441733,0.2414664924144745,0.15003198385238647,0.5794000029563904,0.0,266.8509826660156,301.2603759765625,0
359620196,0.23275092244148254,0.14896522462368011,-23.49862289428711,-0.0009244634420610964,0.0009412583895027637,0.0007621436379849911,-0.00010928131814580411,0.24141374230384827,0.15002140402793884,0.5794000029563904,0.0,266.78265380859375,301.2852478027344,0
359630412,0.2384975701570511,0.15161462128162384,-23.5064640045166,-0.0009306676220148802,0.0009450819925405085,0.00079228391405195,-0.0001278566342080012,0.24140134453773499,0.1500290483236313,0.5794000029563904,0.0,266.766845703125,301.266357421875,0
359640401,0.23959672451019287,0.15335337817668915,-23.508092880249023,-0.0009326192084699869,0.0009525810019113123,0.0008045917493291199,-0.0001751500676618889,0.2413964867591858,0.15004774928092957,0.5794000029563904,0.0,266.76025390625,301.218994140625,0
359650129,0.23829296231269836,0.15060175955295563,-23.506690979003906,-0.0009364482248201966,0.0009527882211841643,0.0008387200068682432,-0.00017699725867714733,0.24138350784778595,0.15004844963550568,0.5794000029563904,0.0,266.74169921875,301.2171630859375,0
359660141,0.2355213314294815,0.14520308375358582,-23.510534286499023,-0.0009418418048880994,0.0009468969074077904,0.0009191979188472033,-8.909312600735575e-05,0.24135398864746094,0.1500162035226822,0.5794000029563904,0.0,266.6988830566406,301.3070373535156,0
359670249,0.23149152100086212,0.14750762283802032,-23.504405975341797,-0.0009452241938561201,0.0009458151180297136,0.001067043631337583,-4.180660835118033e-05,0.24130159616470337,0.1499994397163391,0.5794000029563904,0.0,266.6262512207031,301.356689453125,0
359681009,0.23265716433525085,0.1500256061553955,-23.500534057617188,-0.0009426597389392555,0.0009458798449486494,0.0011932909255847335,-3.862121593556367e-05,0.24125827848911285,0.14999835193157196,0.5794000029563904,0.0,266.5699157714844,301.36004638671875,0
359690463,0.23995070159435272,0.15374179184436798,-23.50385284423828,-0.0009426712640561163,0.0009420425049029291,0.0011931073386222124,-9.965307253878564e-05,0.24125833809375763,0.15001867711544037,0.5794000029563904,0.0,266.57000732421875,301.29547119140625,0
359700189,0.24415509402751923,0.14987382292747498,-23.509490966796875,-0.0009502027533017099,0.0009426679462194443,0.001121170469559729,-9.367914026370272e-05,0.2412816435098648,0.15001673996448517,0.5794000029563904,0.0,266.6043701171875,301.30181884765625,0
359710139,0.243057981133461,0.14140701293945312,-23.508514404296875,-0.0009576636948622763,0.0009647457045502961,0.0010700988350436091,5.7447366998530924e-05,0.24129778146743774,0.14996899664402008,0.5794000029563904,0.0,266.6313171386719,301.4603576660156,0
359720111,0.23507928848266602,0.1452723741531372,-23.501934051513672,-0.0009411476203240454,0.0009798473911359906,0.0011582555016502738,0.00013805471826344728,0.24127055704593658,0.14994411170482635,0.5794000029563904,0.0,266.5836486816406,301.5408630371094,0
359730404,0.2409439980983734,0.1480841338634491,-23.496267318725586,-0.0009444215102121234,0.000986620900221169,0.001143910805694759,0.00016773314564488828,0.241274893283844,0.14993512630462646,0.5794000029563904,0.0,266.5914611816406,301.56927490234375,0
359740834,0.2427789568901062,0.14230258762836456,-23.49030876159668,-0.0009565193904563785,0.0010210087057203054,0.001099010813049972,0.0002953600778710097,0.24128824472427368,0.14989715814590454,0.5794000029563904,-1467272.75,-1467006.125,-1466971.125,0
359750196,0.24176496267318726,0.1423296332359314,-23.498493194580078,-0.0009288800647482276,0.0008304439834319055,0.0011163781164214015,0.0001756177662173286,0.24130398035049438,0.14978869259357452,0.5794000029563904,-1467272.75,260.375,295.375,0
359760190,0.23935110867023468,0.1512656807899475,-23.50882339477539,-0.0009550180984660983,0.0008440492092631757,0.0011000244412571192,0.00018413009820505977,0.24128904938697815,0.14979645609855652,0.5794000029563904,-1467272.75,260.3959655761719,295.3813781738281,0
359770221,0.23791338503360748,0.15590280294418335,-23.506881713867188,-0.0010105337714776397,0.0009558685123920441,0.0010657133534550667,0.00025323929730802774,0.24125707149505615,0.14986087381839752,0.5794000029563904,-1467272.75,260.4398498535156,295.4255676269531,0
359780451,0.24191351234912872,0.1522587090730667,-23.50126838684082,-0.0009765691356733441,0.0009857021505013108,0.0010822875192388892,0.00026779764448292553,0.24127604067325592,0.14987753331661224,0.5794000029563904,-1467272.75,260.4151306152344,295.4318542480469,0
359790409,0.24099183082580566,0.1453058272600174,-23.501327514648438,-0.0009630401618778706,0.0008712816634215415,0.0010888142278417945,0.00021259812638163567,0.24128367006778717,0.14981307089328766,0.5794000029563904,-1467272.75,260.40521240234375,295.4059143066406,0
359800134,0.2410721629858017,0.14812415838241577,-23.497526168823242,-0.0009484633919782937,0.0008191069937311113,0.0010957666672766209,0.00018771337636280805,0.24129195511341095,0.1497834175825119,0.5794000029563904,-1467272.75,260.3945007324219,295.3918762207031,0
359810178,0.24398690462112427,0.15049491822719574,-23.500608444213867,-0.0008750802371650934,0.0008174116956070065,0.0011206252966076136,0.00018713909958023578,0.2413327991962433,0.1497824788093567,0.5794000029563904,-1467272.75,260.3440246582031,295.39166259765625,0
359820187,0.24473069608211517,0.1567521095275879,-23.503965377807617,-0.0007900972850620747,0.0009373536449857056,0.0011491075856611133,0.00022733797959517688,0.2413804978132248,0.1498497873544693,0.5794000029563904,-1467272.75,260.28338623046875,295.404541015625,0
359830388,0.24350973963737488,0.15167216956615448,-23.498390197753906,-0.0007318927673622966,0.0009548802627250552,0.0011684081982821226,0.00023314979625865817,0.2414134293794632,0.1498597115278244,0.5794000029563904,-1467272.75,260.24066162109375,295.4060974121094,0
359840415,0.2428642064332962,0.14738933742046356,-23.493152618408203,-0.0006882267771288753,0.0008900293614715338,0.0011827345006167889,0.00021187291713431478,0.24143832921981812,0.14982272684574127,0.5794000029563904,-1467272.75,260.20806884765625,295.40032958984375,0
359850107,0.24357393383979797,0.15043973922729492,-23.494361877441406,-0.0006325467256829143,0.0008862887625582516,0.0011924527352675796,0.0002112200454575941,0.24146975576877594,0.14982061088085175,0.5794000029563904,-1467272.75,260.1687927246094,295.40057373046875,0
359860162,0.24459150433540344,0.15552888810634613,-23.493566513061523,-0.000560443673748523,0.000974460388533771,0.00120491289999336,0.00022645706485491246,0.24151073396205902,0.14987072348594666,0.5794000029563904,-1467272.75,260.116455078125,295.39495849609375,0
359870265,0.2350279539823532,0.15616253018379211,-23.497068405151367,-0.0006620185449719429,0.0010709416819736362,0.0011875330237671733,0.00024296539777424186,0.24145258963108063,0.14992594718933105,0.5794000029563904,-1467272.75,260.1896667480469,295.38970947265625,0
359880933,0.23100261390209198,0.15385231375694275,-23.504741668701172,-0.0008201773161999881,0.0011212751269340515,0.0011877315118908882,0.00024290224246215075,0.24136194586753845,0.14995479583740234,0.5794000029563904,-1467272.75,260.28546142578125,295.37994384765625,0
359890373,0.2373281717300415,0.1527208685874939,-23.509037017822266,-0.0008678798913024366,0.001151154632680118,0.0011877907672896981,0.00024286509142257273,0.2413344383239746,0.14997202157974243,0.5794000029563904,-1467272.75,260.3121337890625,295.3745422363281,0
359900176,0.24173492193222046,0.15445253252983093,-23.500768661499023,-0.0008410759037360549,0.001208784873597324,0.0011877577053382993,0.00024279409262817353,0.2413499802350998,0.15000544488430023,0.5794000029563904,-1467272.75,260.2972717285156,295.3648376464844,0
359910140,0.24232307076454163,0.15375041961669922,-23.49437141418457,-0.0008066777372732759,0.0012510400265455246,0.0011808143462985754,0.000234264851314947,0.24137024581432343,0.15003032982349396,0.5794000029563904,-1467272.75,260.28045654296875,295.3517150878906,0
359920192,0.24433818459510803,0.1413698047399521,-23.49509048461914,-0.000742789707146585,0.0011046668514609337,0.0011680274037644267,0.00026356076705269516,0.24140803515911102,0.1499437391757965,0.5794000029563904,-1467272.75,260.24755859375,295.40081787109375,0
359930413,0.24181894958019257,0.14198163151741028,-23.502975463867188,-0.0007186865550465882,0.0009717728826217353,0.001163243898190558,0.00028993457090109587,0.2414223551750183,0.1498647928237915,0.5794000029563904,-1467272.75,260.23455810546875,295.45654296875,0
359940863,0.2385483682155609,0.15266717970371246,-23.510704040527344,-0.0007442479254677892,0.001002710429020226,0.001168274087831378,0.00028384648612700403,0.241407111287117,0.14988325536251068,0.5794000029563904,-1467272.75,260.24835205078125,295.44244384765625,0
359950134,0.24036547541618347,0.15691712498664856,-23.508668899536133,-0.0007411829428747296,0.0010879159672185779,0.0011669097002595663,0.00024591601686552167,0.24140900373458862,0.14993585646152496,0.5794000029563904,-1467272.75,260.24700927734375,295.3888854980469,0
359960171,0.23265516757965088,0.15047317743301392,-23.498149871826172,-0.0008409461588598788,0.0010848933598026633,0.0012109811650589108,0.00024725127150304615,0.2413472682237625,0.14993397891521454,0.5794000029563904,-1467272.75,260.2881164550781,295.3906555175781,0
359970205,0.23225587606430054,0.1438765823841095,-23.491716384887695,-0.0009432616643607616,0.0009944918565452099,0.0012558356393128633,0.0002868827141355723,0.24128378927707672,0.1498778909444809,0.5794000029563904,-1467272.75,260.3253479003906,295.4474182128906,0
359980411,0.23895567655563354,0.14507699012756348,-23.495502471923828,-0.0009523290209472179,0.0009330664179287851,0.0012627317337319255,0.00033359910594299436,0.241277813911438,0.1498374044895172,0.5794000029563904,-1467272.75,260.3273010253906,295.50994873046875,0
359990384,0.24163173139095306,0.15376639366149902,-23.504253387451172,-0.0009306449210271239,0.0009723553084768355,0.0012463522143661976,0.00030392143526114523,0.24129211902618408,0.1498633325099945,0.5794000029563904,-1467272.75,260.322509765625,295.4695129394531,0
360000206,0.24222756922245026,0.156899556517601,-23.503345489501953,-0.0009027810301631689,0.0010461342753842473,0.001225446816533804,0.0002485674631316215,0.24131052196025848,0.1499120593070984,0.5794000029563904,-1467272.75,260.3160705566406,295.39984130859375,0
360010228,0.23623552918434143,0.15196280181407928,-23.498958587646484,-0.0009432858787477016,0.0010622411500662565,0.001255632028914988,0.00023656419944018126,0.24128374457359314,0.149922713637352,0.5794000029563904,-1467272.75,260.325439453125,295.38568115234375,0
360020225,0.2330540418624878,0.1462131142616272,-23.4979305267334,-0.0010050090495496988,0.001022983225993812,0.0013301607687026262,0.0002839668595697731,0.2412385642528534,0.14989398419857025,0.5794000029563904,-1467272.75,260.32818603515625,295.43731689453125,0
360030436,0.23726452887058258,0.1532505750656128,-23.50092887878418,-0.0010263064177706838,0.0010495909955352545,0.0013557274360209703,0.00025202514370903373,0.24122299253940582,0.14991344511508942,0.5794000029563904,-1467272.75,260.3291015625,295.4021911621094,0
360040416,0.23920609056949615,0.16280795633792877,-23.497596740722656,-0.0010292548686265945,0.0011630576336756349,0.0013592466711997986,0.00011659626761684194,0.24122083187103271,0.14999639987945557,0.5794000029563904,-1467272.75,260.3292236328125,295.2664489746094,0
360050117,0.2379588633775711,0.14976781606674194,-23.49437713623047,-0.0010400832397863269,0.0011575615499168634,0.001380270579829812,0.00012726719432976097,0.2412114292383194,0.14999163150787354,0.5794000029563904,-1467272.75,260.3268737792969,295.2760314941406,0
360060101,0.2396051585674286,0.14493273198604584,-23.496700286865234,-0.0010392525000497699,0.0011188412318006158,0.0013786652125418186,0.000202092356630601,0.2412121444940567,0.1499580442905426,0.5794000029563904,-1467272.75,260.3270568847656,295.34521484375,0
360070232,0.23996637761592865,0.14829657971858978,-23.500823974609375,-0.0010359663283452392,0.0011042400728911161,0.0013723442098125815,0.0002301779022673145,0.24121499061584473,0.14994540810585022,0.5794000029563904,-1467272.75,260.3277587890625,295.37200927734375,0
360080944,0.24253268539905548,0.15275926887989044,-23.502347946166992,-0.0010152705945074558,0.0011204545153304935,0.0013327178312465549,0.0001991319441003725,0.24123288691043854,0.14995943009853363,0.5794000029563904,-1467272.75,260.3321533203125,295.3423767089844,0
360090402,0.24108286201953888,0.1491977870464325,-23.501813888549805,-0.00100864062551409,0.00111559615470469,0.001309678191319108,0.00021601506159640849,0.24124078452587128,0.14995364844799042,0.5794000029563904,-1467272.75,260.33740234375,295.3577575683594,0
360100218,0.2394285649061203,0.14683957397937775,-23.49846649169922,-0.0010094547178596258,0.0011005346896126866,0.0013124983524903655,0.0002681933401618153,0.24123981595039368,0.1499357372522354,0.5794000029563904,-1467272.75,260.3367614746094,295.405517578125,0
360110171,0.2430790364742279,0.14445452392101288,-23.494304656982422,-0.0009943591430783272,0.0010755184339359403,0.0012603593058884144,0.0003545978688634932,0.24125772714614868,0.14990605413913727,0.5794000029563904,-1467272.75,260.34912109375,295.4849548339844,0
360120207,0.24349693953990936,0.14962677657604218,-23.498477935791016,-0.0009874620009213686,0.0010749371722340584,0.0011963298311457038,0.0003599941555876285,0.24127505719661713,0.14990459382534027,0.5794000029563904,-1467272.75,260.3711853027344,295.4896240234375,0
360130412,0.2445521503686905,0.15334884822368622,-23.497541427612305,-0.0009788741590455174,0.0010811173124238849,0.0011166052427142859,0.00030262136715464294,0.24129663407802582,0.14992012083530426,0.5794000029563904,-1467272.75,260.4009094238281,295.43939208984375,0
360140924,0.2458844631910324,0.14722703397274017,-23.489887237548828,-0.0009681700612418354,0.0010761324083432555,0.0010172348702326417,0.00034889779635705054,0.24132351577281952,0.14990760385990143,0.5794000029563904,-1467272.75,260.44183349609375,295.47998046875,0
360150119,0.24158790707588196,0.1432666778564453,-23.48980140686035,-0.0009693536558188498,0.0010813884437084198,0.0009903745958581567,0.00046817652764730155,0.24132946133613586,0.14988122880458832,0.5794000029563904,-1467272.75,260.455810546875,295.5750427246094,0
360160122,0.2382645457983017,0.1521822214126587,-23.49808120727539,-0.0009678594651632011,0.0010793923866003752,0.0010242834687232971,0.0004228794132359326,0.24132196605205536,0.14989124238491058,0.5794000029563904,-1467272.75,260.438232421875,295.53985595703125,0
360170223,0.23877090215682983,0.15502770245075226,-23.50240135192871,-0.0009668111451901495,0.0010752268135547638,0.0010480732889845967,0.0003283485129941255,0.24131670594215393,0.14991214871406555,0.5794000029563904,-1467272.75,260.4262390136719,295.46282958984375,0
360180429,0.2325005680322647,0.1455511599779129,-23.507619857788086,-0.0009609273984096944,0.0010785526828840375,0.001181597588583827,0.0004038240294903517,0.24128718674182892,0.14989545941352844,0.5794000029563904,-1467272.75,260.3639221191406,295.5246887207031,0
360190415,0.23729108273983002,0.1458905041217804,-23.501062393188477,-0.0009516279096715152,0.001091234851628542,0.001232801005244255,0.00047365252976305783,0.2412775605916977,0.14988233149051666,0.5794000029563904,-1467272.75,260.3385314941406,295.5759582519531,0
360200185,0.2389252781867981,0.148151233792305,-23.49195098876953,-0.0009481548913754523,0.00109586282633245,0.001251923618838191,0.000499134068377316,0.24127396941184998,0.14987753331661224,0.5794000029563904,-1467272.75,260.329345703125,295.5938415527344,0
360210188,0.24127821624279022,0.1507430225610733,-23.491954803466797,-0.0009526466601528227,0.0010916909668594599,0.0012271915329620242,0.00047616357915103436,0.24127861857414246,0.14988185465335846,0.5794000029563904,-1467272.75,260.34124755859375,295.5777282714844,0
360220195,0.23892921209335327,0.15229307115077972,-23.492475509643555,-0.0009458429412916303,0.0010743765160441399,0.0012490509543567896,0.0004205344303045422,0.24127492308616638,0.14989124238491058,0.5794000029563904,-1467272.75,260.3292541503906,295.5395202636719,0
360230411,0.2397143840789795,0.1490556299686432,-23.494613647460938,-0.0009438845445401967,0.0010766698978841305,0.0012553429696708918,0.000427902938099578,0.24127386510372162,0.1498900055885315,0.5794000029563904,-1467272.75,260.3258361816406,295.5447082519531,0
360240395,0.2397027611732483,0.15013329684734344,-23.50494956970215,-0.0009419251582585275,0.0010726334294304252,0.0012616381281986833,0.0004149342712480575,0.24127280712127686,0.149892196059227,0.5794000029563904,-1467272.75,260.32244873046875,295.5355224609375,0
360250162,0.2434983253479004,0.15617729723453522,-23.502466201782227,-0.0009617918403819203,0.0010340806329622865,0.0011978087713941932,0.00029106868896633387,0.24128358066082,0.14991311728954315,0.5794000029563904,-1467272.75,260.357666015625,295.4407958984375,0
360260139,0.23998014628887177,0.1532870978116989,-23.49717903137207,-0.0009596322779543698,0.0010024562943726778,0.00120267434976995,0.00021981875761412084,0.24128279089927673,0.1499246507883072,0.5794000029563904,-1467272.75,260.3545837402344,295.3822937011719,0
360270254,0.23979714512825012,0.14740777015686035,-23.496112823486328,-0.000956050178501755,0.0010200721444562078,0.0012107448419556022,0.0002595073892734945,0.24128147959709167,0.14991822838783264,0.5794000029563904,-1467272.75,260.3495178222656,295.4155578613281,0
360280985,0.24098823964595795,0.1444111317396164,-23.495840072631836,-0.0009622230427339673,0.0010613129707053304,0.0011968372855335474,0.00035242331796325743,0.24128372967243195,0.14990319311618805,0.5794000029563904,-1467272.75,260.3582763671875,295.487060546875,0
360290413,0.24240610003471375,0.14864113926887512,-23.50074005126953,-0.0009834329830482602,0.0010680119739845395,0.0011605669278651476,0.0003638790803961456,0.24128982424736023,0.14990127086639404,0.5794000029563904,-1467272.75,260.38409423828125,295.49481201171875,0
360300200,0.2378396838903427,0.1493237018585205,-23.507354736328125,-0.0009564533829689026,0.001067381352186203,0.0012067038333043456,0.0003628005797509104,0.24128207564353943,0.14990144968032837,0.5794000029563904,-1467272.75,260.3513488769531,295.49407958984375,0
360310165,0.23395493626594543,0.14910684525966644,-23.504384994506836,-0.0008905917056836188,0.0010689966147765517,0.001319331582635641,0.0003655627369880676,0.24126316606998444,0.14990098774433136,0.5794000029563904,-1467272.75,260.27490234375,295.4959411621094,0
360320145,0.23410050570964813,0.14565549790859222,-23.494874954223633,-0.000828492920845747,0.0011055062059313059,0.0014255245914682746,0.00042799647781066597,0.2412453442811966,0.14989051222801208,0.5794000029563904,-1467272.75,260.2076110839844,295.53582763671875,0
360330413,0.236328125,0.14903219044208527,-23.489498138427734,-0.0007797315483912826,0.0011059457901865244,0.0014906879514455795,0.0004285839095246047,0.2412329912185669,0.14989040791988373,0.5794000029563904,-1467272.75,260.1630859375,295.5361633300781,0
360340863,0.23799294233322144,0.1564185619354248,-23.487428665161133,-0.0007531449664384127,0.0010157886426895857,0.0015262174420058727,0.0003081003378611058,0.24122625589370728,0.1499132663011551,0.5794000029563904,-1467272.75,260.1395568847656,295.4609375,0
360350097,0.24359214305877686,0.1519395112991333,-23.499515533447266,-0.0007952868472784758,0.0009830545168370008,0.001469900133088231,0.000264355301624164,0.24123694002628326,0.14992156624794006,0.5794000029563904,-1467272.75,260.1770935058594,295.42913818359375,0
360360219,0.24783220887184143,0.1487605720758438,-23.50643539428711,-0.0009014390525408089,0.0009893202222883701,0.0013578836806118488,0.00027096716803498566,0.2412630021572113,0.1499200314283371,0.5794000029563904,-1467272.75,260.2672119140625,295.43377685546875,0
360370270,0.23959983885288239,0.15181414783000946,-23.505449295043945,-0.0008883057162165642,0.0009525534114800394,0.00137174257542938,0.00023216918634716421,0.24125978350639343,0.14992906153202057,0.5794000029563904,-1467272.75,260.2558288574219,295.405517578125,0
360380426,0.23889267444610596,0.15741057693958282,-23.496315002441406,-0.0008658627048134804,0.0008396910852752626,0.0013954254100099206,0.00011307181557640433,0.2412542700767517,0.14995676279067993,0.5794000029563904,-1467272.75,260.23651123046875,295.30029296875,0
360390419,0.24261514842510223,0.15171605348587036,-23.489742279052734,-0.0008964974549598992,0.0008026918512769043,0.0013701573479920626,8.255419379565865e-05,0.2412620633840561,0.14996618032455444,0.5794000029563904,-1467272.75,260.26055908203125,295.2689208984375,0
360400193,0.24056407809257507,0.14746151864528656,-23.492992401123047,-0.0008942270651459694,0.0008329631527885795,0.0013720300048589706,0.00010752250091172755,0.24126148223876953,0.14995847642421722,0.5794000029563904,-1467272.75,260.2587585449219,295.2947998046875,0
360410219,0.23825113475322723,0.14779743552207947,-23.507535934448242,-0.0008566906326450408,0.0008569969213567674,0.001402990659698844,0.00012734599295072258,0.24125193059444427,0.14995236694812775,0.5794000029563904,-1467272.75,260.2293395996094,295.3139343261719,0
360420194,0.23980559408664703,0.1523219347000122,-23.509784698486328,-0.0008439482771791518,0.0008119193953461945,0.0014135007513687015,9.016527474159375e-05,0.24124868214130402,0.149963840842247,0.5794000029563904,-1467272.75,260.21942138671875,295.2770080566406,0
360430427,0.2352805882692337,0.15459835529327393,-23.49872589111328,-0.0007512847078032792,0.0007239266997203231,0.001470822375267744,3.573303547454998e-05,0.24122300744056702,0.14998821914196014,0.5794000029563904,-1467272.75,260.1534118652344,295.2157287597656,0
360440426,0.23668797314167023,0.1530870646238327,-23.492841720581055,-0.0006852385122328997,0.0006640917854383588,0.0015116785652935505,-1.280830701944069e-06,0.24120470881462097,0.1500047892332077,0.5794000029563904,-1467272.75,260.10675048828125,295.16448974609375,0
360450123,0.24025297164916992,0.15147018432617188,-23.491790771484375,-0.0006795772933401167,0.0006327275186777115,0.0015151805710047483,-2.068274625344202e-05,0.24120314419269562,0.15001347661018372,0.5794000029563904,-1467272.75,260.102783203125,295.13372802734375,0
360460212,0.23649203777313232,0.1538340151309967,-23.499818801879883,-0.0006039257859811187,0.0005570017965510488,0.0015475938562303782,-5.3127841965761036e-05,0.24117960035800934,0.15003705024719238,0.5794000029563904,-1467272.75,260.05322265625,295.0713195800781,0
360470232,0.24300387501716614,0.15441039204597473,-23.499326705932617,-0.0006441365112550557,0.00047410078695975244,0.0015303653199225664,-8.864723349688575e-05,0.24119211733341217,0.15006285905838013,0.5794000029563904,-1467272.75,260.0795593261719,294.9815673828125,0
360480996,0.2480546534061432,0.15109683573246002,-23.498069763183594,-0.0007693666266277432,0.000450990250101313,0.0014767097309231758,-9.854906966211274e-05,0.24123109877109528,0.15007005631923676,0.5794000029563904,-1467272.75,260.1614685058594,294.9512634277344,0
360490395,0.24497093260288239,0.14877977967262268,-23.494915008544922,-0.0008379576611332595,0.00046787402243353426,0.001447321497835219,-9.131513070315123e-05,0.24125245213508606,0.15006479620933533,0.5794000029563904,-1467272.75,260.2059631347656,294.9736633300781,0
360500195,0.2373361885547638,0.1547832190990448,-23.494176864624023,-0.0007684347801841795,0.00037697027437388897,0.0014640191802754998,-0.0001131479293690063,0.24122753739356995,0.15009737014770508,0.5794000029563904,-1467272.75,260.16448974609375,294.87481689453125,0
360510120,0.23850245773792267,0.15645959973335266,-23.493370056152344,-0.0007221351261250675,0.0002598268911242485,0.0014751391718164086,-0.00014128284237813205,0.2412109524011612,0.15013934671878815,0.5794000029563904,-1467272.75,260.1363830566406,294.6683654785156,0
360520096,0.2397119253873825,0.1523415446281433,-23.50252342224121,-0.0006986361113376915,0.00021882682631257921,0.0014807829866185784,-0.0001511300215497613,0.24120253324508667,0.15015403926372528,0.5794000029563904,-1467272.75,260.1219787597656,294.5619812011719,0
360530423,0.23608268797397614,0.14912085235118866,-23.505725860595703,-0.0006052967510186136,0.0002350620343349874,0.001485446817241609,-0.00015031879593152553,0.2411634922027588,0.1501472443342209,0.5794000029563904,-1467272.75,260.0680847167969,294.5974426269531,0
360540841,0.23716013133525848,0.1456368863582611,-23.50562286376953,-0.0005347942351363599,0.00031292487983591855,0.001488969661295414,-0.00014642822497989982,0.24113400280475616,0.15011467039585114,0.5794000029563904,-1467272.75,260.0259704589844,294.7287292480469,0
360550148,0.2358115315437317,0.1509288251399994,-23.50234603881836,-0.00044319138396531343,0.00029461123631335795,0.0014935467625036836,-0.00014734330761712044,0.24109569191932678,0.15012232959270477,0.5794000029563904,-1467272.75,259.9696044921875,294.70263671875,0
360560151,0.24123577773571014,0.15490689873695374,-23.493331909179688,-0.00044925411930307746,0.00020784132357221097,0.0014932438498362899,-0.00015167894889600575,0.24109822511672974,0.15015862882137299,0.5794000029563904,-1467272.75,259.973388671875,294.53594970703125,0
360570244,0.23842769861221313,0.1549725979566574,-23.491565704345703,-0.00040215469198301435,0.00011993107182206586,0.0014859139919281006,-0.00013799795124214143,0.24107488989830017,0.1502021998167038,0.5794000029563904,-1467272.75,259.9454650878906,294.3110656738281,0
360580403,0.2420598864555359,0.15416714549064636,-23.495786666870117,-0.0004202290147077292,4.9507736548548564e-05,0.001488726818934083,-0.00012703835091087967,0.24108384549617767,0.1502370983362198,0.5794000029563904,-1467272.75,259.9562683105469,293.9671936035156,0
360590433,0.24111507833003998,0.15440820157527924,-23.498693466186523,-0.0004213704087305814,-2.2349555365508422e-05,0.0014889044687151909,-0.0001158555896836333,0.24108441174030304,0.15027271211147308,0.5794000029563904,-1467272.75,259.9569396972656,293.405029296875,0
360600044,0.24266111850738525,0.15281963348388672,-23.497573852539062,-0.0004456264723557979,-6.52079688734375e-05,0.0014981795102357864,-9.946747741196305e-05,0.2410988062620163,0.1502981334924698,0.5794000029563904,-1467272.75,259.9702453613281,293.01531982421875,0
360610170,0.2483280450105667,0.14491714537143707,-23.492496490478516,-0.0005643272306770086,2.6788013201439753e-05,0.001543568097986281,-0.00013464470976032317,0.24116922914981842,0.15024355053901672,0.5794000029563904,-1467272.75,260.0316467285156,293.7919921875,0
360620163,0.24928505718708038,0.14236488938331604,-23.490861892700195,-0.0006941136089153588,0.00015740377421025187,0.001593195484019816,-0.0001845892984420061,0.24124622344970703,0.15016606450080872,0.5794000029563904,-1467272.75,260.0920104980469,294.3016662597656,0
360630390,0.24474404752254486,0.14735355973243713,-23.48850440979004,-0.0007445692899636924,0.0002013418561546132,0.0016124886460602283,-0.00020139025582466274,0.24127615988254547,0.15014000236988068,0.5794000029563904,-1467272.75,260.11370849609375,294.380859375,0
360640392,0.23943330347537994,0.15092192590236664,-23.49431800842285,-0.0007048081606626511,0.00018591848493088037,0.001586564932949841,-0.00019133441674057394,0.24124743044376373,0.15015114843845367,0.5794000029563904,-1467272.75,260.09918212890625,294.36663818359375,0
360650121,0.23899628221988678,0.1519126445055008,-23.504079818725586,-0.0006599401822313666,0.00015571732365060598,0.0015573116252198815,-0.00017164365272037685,0.24121502041816711,0.15017296373844147,0.5794000029563904,-1467272.75,260.08197021484375,294.3323669433594,0
360660122,0.24598799645900726,0.15082959830760956,-23.502111434936523,-0.0007241585990414023,0.00014339032350108027,0.0015991812106221914,-0.00016360660083591938,0.24126140773296356,0.1501818746328354,0.5794000029563904,-1467272.75,260.1063537597656,294.3152160644531,0
360670258,0.24972201883792877,0.15292547643184662,-23.500038146972656,-0.0008339889463968575,0.00010157795622944832,0.0017071275506168604,-0.00012251145381014794,0.2413596659898758,0.15021927654743195,0.5794000029563904,-1467272.75,260.1355895996094,294.287841796875,0
360681014,0.24278010427951813,0.16063758730888367,-23.492124557495117,-0.0008404662949033082,-4.7533714678138494e-05,0.0017134938389062881,2.4042461518547498e-05,0.2413654625415802,0.15035268664360046,0.5794000029563904,-1467272.75,260.1371765136719,294.287841796875,0
360690405,0.23608754575252533,0.15549154579639435,-23.489818572998047,-0.0007535362965427339,-0.00011834763427032158,0.0016280550044029951,9.364170546177775e-05,0.2412876933813095,0.1504160463809967,0.5794000029563904,-1467272.75,260.1146545410156,291.35540771484375,0
360700210,0.23589783906936646,0.15035390853881836,-23.493112564086914,-0.0006722727557644248,-0.00011586910113692284,0.0015128134982660413,9.012684313347563e-05,0.24119533598423004,0.15041323006153107,0.5794000029563904,-1467272.75,260.0993347167969,291.36370849609375,0
360710092,0.2394338846206665,0.14696037769317627,-23.50201416015625,-0.0006386619643308222,-7.163733971538022e-05,0.0014651494566351175,2.7400912586017512e-05,0.2411571443080902,0.15036296844482422,0.5794000029563904,-1467272.75,260.09222412109375,291.36370849609375,0
360720108,0.24144282937049866,0.15230692923069,-23.503158569335938,-0.000630987633485347,-9.424790187040344e-05,0.0014542663702741265,5.9465393860591576e-05,0.2411484271287918,0.1503886580467224,0.5794000029563904,-1467272.75,260.09051513671875,291.4619140625,0
360730416,0.24432997405529022,0.15387752652168274,-23.499494552612305,-0.0006579634500667453,-0.00013444366049952805,0.00149252125993371,0.00011646778875729069,0.24117907881736755,0.15043434500694275,0.5794000029563904,-1467272.75,260.0963439941406,291.3109130859375,0
360740955,0.23756015300750732,0.15642325580120087,-23.493595123291016,-0.0006101199542172253,-0.00019345972395967692,0.00139356660656631,0.0002385306142969057,0.2411065548658371,0.15052379667758942,0.5794000029563904,-1467272.75,260.09381103515625,291.13543701171875,0
360750074,0.23924623429775238,0.1600184291601181,-23.489925384521484,-0.0005814983160234988,-0.00028504873625934124,0.001334368484094739,0.0004279640270397067,0.2410631626844406,0.1506626307964325,0.5794000029563904,-1467272.75,260.09210205078125,291.04156494140625,0
360760177,0.23871363699436188,0.15615783631801605,-23.4936466217041,-0.0005491618067026138,-0.0003344696306157857,0.0012674869503825903,0.0005301811615936458,0.24101415276527405,0.15073753893375397,0.5794000029563904,-1467272.75,260.0899963378906,291.01678466796875,0
360770276,0.24000801146030426,0.1536080688238144,-23.495542526245117,-0.0005335385212674737,-0.0003522544866427779,0.001218161778524518,0.0005863307742401958,0.24098017811775208,0.150776207447052,0.5794000029563904,-1467272.75,260.0939636230469,290.9949645996094,0
360780398,0.23934675753116608,0.1479111760854721,-23.501239776611328,-0.0005138837732374668,-0.000326711917296052,0.0011561085702851415,0.0005056888330727816,0.24093744158744812,0.15072067081928253,0.5794000029563904,-1467272.75,260.0993957519531,291.027587890625,0
360790406,0.23840013146400452,0.14232969284057617,-23.499727249145508,-0.0004884339869022369,-0.0002620405866764486,0.0010757595300674438,0.00030151120154187083,0.24088209867477417,0.150580033659935,0.5794000029563904,-1467272.75,260.1073303222656,291.1694641113281,0
360800148,0.24503909051418304,0.14570757746696472,-23.49390983581543,-0.0005115022067911923,-0.0002248214150313288,0.0011485895374789834,0.0001840043842094019,0.24093225598335266,0.1504991054534912,0.5794000029563904,-1467272.75,260.10009765625,291.3388977050781,0
360810204,0.24593918025493622,0.14945833384990692,-23.493806838989258,-0.0005298728938214481,-0.00021864027075935155,0.0012517102295532823,0.00014930768520571291,0.2410001903772354,0.15047624707221985,0.5794000029563904,-1467272.75,260.0815734863281,291.4256286621094,0
360820204,0.24310512840747833,0.15026627480983734,-23.492843627929688,-0.0005343069205991924,-0.00021648808615282178,0.001276599825359881,0.00013722680159844458,0.24101658165454865,0.15046828985214233,0.5794000029563904,-1467272.75,260.0775146484375,291.4598083496094,0
360830408,0.24241004884243011,0.14804448187351227,-23.49724769592285,-0.000535409664735198,-0.00020462615066207945,0.0012827899772673845,7.064201781759039e-05,0.24102066457271576,0.15042442083358765,0.5794000029563904,-1467272.75,260.0765380859375,291.6923522949219,0
360840423,0.24095115065574646,0.14876429736614227,-23.49692726135254,-0.0005331759457476437,-0.00020144339941907674,0.001245994120836258,1.8212906070402823e-05,0.24099713563919067,0.15039090812206268,0.5794000029563904,-1467272.75,260.0854797363281,291.9346008300781,0
360850117,0.24895896017551422,0.15120628476142883,-23.489484786987305,-0.0005444053676910698,-0.00020252444664947689,0.0014309748075902462,3.6020974221173674e-05,0.24111539125442505,0.15040229260921478,0.5794000029563904,-1467272.75,260.044677734375,291.8487548828125,0
360860195,0.24931572377681732,0.15188634395599365,-23.482248306274414,-0.0005555240204557776,-0.0002046413137577474,0.00161413149908185,7.089188875397667e-05,0.2412324845790863,0.15042458474636078,0.5794000029563904,-1467272.75,260.0126037597656,291.6912841796875,0
360870294,0.24245335161685944,0.1455725133419037,-23.488847732543945,-0.000555135658942163,-0.0001966543059097603,0.00160773447714746,-6.06771391176153e-05,0.2412284016609192,0.1503404676914215,0.5794000029563904,-1467272.75,260.01361083984375,292.32403564453125,0
360880985,0.2372920960187912,0.145109161734581,-23.49815559387207,-0.0005626487545669079,-0.00020392725127749145,0.001448635128326714,-0.00021469152125064284,0.24112863838672638,0.15024389326572418,0.5794000029563904,-1467272.75,260.0516052246094,292.83587646484375,0
360890421,0.2448176145553589,0.14812269806861877,-23.49810028076172,-0.0005596688133664429,-0.00020672027312684804,0.0015117396833375096,-0.0002738374168984592,0.24116821587085724,0.1502068042755127,0.5794000029563904,-1467272.75,260.03570556640625,292.9489440917969,0
360900184,0.23097245395183563,0.1763617992401123,-23.482677459716797,-0.0005747884861193597,-0.0001728041679598391,0.0011915600625798106,0.00044438106124289334,0.24096743762493134,0.15065716207027435,0.5794000029563904,-1467272.75,260.1305847167969,290.8248596191406,0
360910205,0.2195103019475937,0.015445510856807232,-23.499507904052734,-0.000674386799801141,-0.0007664851727895439,0.0005119574489071965,-0.0036065627355128527,0.24054530262947083,0.14814092218875885,0.5794000029563904,-1467272.75,260.60260009765625,293.38616943359375,0
360920179,0.273896187543869,0.5168765783309937,-23.46640396118164,-0.0005361787625588477,0.0008101158309727907,0.0014550106134265661,0.0071512674912810326,0.24113108217716217,0.15482313930988312,0.5794000029563904,-1467272.75,260.0342102050781,290.3411865234375,0
360930429,0.23015519976615906,-0.2573626637458801,-23.512008666992188,-0.000587647664360702,-0.0009129539830610156,0.0011038159718737006,-0.0046059866435825825,0.24091294407844543,0.14752013981342316,0.5794000029563904,-1467272.75,260.17034912109375,293.39990234375,0
360940874,0.24474792182445526,0.19975878298282623,-23.49131202697754,-0.0005688393139280379,-0.0005064232973381877,0.0011817056220024824,-0.002922450890764594,0.24096128344535828,0.14856503903865814,0.5794000029563904,-1467272.75,260.1297607421875,293.4239807128906,0
360950190,0.24730241298675537,0.37612342834472656,-23.46462059020996,-0.0005333551671355963,0.0011150370119139552,0.0013286536559462547,0.003792384173721075,0.24105249345302582,0.15273264050483704,0.5794000029563904,-1467272.75,260.0628662109375,296.4512023925781,0
360960225,0.21995653212070465,-0.20950566232204437,-23.52799415588379,-0.0006874807877466083,-0.0013834849232807755,0.0006903844769112766,-0.006554562132805586,0.24065634608268738,0.1463107466697693,0.5794000029563904,-1467272.75,260.46441650390625,293.3875427246094,0
360970179,0.2462131828069687,0.7023767232894897,-23.46341896057129,-0.0006567395757883787,0.0023480704985558987,0.0008176906849257648,0.008898653090000153,0.24073535203933716,0.15590186417102814,0.5794000029563904,-1467272.75,260.3577880859375,296.4791564941406,0
360980440,0.22860848903656006,-0.2580375373363495,-23.50111198425293,-0.0007859802572056651,-0.0018009520135819912,0.00043634852045215666,-0.003343600546941161,0.24049684405326843,0.1482451856136322,0.5794000029563904,-1467272.75,260.7451171875,299.3846740722656,0
360990430,0.256774365901947,0.14476335048675537,-23.49378204345703,-0.0006372276693582535,-0.0018106087809428573,0.0008752633002586663,-0.0033720938954502344,0.2407713532447815,0.14822736382484436,0.5794000029563904,-1467272.75,260.3104248046875,299.385986328125,0
361000201,0.22047102451324463,0.22990737855434418,-23.502687454223633,-0.000834923645015806,-0.0010310554644092917,0.00029193449881859124,-0.001071915845386684,0.24040652811527252,0.149665966629982,0.5794000029563904,-1467272.75,260.9155578613281,299.1127624511719,0
