TimeUS,PLX,PLY,PLZ,AX,AY,BX,BY,CX,CY,F,P,X,Y
635671691,0.21746452152729034,-0.005640827119350433,-23.54197883605957,0.0003938867594115436,-1.0217056114925072e-05,0.10819597542285919,-0.0028065028600394726,0.1081966981291771,-0.002806521486490965,0.5794000029563904,0.0,1.5671558380126953,-1.5744367837905884
635682373,0.22419239580631256,-0.004696487449109554,-23.535728454589844,0.0007330984226427972,2.9112557967891917e-05,0.11209341883659363,-0.002354617463424802,0.11209780722856522,-0.002354210475459695,0.5794000029563904,0.0,1.5642563104629517,-1.558432936668396
635693319,0.23025672137737274,-0.008308105170726776,-23.529809951782227,0.0017539941472932696,-0.0005470102187246084,0.11519273370504379,-0.004103656392544508,0.11520221829414368,-0.004106125794351101,0.5794000029563904,0.0,1.5555708408355713,-1.7033133506774902
635702560,0.2313668429851532,-0.011948724277317524,-23.531124114990234,0.0023796979803591967,-0.0020430837757885456,0.11590689420700073,-0.005811234470456839,0.11591645330190659,-0.0058138747699558735,0.5794000029563904,0.0,1.5502680540084839,-1.908873438835144
635712751,0.22705811262130737,-0.00785268284380436,-23.536516189575195,-0.000770211685448885,0.0013073565205559134,0.11435410380363464,-0.004159589298069477,0.11436495929956436,-0.004163609351962805,0.5794000029563904,0.0,1.5775314569473267,-1.266273021697998
635722449,0.22341428697109222,-0.008454457856714725,-23.536283493041992,-0.0047507937997579575,0.000730648695025593,0.11328098922967911,-0.0043150619603693485,0.1132940798997879,-0.004318758845329285,0.5794000029563904,0.0,1.612709879875183,-1.403062105178833
635732460,0.22481605410575867,-0.008651128038764,-23.540136337280273,-0.00153530843090266,0.00030200532637536526,0.11391118913888931,-0.0043990714475512505,0.1139226034283638,-0.004402544815093279,0.5794000029563904,0.0,1.5842735767364502,-1.5022518634796143
635742709,0.2243984341621399,-0.011569124646484852,-23.54157257080078,-0.0003124176000710577,-0.00399220734834671,0.11413116008043289,-0.005171514116227627,0.11414196342229843,-0.005172820761799812,0.5794000029563904,0.0,1.5735336542129517,-2.2282049655914307
635752471,0.22250646352767944,-0.010120384395122528,-23.528528213500977,-0.0011178789427503943,-0.0024902571458369493,0.113980233669281,-0.004890082404017448,0.11399151384830475,-0.004892277996987104,0.5794000029563904,0.0,1.5806035995483398,-2.041813611984253
635763302,0.22503012418746948,-0.01190891396254301,-23.523061752319336,0.003252471797168255,-0.004257485270500183,0.11486583203077316,-0.005248190835118294,0.11487454921007156,-0.005249349400401115,0.5794000029563904,0.0,1.5424884557724,-2.252346992492676
635772356,0.22286906838417053,-0.01200832799077034,-23.5302734375,0.0030392841435968876,-0.004566981457173824,0.11481693387031555,-0.005319182761013508,0.11482596397399902,-0.005319883581250906,0.5794000029563904,0.0,1.5443317890167236,-2.280254602432251
635782372,0.22649922966957092,-0.011127403005957603,-23.53835105895996,0.007216429803520441,-0.0038356399163603783,0.11586946994066238,-0.005134903360158205,0.11586935073137283,-0.005137206520885229,0.5794000029563904,0.0,1.5085959434509277,-2.212357997894287
635792748,0.2234705090522766,-0.008700056932866573,-23.533905029296875,0.00712560722604394,-0.001897510839626193,0.1158444881439209,-0.0046017346903681755,0.11584464460611343,-0.004610017407685518,0.5794000029563904,0.0,1.5093636512756348,-1.9619009494781494
635802506,0.22046031057834625,-0.009521476924419403,-23.532167434692383,0.006261181551963091,-0.0018690101569518447,0.11558700352907181,-0.004593245219439268,0.11559070646762848,-0.004601644817739725,0.5794000029563904,0.0,1.5166805982589722,-1.9572402238845825
635813377,0.22666184604167938,-0.0036537812557071447,-23.524158477783203,0.010390243493020535,0.0012819130206480622,0.11689656972885132,-0.003593902103602886,0.11688191443681717,-0.003616312751546502,0.5794000029563904,0.0,1.4821451902389526,-1.228173017501831
635822418,0.22667434811592102,-0.007333397399634123,-23.523391723632812,0.012665819376707077,0.0006602453649975359,0.11767585575580597,-0.003806796856224537,0.11764674633741379,-0.003825258230790496,0.5794000029563904,0.0,1.4635759592056274,-1.3990660905838013
635832387,0.2261209934949875,-0.01296431664377451,-23.52883529663086,0.01415408868342638,-0.0019383453764021397,0.11821456253528595,-0.0047474089078605175,0.11817482113838196,-0.004747302737087011,0.5794000029563904,0.0,1.4516314268112183,-1.9584333896636963
635842762,0.22105716168880463,-0.018446745350956917,-23.538183212280273,0.013719848357141018,-0.00509342085570097,0.11804935336112976,-0.0059477798640728,0.1180129423737526,-0.005923445336520672,0.5794000029563904,0.0,1.4550940990447998,-2.2789692878723145
635852388,0.2098451554775238,-0.012763719074428082,-23.538341522216797,0.010607218369841576,-0.004777563735842705,0.11681091785430908,-0.005822108127176762,0.11679896712303162,-0.005800256039947271,0.5794000029563904,0.0,1.4802379608154297,-2.2579667568206787
635862883,0.20920470356941223,-0.0044334642589092255,-23.533544540405273,0.009504405781626701,-0.0022212518379092216,0.11635413765907288,-0.004763295408338308,0.11635055392980576,-0.004760840442031622,0.5794000029563904,0.0,1.4892921447753906,-2.0071442127227783
635872395,0.2116658091545105,-0.011593793518841267,-23.531509399414062,0.010189216583967209,-0.0026885075494647026,0.11664818972349167,-0.004963930230587721,0.11663997173309326,-0.0049583157524466515,0.5794000029563904,0.0,1.4836674928665161,-2.067174196243286
635882409,0.21625280380249023,-0.015144865959882736,-23.535415649414062,0.012265502475202084,-0.0037965199444442987,0.11756885051727295,-0.005455241072922945,0.11754968762397766,-0.005443786270916462,0.5794000029563904,0.0,1.466846227645874,-2.1787922382354736
635892787,0.22174903750419617,-0.011589240282773972,-23.537216186523438,0.015250648371875286,-0.003718659747391939,0.11893072724342346,-0.005419719964265823,0.11890262365341187,-0.005408497992902994,0.5794000029563904,0.0,1.443260908126831,-2.17215633392334
635902519,0.22163455188274384,-0.008871741592884064,-23.538244247436523,0.017633285373449326,-0.003156278980895877,0.12004511803388596,-0.005156686995178461,0.12001749873161316,-0.005145350471138954,0.5794000029563904,0.0,1.4249504804611206,-2.120047092437744
635912770,0.22395561635494232,-0.011901636607944965,-23.535219192504883,0.020095452666282654,-0.0033399476669728756,0.12122154235839844,-0.005244443658739328,0.1212049350142479,-0.005233928561210632,0.5794000029563904,0.0,1.4065157175064087,-2.1378748416900635
635922472,0.22563424706459045,-0.013623274862766266,-23.535768508911133,0.022496173158288002,-0.0037539193872362375,0.12238913029432297,-0.005445778835564852,0.12239648401737213,-0.00543939508497715,0.5794000029563904,0.0,1.3890167474746704,-2.1743228435516357
635932398,0.22245629131793976,-0.010773444548249245,-23.532777786254883,0.02412964403629303,-0.0036222452763468027,0.12319476902484894,-0.0053808363154530525,0.12322975695133209,-0.0053722248412668705,0.5794000029563904,0.0,1.377379059791565,-2.1632914543151855
635942811,0.21661847829818726,-0.009310395456850529,-23.529664993286133,0.02491237036883831,-0.003338795155286789,0.12358471006155014,-0.005239625461399555,0.12363965809345245,-0.005223786924034357,0.5794000029563904,0.0,1.3718807697296143,-2.1381349563598633
635952407,0.2147706151008606,-0.009201522916555405,-23.52939796447754,0.02566499076783657,-0.003133530728518963,0.12396182864904404,-0.005136773455888033,0.12404383718967438,-0.0051135532557964325,0.5794000029563904,0.0,1.3666412830352783,-2.1185503005981445
635963255,0.21462556719779968,-0.009724569506943226,-23.531057357788086,0.02665621042251587,-0.0030595778953284025,0.12445489317178726,-0.005099986679852009,0.12458811700344086,-0.005072945728898048,0.5794000029563904,0.0,1.3598005771636963,-2.1111559867858887
635972390,0.22145779430866241,-0.012298599816858768,-23.533578872680664,0.028520921245217323,-0.003304822836071253,0.12538713216781616,-0.005222594831138849,0.12563878297805786,-0.0052111283876001835,0.5794000029563904,0.0,1.3471388816833496,-2.1349802017211914
635982398,0.2203560471534729,-0.01009839866310358,-23.531002044677734,0.03020642325282097,-0.0032721448224037886,0.12622122466564178,-0.005206423811614513,0.12661007046699524,-0.005192297510802746,0.5794000029563904,0.0,1.3359006643295288,-2.1318957805633545
635992768,0.22083355486392975,-0.00488958228379488,-23.528478622436523,0.03192632272839546,-0.00274438364431262,0.12705790996551514,-0.004949683789163828,0.12762299180030823,-0.004881476517766714,0.5794000029563904,0.0,1.324619174003601,-2.077054500579834
636002447,0.22270259261131287,-0.007228369824588299,-23.527250289916992,0.03380691632628441,-0.0025607666466385126,0.12794996798038483,-0.004862584639340639,0.1287541687488556,-0.004771030507981777,0.5794000029563904,0.0,1.3124797344207764,-2.0555176734924316
636013393,0.220774844288826,-0.011553422547876835,-23.530412673950195,0.03551628440618515,-0.002808108925819397,0.12872397899627686,-0.004974581766873598,0.1298023760318756,-0.0049227033741772175,0.5794000029563904,0.0,1.3015838861465454,-2.0846972465515137
636022483,0.22611534595489502,-0.01469179056584835,-23.532428741455078,0.03763538599014282,-0.003277506912127137,0.12965065240859985,-0.005179847124963999,0.13112987577915192,-0.005216754041612148,0.5794000029563904,0.0,1.2882778644561768,-2.1349434852600098
636032446,0.21796832978725433,-0.015681887045502663,-23.534893035888672,0.03904569894075394,-0.003748448332771659,0.1302303969860077,-0.005373441148549318,0.13203065097332,-0.005517545156180859,0.5794000029563904,0.0,1.2795045375823975,-2.179901599884033
636042804,0.21094264090061188,-0.01216292753815651,-23.532546997070312,0.03999906778335571,-0.003884769743308425,0.13059177994728088,-0.0054251146502792835,0.1326511949300766,-0.005606275517493486,0.5794000029563904,0.0,1.27357816696167,-2.192227363586426
636052385,0.21412603557109833,-0.011580638587474823,-23.530162811279297,0.04132400453090668,-0.003968293312937021,0.13104304671287537,-0.005453562363982201,0.1335296481847763,-0.005661653354763985,0.5794000029563904,0.0,1.265320062637329,-2.1998403072357178
636062810,0.22164565324783325,-0.014985691756010056,-23.527732849121094,0.04323842376470566,-0.004278894979506731,0.13160787522792816,-0.005545202177017927,0.1348220854997635,-0.005871342029422522,0.5794000029563904,0.0,1.2533661127090454,-2.2280032634735107
636072476,0.2233135849237442,-0.012992758303880692,-23.5385799407959,0.04525097832083702,-0.004424570593982935,0.13209432363510132,-0.005580413155257702,0.1362050324678421,-0.005971444305032492,0.5794000029563904,0.0,1.2407598495483398,-2.241177797317505
636082388,0.2228880524635315,-0.006629184354096651,-23.542709350585938,0.0472174771130085,-0.004170941188931465,0.13244812190532684,-0.0055347830057144165,0.137580007314682,-0.005794106982648373,0.5794000029563904,0.0,1.2283445596694946,-2.2165892124176025
636092790,0.21897576749324799,-0.012910167686641216,-23.543785095214844,0.0489455908536911,-0.004331683274358511,0.1326364427804947,-0.005552299320697784,0.13880911469459534,-0.005908433347940445,0.5794000029563904,0.0,1.217278003692627,-2.2333223819732666
636102485,0.2168903350830078,-0.016081297770142555,-23.538015365600586,0.05058250203728676,-0.004657639190554619,0.1326827108860016,-0.005561511497944593,0.1399931013584137,-0.00614419998601079,0.5794000029563904,0.0,1.2065757513046265,-2.267975330352783
636112778,0.21888293325901031,-0.014533358626067638,-23.53020668029785,0.05236251279711723,-0.004867882933467627,0.13257095217704773,-0.005548310931771994,0.14130215346813202,-0.00629881676286459,0.5794000029563904,0.0,1.1946274042129517,-2.2909631729125977
636122473,0.22472690045833588,-0.012093523517251015,-23.532217025756836,0.05445626750588417,-0.004936879966408014,0.13223978877067566,-0.0055373976938426495,0.14286744594573975,-0.006350398994982243,0.5794000029563904,0.0,1.180159568786621,-2.298924684524536
636132487,0.2204359471797943,-0.016436167061328888,-23.533166885375977,0.056313157081604004,-0.005219153594225645,0.1317647248506546,-0.005465180147439241,0.14427846670150757,-0.006564892828464508,0.5794000029563904,0.0,1.166914463043213,-2.333171844482422
636142802,0.2209039330482483,-0.011204753071069717,-23.533124923706055,0.05818982794880867,-0.005232225172221661,0.131095752120018,-0.00546052074059844,0.14572782814502716,-0.0065749878995120525,0.5794000029563904,0.0,1.1530494689941406,-2.3348472118377686
636152394,0.22380760312080383,-0.009620214812457561,-23.539003372192383,0.060184724628925323,-0.005183286964893341,0.13017645478248596,-0.005483072716742754,0.14729367196559906,-0.00653657503426075,0.5794000029563904,0.0,1.1377346515655518,-2.3280961513519287
636163342,0.2253386229276657,-0.0074236635118722916,-23.538976669311523,0.062229935079813004,-0.005058348178863525,0.12898506224155426,-0.00555585278198123,0.14892663061618805,-0.006436820607632399,0.5794000029563904,0.0,1.1212801933288574,-2.309357166290283
636172389,0.22268825769424438,-0.008984774351119995,-23.535531997680664,0.06410015374422073,-0.005020642187446356,0.12770693004131317,-0.005581622011959553,0.15044330060482025,-0.006406242493540049,0.5794000029563904,0.0,1.1056045293807983,-2.303332567214966
636182460,0.21585959196090698,-0.00930467527359724,-23.534229278564453,0.06567010283470154,-0.005009323358535767,0.12644296884536743,-0.005590735003352165,0.1517379730939865,-0.006396908313035965,0.5794000029563904,0.0,1.091776728630066,-2.3013997077941895
636192743,0.21263845264911652,-0.006408820394426584,-23.530799865722656,0.06711054593324661,-0.004903372377157211,0.12509571015834808,-0.005689831916242838,0.15294647216796875,-0.006308017764240503,0.5794000029563904,0.0,1.0783973932266235,-2.2820885181427
636202422,0.21914269030094147,-0.0016211241018027067,-23.536319732666016,0.06876498460769653,-0.004655689466744661,0.12331559509038925,-0.00595632940530777,0.1543595790863037,-0.006096464581787586,0.5794000029563904,0.0,1.0621109008789062,-2.2342398166656494
636213493,0.22827160358428955,-0.0052536712028086185,-23.538684844970703,0.07067379355430603,-0.004566802643239498,0.12093228846788406,-0.006067311856895685,0.15602383017539978,-0.006018965970724821,0.5794000029563904,0.0,1.0419204235076904,-2.2160165309906006
636222494,0.2289307862520218,-0.009986202232539654,-23.53314781188965,0.07249186933040619,-0.00463947793468833,0.11839185655117035,-0.005965761374682188,0.15763825178146362,-0.006083500571548939,0.5794000029563904,0.0,1.021378517150879,-2.231781244277954
636232395,0.22399987280368805,-0.01173845212906599,-23.529579162597656,0.07406608760356903,-0.004759060684591532,0.1158948615193367,-0.005776081699877977,0.1590670794248581,-0.0061920383013784885,0.5794000029563904,0.0,1.0021361112594604,-2.2599565982818604
636242790,0.21844881772994995,-0.00547207985073328,-23.531597137451172,0.07540594041347504,-0.0047059631906449795,0.11348363757133484,-0.005871636793017387,0.1603129357099533,-0.006142665632069111,0.5794000029563904,0.0,0.984319269657135,-2.2464354038238525
636252457,0.2193830907344818,-0.0044883922673761845,-23.528968811035156,0.07669302076101303,-0.004643492866307497,0.11085256189107895,-0.005999339744448662,0.16154268383979797,-0.0060829780995845795,0.5794000029563904,0.0,0.9655631184577942,-2.2294816970825195
636262720,0.21575990319252014,-0.01139220129698515,-23.537771224975586,0.07781472057104111,-0.004747053608298302,0.10824017971754074,-0.0057581523433327675,0.1626482456922531,-0.006185048259794712,0.5794000029563904,0.0,0.9474928975105286,-2.2602427005767822
636272382,0.21721573173999786,-0.008063990622758865,-23.542747497558594,0.07888458669185638,-0.004774019122123718,0.10538758337497711,-0.005686253309249878,0.1637415587902069,-0.006212604697793722,0.5794000029563904,0.0,0.92824387550354,-2.269205093383789
636282481,0.2220546454191208,-0.006217156071215868,-23.536699295043945,0.07994715124368668,-0.004768700804561377,0.10212086141109467,-0.005702603608369827,0.16487501561641693,-0.006206931546330452,0.5794000029563904,0.0,0.9065893888473511,-2.267242908477783
636292756,0.2217075079679489,-0.002619729610159993,-23.53227424621582,0.08089069277048111,-0.004712555091828108,0.0987427830696106,-0.005903617944568396,0.16593509912490845,-0.006143851205706596,0.5794000029563904,0.0,0.884453535079956,-2.2444684505462646
636302409,0.21783125400543213,-0.006272593513131142,-23.53158950805664,0.08166609704494476,-0.004720028955489397,0.09546560049057007,-0.005872029345482588,0.16686387360095978,-0.006152803543955088,0.5794000029563904,0.0,0.8631464242935181,-2.247859477996826
636312765,0.2200220376253128,-0.005372738000005484,-23.529525756835938,0.08235906064510345,-0.004718792624771595,0.09194250404834747,-0.005878313910216093,0.1677638441324234,-0.006151198409497738,0.5794000029563904,0.0,0.8403248190879822,-2.247209310531616
636322394,0.22104936838150024,-0.009127886034548283,-23.540937423706055,0.08294551074504852,-0.004755813162773848,0.08825863152742386,-0.0056457617320120335,0.16861000657081604,-0.006204613950103521,0.5794000029563904,0.0,0.8164220452308655,-2.270843505859375
636332389,0.22430041432380676,-0.0027609672397375107,-23.53966522216797,0.08343615382909775,-0.004737811628729105,0.08429543673992157,-0.005791169591248035,0.16942618787288666,-0.006174668204039335,0.5794000029563904,0.0,0.7905210852622986,-2.2564826011657715
636342798,0.222732812166214,0.0006881812587380409,-23.535266876220703,0.08379070460796356,-0.004707896150648594,0.08036709576845169,-0.006122627295553684,0.17014910280704498,-0.006113672163337469,0.5794000029563904,0.0,0.7645456194877625,-2.2263054847717285
636352462,0.22456324100494385,-0.0002677896118257195,-23.535322189331055,0.08402945846319199,-0.004693978000432253,0.0762743279337883,-0.006361212115734816,0.170819491147995,-0.006074592471122742,0.5794000029563904,0.0,0.7370581030845642,-2.206512451171875
636363235,0.22415107488632202,-0.011440933682024479,-23.532718658447266,0.08413294702768326,-0.004706114996224642,0.07212725281715393,-0.0058748493902385235,0.17141421139240265,-0.0061443401500582695,0.5794000029563904,0.0,0.708717405796051,-2.2461841106414795
636372456,0.2272874265909195,-0.008091161958873272,-23.533018112182617,0.08412769436836243,-0.004705794621258974,0.06781668215990067,-0.005611710250377655,0.17196612060070038,-0.006178031675517559,0.5794000029563904,0.0,0.678459107875824,-2.268615484237671
636382407,0.22959470748901367,-0.001366517273709178,-23.540603637695312,0.08399792015552521,-0.004710302222520113,0.06336671113967896,-0.005766275804489851,0.17246581614017487,-0.006160675082355738,0.5794000029563904,0.0,0.6463011503219604,-2.255740165710449
636392811,0.22546230256557465,-0.011986208148300648,-23.543092727661133,0.08376483619213104,-0.004680587910115719,0.05919946730136871,-0.005235027987509966,0.1728738695383072,-0.006212693639099598,0.5794000029563904,0.0,0.6152312159538269,-2.3003368377685547
636402422,0.21792767941951752,-0.011130759492516518,-23.539302825927734,0.08346431702375412,-0.00464292149990797,0.05552196502685547,-0.004774102941155434,0.17318567633628845,-0.0062517742626369,0.5794000029563904,0.0,0.5869989991188049,-2.3422651290893555
636413382,0.21767964959144592,-0.014069507829844952,-23.52994155883789,0.08306123316287994,-0.004573960322886705,0.05182640627026558,-0.004141847137361765,0.17345063388347626,-0.006297104060649872,0.5794000029563904,0.0,0.5578469634056091,-2.4057321548461914
636422522,0.22246244549751282,-0.01056247390806675,-23.52879524230957,0.08254631608724594,-0.0045234812423586845,0.04789190739393234,-0.003756133606657386,0.17369428277015686,-0.006320989225059748,0.5794000029563904,0.0,0.5257201790809631,-2.4486095905303955
636432487,0.2258741557598114,-0.008451522327959538,-23.538494110107422,0.08191247284412384,-0.004485661163926125,0.043794184923172,-0.003511631628498435,0.17390723526477814,-0.006333695724606514,0.5794000029563904,0.0,0.49097880721092224,-2.4773924350738525
636442806,0.22511763870716095,-0.012947279028594494,-23.544824600219727,0.08120295405387878,-0.004394532181322575,0.0398104190826416,-0.002999967196956277,0.17407828569412231,-0.006355665158480406,0.5794000029563904,0.0,0.4558238685131073,-2.542600154876709
636452409,0.22384639084339142,-0.01061785314232111,-23.54047966003418,0.08043119311332703,-0.0043242136016488075,0.03597581386566162,-0.0026505787391215563,0.17421168088912964,-0.006367819383740425,0.5794000029563904,0.0,0.4205953776836395,-2.5916967391967773
636462703,0.22328108549118042,-0.00635610893368721,-23.53502655029297,0.07959553599357605,-0.004305122420191765,0.032249823212623596,-0.0025654565542936325,0.17431408166885376,-0.006370158866047859,0.5794000029563904,0.0,0.38495638966560364,-2.604187488555908
636472380,0.22306481003761292,-0.007019423879683018,-23.531665802001953,0.07869700342416763,-0.004273529630154371,0.02861592546105385,-0.0024376872461289167,0.17439037561416626,-0.006372841540724039,0.5794000029563904,0.0,0.34875789284706116,-2.6232106685638428
636482394,0.21904994547367096,-0.006111153867095709,-23.535438537597656,0.07779930531978607,-0.004252794664353132,0.025295251980423927,-0.002360986778512597,0.17444123327732086,-0.0063740164041519165,0.5794000029563904,0.0,0.31435370445251465,-2.634795665740967
636492751,0.2198432981967926,-0.0037966107483953238,-23.542444229125977,0.07683267444372177,-0.004267155658453703,0.02200300805270672,-0.0024098993744701147,0.17447558045387268,-0.006373506039381027,0.5794000029563904,0.0,0.2789110243320465,-2.6274914741516113
636502403,0.22392332553863525,-0.008378544822335243,-23.540063858032227,0.07574315369129181,-0.004199010785669088,0.01856819912791252,-0.0021950670052319765,0.17449739575386047,-0.006374870892614126,0.5794000029563904,0.0,0.2404058426618576,-2.659904718399048
636512700,0.2215310037136078,-0.008379291743040085,-23.53912925720215,0.07464957982301712,-0.004128153435885906,0.015363447368144989,-0.001987416995689273,0.174507275223732,-0.006375511176884174,0.5794000029563904,0.0,0.20297345519065857,-2.692911148071289
636522501,0.21904341876506805,-0.008280468173325062,-23.534576416015625,0.0735594630241394,-0.004056778736412525,0.012383690103888512,-0.0017923190025612712,0.1745092123746872,-0.006375637371093035,0.5794000029563904,0.0,0.16678546369075775,-2.725571632385254
636532385,0.21762685477733612,-0.0037845729384571314,-23.53131675720215,0.07245636731386185,-0.004073011688888073,0.009563636966049671,-0.0018338185036554933,0.17450660467147827,-0.006375675555318594,0.5794000029563904,0.0,0.1312330663204193,-2.7185420989990234
636542797,0.21881380677223206,-0.0049294764176011086,-23.52932357788086,0.0712900459766388,-0.004062216728925705,0.006769058294594288,-0.0018079531146213412,0.1745021641254425,-0.006375634577125311,0.5794000029563904,0.0,0.09466714411973953,-2.7228496074676514
636552467,0.22020196914672852,-0.0059643955901265144,-23.52400016784668,0.07005855441093445,-0.004026301670819521,0.003999027889221907,-0.0017271687975153327,0.1744985729455948,-0.006375529803335667,0.5794000029563904,0.0,0.057019349187612534,-2.736362934112549
636563169,0.22085827589035034,-0.00933175440877676,-23.537073135375977,0.06876623630523682,-0.003912350628525019,0.0012833657674491405,-0.0014877135399729013,0.17449913918972015,-0.006375579163432121,0.5794000029563904,0.0,0.018660563975572586,-2.7782177925109863
636572369,0.22545208036899567,-0.007171654608100653,-23.553998947143555,0.06735502928495407,-0.003848058870062232,-0.001523345708847046,-0.001359845045953989,0.17450597882270813,-0.0063758911564946175,0.5794000029563904,0.0,-0.0226128026843071,-2.801905632019043
636582382,0.22837665677070618,-0.005972116254270077,-23.548391342163086,0.06585092842578888,-0.0038102346006780863,-0.004337880294770002,-0.0012890670914202929,0.17452310025691986,-0.00637632142752409,0.5794000029563904,0.0,-0.06577920913696289,-2.815363645553589
636592688,0.22434410452842712,-0.006702653598040342,-23.536903381347656,0.06442286819219589,-0.003752794349566102,-0.006852022372186184,-0.001187941525131464,0.17455090582370758,-0.006377439945936203,0.5794000029563904,0.0,-0.10596172511577606,-2.8350236415863037
636602513,0.22306115925312042,-0.0020399128552526236,-23.527795791625977,0.06300534307956696,-0.003807972650974989,-0.00919910054653883,-0.0012793031055480242,0.174592062830925,-0.006375838071107864,0.5794000029563904,0.0,-0.14498066902160645,-2.8174855709075928
636613464,0.22269560396671295,-0.0026025804691016674,-23.526229858398438,0.06156371533870697,-0.003844494465738535,-0.011428686790168285,-0.0013357868883758783,0.1746513396501541,-0.006374336313456297,0.5794000029563904,0.0,-0.18355049192905426,-2.80718731880188
636622489,0.2222810536623001,-0.010819968767464161,-23.54048728942871,0.06012839078903198,-0.003667984390631318,-0.013525842688977718,-0.0010778878349810839,0.17472624778747559,-0.006383548490703106,0.5794000029563904,0.0,-0.2212662398815155,-2.8557748794555664
636632393,0.21826501190662384,-0.008378623984754086,-23.549453735351562,0.058779921382665634,-0.003556740004569292,-0.015372482128441334,-0.0009255459881387651,0.1748148798942566,-0.006390860304236412,0.5794000029563904,0.0,-0.25579696893692017,-2.8870155811309814
636642770,0.2165389508008957,-0.001148846698924899,-23.542686462402344,0.05745820701122284,-0.0036359657533466816,-0.01706554740667343,-0.0010270311031490564,0.17492127418518066,-0.006384482607245445,0.5794000029563904,0.0,-0.2887095808982849,-2.866300106048584
636652515,0.2196994572877884,-0.006276623345911503,-23.53177261352539,0.05603368580341339,-0.0035732693504542112,-0.018768152222037315,-0.000952095550019294,0.17505872249603271,-0.00639053201302886,0.5794000029563904,0.0,-0.3231995403766632,-2.881193161010742
636662793,0.22205734252929688,-0.013165165670216084,-23.521608352661133,0.05453098565340042,-0.003323637880384922,-0.020438803359866142,-0.0006745634018443525,0.1752295196056366,-0.006418906152248383,0.5794000029563904,0.0,-0.3586047887802124,-2.9413530826568604
636672468,0.22004036605358124,-0.017640357837080956,-23.530588150024414,0.05307238921523094,-0.0029568143654614687,-0.021941523998975754,-0.0002966427418868989,0.17542210221290588,-0.006467338651418686,0.5794000029563904,0.0,-0.39202696084976196,-3.04160213470459
636682393,0.21466362476348877,-0.012982347048819065,-23.54277229309082,0.051750991493463516,-0.0027277448680251837,-0.02319728396832943,-7.895184535300359e-05,0.17562241852283478,-0.006502063944935799,0.5794000029563904,0.0,-0.4213961064815521,-3.112656831741333
636692792,0.21627207100391388,-0.0059002176858484745,-23.538007736206055,0.05037024989724159,-0.002701083431020379,-0.024400852620601654,-5.571163637796417e-05,0.17586040496826172,-0.006506659090518951,0.5794000029563904,0.0,-0.45111405849456787,-3.1209700107574463
636702530,0.2211950570344925,-0.0009812990901991725,-23.531723022460938,0.048839859664440155,-0.0028112023137509823,-0.025616023689508438,-0.00014314906729850918,0.17615783214569092,-0.006485258229076862,0.5794000029563904,0.0,-0.483047217130661,-3.0907156467437744
636712756,0.22353707253932953,-0.004335093777626753,-23.540485382080078,0.047238316386938095,-0.002820563269779086,-0.02676447108387947,-0.00014986174937803298,0.17650629580020905,-0.006483221426606178,0.5794000029563904,0.0,-0.5154863595962524,-3.088510751724243
636722486,0.224109947681427,-0.00728541798889637,-23.54078483581543,0.04561973363161087,-0.0027435370720922947,-0.027801349759101868,-0.00010051810386357829,0.17689815163612366,-0.006501869764178991,0.5794000029563904,0.0,-0.5473135709762573,-3.104970932006836
636732487,0.22697137296199799,-0.006151091307401657,-23.54193878173828,0.04392131045460701,-0.00269948854111135,-0.028759827837347984,-7.566005660919473e-05,0.17735324800014496,-0.006513672880828381,0.5794000029563904,0.0,-0.5797446370124817,-3.113572359085083
636742728,0.2247561663389206,-0.008191020227968693,-23.539569854736328,0.042293302714824677,-0.002596602775156498,-0.029554318636655807,-2.5450319299125113e-05,0.17783382534980774,-0.006544043775647879,0.5794000029563904,0.0,-0.6099163293838501,-3.131791591644287
636752457,0.2218736708164215,-0.00855457317084074,-23.53626251220703,0.040754929184913635,-0.002485180739313364,-0.030187204480171204,2.0388742996146902e-05,0.17833207547664642,-0.006580130662769079,0.5794000029563904,0.0,-0.6375229358673096,-3.149796485900879
636763184,0.21909815073013306,-0.014630903489887714,-23.537397384643555,0.03929346054792404,-0.0022010577376931906,-0.030664583668112755,0.000113195892481599,0.17885401844978333,-0.006681601982563734,0.5794000029563904,0.0,-0.6626744270324707,-3.1929752826690674
636772403,0.2222364991903305,-0.0076460340060293674,-23.53156852722168,0.03775763884186745,-0.002127373591065407,-0.031058600172400475,0.00013209959433879703,0.17944656312465668,-0.0067100306041538715,0.5794000029563904,0.0,-0.6883571743965149,-3.2036080360412598
636782383,0.22510868310928345,-0.0071802688762545586,-23.521648406982422,0.036152418702840805,-0.0020684723276644945,-0.0313434936106205,0.00014255328278522938,0.18011978268623352,-0.00673473346978426,0.5794000029563904,0.0,-0.7142707109451294,-3.2104010581970215
636792781,0.22718492150306702,-0.008321824483573437,-23.531435012817383,0.03450743108987808,-0.0019782218150794506,-0.0315031073987484,0.00015131021791603416,0.18086795508861542,-0.00677578104659915,0.5794000029563904,0.0,-0.7399168014526367,-3.2179319858551025
636802442,0.22114582359790802,-0.007410117890685797,-23.539871215820312,0.033058036118745804,-0.001916358363814652,-0.03152468428015709,0.00015223116497509181,0.18158142268657684,-0.006806232966482639,0.5794000029563904,0.0,-0.7616601586341858,-3.2208638191223145
636813496,0.21978120505809784,-0.003703542286530137,-23.541872024536133,0.03166073188185692,-0.001959808636456728,-0.03141617402434349,0.0001556054048705846,0.1823301613330841,-0.00678295036777854,0.5794000029563904,0.0,-0.7815210223197937,-3.220824718475342
636822400,0.2226393073797226,-0.0023868822026997805,-23.544193267822266,0.03021436743438244,-0.0020365347154438496,-0.031191162765026093,0.00016754162788856775,0.18315988779067993,-0.0067389351315796375,0.5794000029563904,0.0,-0.8013041019439697,-3.2236757278442383
636832399,0.22773924469947815,-0.009332968853414059,-23.531673431396484,0.02865898236632347,-0.0019183977274224162,-0.03081006370484829,0.0001385958312312141,0.1841215044260025,-0.006811973173171282,0.5794000029563904,0.0,-0.8215538263320923,-3.2137129306793213
636842759,0.2223615199327469,-0.008646124973893166,-23.525949478149414,0.02729014866054058,-0.001823972910642624,-0.030347680673003197,0.00010669980838429183,0.18503275513648987,-0.0068748327903449535,0.5794000029563904,0.0,-0.8383957743644714,-3.2000246047973633
636852392,0.22032850980758667,-0.0026216155383735895,-23.53718376159668,0.026012754067778587,-0.0018933960236608982,-0.02979273721575737,0.0001368595549138263,0.18594785034656525,-0.0068250996991992,0.5794000029563904,0.0,-0.8530298471450806,-3.213749647140503
636862867,0.226827472448349,-0.00039793565520085394,-23.54538917541504,0.02460511215031147,-0.002015708014369011,-0.029038839042186737,0.00020236679119989276,0.18703261017799377,-0.006730842869728804,0.5794000029563904,0.0,-0.8678617477416992,-3.241652250289917
636872380,0.22510501742362976,-0.0023745133075863123,-23.543807983398438,0.02329377643764019,-0.0020796291064471006,-0.028197025880217552,0.00024340106756426394,0.18811959028244019,-0.0066778576001524925,0.5794000029563904,0.0,-0.8803375959396362,-3.258103132247925
636882423,0.22104381024837494,-0.004083370324224234,-23.53619384765625,0.02213633432984352,-0.002096426673233509,-0.027323823422193527,0.0002560736029408872,0.18915177881717682,-0.00666287774220109,0.5794000029563904,0.0,-0.8898983001708984,-3.2631380558013916
636892809,0.2201194018125534,-0.006974372081458569,-23.526338577270508,0.02105126343667507,-0.002041983650997281,-0.026375459507107735,0.00020848987333010882,0.190193310379982,-0.006715136580169201,0.5794000029563904,0.0,-0.8971916437149048,-3.2433416843414307
636902546,0.2220570594072342,0.0002780739450827241,-23.52804946899414,0.019973063841462135,-0.002159274183213711,-0.025295168161392212,0.00032600786653347313,0.1913081705570221,-0.006593858357518911,0.5794000029563904,0.0,-0.9024291038513184,-3.2914412021636963
636912701,0.22211018204689026,-0.002779815811663866,-23.531435012817383,0.01895200088620186,-0.0021985804196447134,-0.024131471291184425,0.00037080488982610404,0.192446768283844,-0.006550027523189783,0.5794000029563904,0.0,-0.905043363571167,-3.3086767196655273
636922476,0.22709336876869202,-0.006018201354891062,-23.529396057128906,0.0178848784416914,-0.0021645526867359877,-0.02275586873292923,0.00032694058609195054,0.19373199343681335,-0.00659100990742445,0.5794000029563904,0.0,-0.9046840071678162,-3.2915024757385254
636932387,0.2225680947303772,-0.008450169116258621,-23.536108016967773,0.016983119770884514,-0.002083029830828309,-0.021446211263537407,0.00020854186732321978,0.1949072778224945,-0.006697260774672031,0.5794000029563904,0.0,-0.9010177850723267,-3.2413747310638428
636942797,0.22417117655277252,-0.007875069044530392,-23.532699584960938,0.016115479171276093,-0.0020198337733745575,-0.020029962062835693,0.00010538702917983755,0.19613394141197205,-0.006786607205867767,0.5794000029563904,0.0,-0.8932758569717407,-3.193721294403076
636952475,0.22283293306827545,-0.00546635128557682,-23.526586532592773,0.015342127531766891,-0.0020070450846105814,-0.018612757325172424,8.195129339583218e-05,0.1973235011100769,-0.006806278135627508,0.5794000029563904,0.0,-0.8814247250556946,-3.182401657104492
636963288,0.21917861700057983,-0.008027186617255211,-23.531888961791992,0.014700353145599365,-0.0019512131111696362,-0.017277080565690994,-3.424751048441976e-05,0.19841092824935913,-0.0069008804857730865,0.5794000029563904,0.0,-0.8658039569854736,-3.12404203414917
636972405,0.21695201098918915,-0.010319818742573261,-23.53418731689453,0.014154459349811077,-0.0018642799695953727,-0.016014549881219864,-0.0002353045274503529,0.19941610097885132,-0.0070609538815915585,0.5794000029563904,0.0,-0.8469758629798889,-3.016038656234741
636982481,0.2193356454372406,-0.008970752358436584,-23.536134719848633,0.013628554530441761,-0.0018079637084156275,-0.014642848633229733,-0.0003821924910880625,0.20048393309116364,-0.007175301667302847,0.5794000029563904,0.0,-0.8212597966194153,-2.933265447616577
636992733,0.21955755352973938,-0.00569048011675477,-23.542308807373047,0.013159176334738731,-0.0018041677540168166,-0.013256087899208069,-0.0003934074193239212,0.20154184103012085,-0.007183857262134552,0.5794000029563904,0.0,-0.7890669107437134,-2.9268980026245117
637002428,0.2226264625787735,-0.008634842000901699,-23.53608512878418,0.012709997594356537,-0.0017643519677221775,-0.011743462644517422,-0.0005274886498227715,0.20267485082149506,-0.007284288294613361,0.5794000029563904,0.0,-0.7458932399749756,-2.8510804176330566
637013414,0.21869905292987823,-0.013722875155508518,-23.530881881713867,0.012369356118142605,-0.0016743786400184035,-0.01040599960833788,-0.0008807515841908753,0.20365868508815765,-0.007544147316366434,0.5794000029563904,0.0,-0.6994054317474365,-2.657348155975342
637022446,0.21308621764183044,-0.00824915710836649,-23.53022575378418,0.01213457714766264,-0.0016529771964997053,-0.009349779225885868,-0.0009770323522388935,0.20442526042461395,-0.007614025846123695,0.5794000029563904,0.0,-0.656497061252594,-2.6077616214752197
637032499,0.21619747579097748,-0.005746035370975733,-23.52426528930664,0.01191284041851759,-0.0016572939930483699,-0.00817122869193554,-0.0009540880564600229,0.2052690088748932,-0.007597599644213915,0.5794000029563904,0.0,-0.6012121438980103,-2.619239330291748
637042801,0.21960023045539856,-0.006794178858399391,-23.52701759338379,0.01170926820486784,-0.0016535023460164666,-0.006864509079605341,-0.0009784266585484147,0.2061929702758789,-0.007614809088408947,0.5794000029563904,0.0,-0.5302447080612183,-2.60727596282959
637052377,0.2183322012424469,-0.011481679044663906,-23.5405216217041,0.011558759957551956,-0.0016231135232374072,-0.0056600794196128845,-0.0012216108152642846,0.20703504979610443,-0.0077848308719694614,0.5794000029563904,0.0,-0.4553565979003906,-2.4964072704315186
637062799,0.2193816602230072,-0.009699905291199684,-23.536657333374023,0.01144331507384777,-0.0016092885052785277,-0.004450545180588961,-0.001366458018310368,0.20787206292152405,-0.007885067723691463,0.5794000029563904,0.0,-0.3709191381931305,-2.4376168251037598
637072391,0.22262626886367798,-0.0061744037084281445,-23.532737731933594,0.01135513186454773,-0.0016117178602144122,-0.003135412698611617,-0.001330226892605424,0.20877373218536377,-0.00786022748798132,0.5794000029563904,0.0,-0.2694099247455597,-2.451585531234741
637082459,0.22439250349998474,-0.008054502308368683,-23.528623580932617,0.011302116326987743,-0.0016095612663775682,-0.0017973404610529542,-0.0013846592046320438,0.20968344807624817,-0.00789723452180624,0.5794000029563904,0.0,-0.15770630538463593,-2.4311652183532715
637092723,0.23037628829479218,-0.009459923021495342,-23.525650024414062,0.011281797662377357,-0.0016080300556495786,-0.0002351029252167791,-0.0015023925807327032,0.21073755621910095,-0.007976674474775791,0.5794000029563904,0.0,-0.02083611488342285,-2.390143394470215
637102430,0.22791878879070282,-0.010078076273202896,-23.5432186126709,0.011299235746264458,-0.0016098198248073459,0.001115002785809338,-0.0016409589443355799,0.21164236962795258,-0.00806953851133585,0.5794000029563904,0.0,0.0983610525727272,-2.3466153144836426
637112748,0.2181890457868576,-0.012211875058710575,-23.54235076904297,0.011329096741974354,-0.0016187410801649094,0.0018955472623929381,-0.0018741542007774115,0.2121623158454895,-0.008224877528846264,0.5794000029563904,0.0,0.16578111052513123,-2.283200263977051
637122494,0.21256515383720398,-0.009883733466267586,-23.530500411987305,0.011357028968632221,-0.0016250297194346786,0.002338102785870433,-0.00197379058226943,0.21245554089546204,-0.008290895260870457,0.5794000029563904,0.0,0.20303601026535034,-2.2595858573913574
637132473,0.2124232053756714,-0.012097092345356941,-23.527267456054688,0.011391577310860157,-0.0016424733912572265,0.002732554217800498,-0.0021729497238993645,0.21271568536758423,-0.008422241546213627,0.5794000029563904,0.0,0.23542676866054535,-2.2180449962615967
637142750,0.21854159235954285,-0.01770210452377796,-23.526952743530273,0.011465037241578102,-0.001693843980319798,0.003389917779713869,-0.0026326454244554043,0.21314749121665955,-0.008724202401936054,0.5794000029563904,0.0,0.2874836325645447,-2.142517328262329
637152487,0.22577011585235596,-0.014284206554293633,-23.531417846679688,0.011594574898481369,-0.0017286910442635417,0.004344646353274584,-0.0028894776478409767,0.21377252042293549,-0.008892342448234558,0.5794000029563904,0.0,0.35851967334747314,-2.109943151473999
637163259,0.22314491868019104,-0.009041338227689266,-23.53722381591797,0.011715293861925602,-0.0017249879892915487,0.005090992897748947,-0.0028665834106504917,0.21425968408584595,-0.008877398446202278,0.5794000029563904,0.0,0.4099397361278534,-2.112506628036499
637172372,0.22102287411689758,-0.008824977092444897,-23.534700393676758,0.011820030398666859,-0.001718218787573278,0.00566333020105958,-0.0028295929078012705,0.2146325707435608,-0.008853298611938953,0.5794000029563904,0.0,0.44681257009506226,-2.116515874862671
637182382,0.21234381198883057,-0.004656659439206123,-23.534393310546875,0.011839712969958782,-0.0016685492591932416,0.0057585714384913445,-0.0025892448611557484,0.2146945297718048,-0.00869693886488676,0.5794000029563904,0.0,0.452690452337265,-2.143235206604004
637192702,0.21063505113124847,-0.0044932798482477665,-23.52969741821289,0.011836445890367031,-0.0016140231164172292,0.005744387861341238,-0.002352529438212514,0.21468530595302582,-0.008543075993657112,0.5794000029563904,0.0,0.45182958245277405,-2.1721181869506836
637202398,0.21237841248512268,-0.0023619732819497585,-23.527490615844727,0.011848377995193005,-0.0015314831398427486,0.005791340954601765,-0.0020277227740734816,0.21471582353115082,-0.008332008495926857,0.5794000029563904,0.0,0.4546375572681427,-2.217662811279297
637213386,0.21574795246124268,-0.002570928307250142,-23.528331756591797,0.011897804215550423,-0.0014480705140158534,0.00596763426437974,-0.0017302095657214522,0.2148304283618927,-0.008138591423630714,0.5794000029563904,0.0,0.46490633487701416,-2.26765513420105
637222414,0.22178210318088531,-0.007208674214780331,-23.532331466674805,0.012024151161313057,-0.0014278687303885818,0.006385959219187498,-0.0016633229097351432,0.2151026427745819,-0.008095066994428635,0.5794000029563904,0.0,0.48821258544921875,-2.2801713943481445
637232481,0.2212294489145279,-0.012361912056803703,-23.53214454650879,0.01213541068136692,-0.0014819257194176316,0.006726806052029133,-0.0018289285944774747,0.21532480418682098,-0.00820300541818142,0.5794000029563904,0.0,0.5061478614807129,-2.251767635345459
637242811,0.2242865413427353,-0.011350455693900585,-23.531017303466797,0.012285728938877583,-0.0015188471879810095,0.007154911290854216,-0.0019340808503329754,0.21560446918010712,-0.008271698839962482,0.5794000029563904,0.0,0.5273597240447998,-2.236513137817383
637252491,0.213020458817482,-0.004256955347955227,-23.52799415588379,0.012242871336638927,-0.0014385938411578536,0.007040988653898239,-0.0017207554774358869,0.21552982926368713,-0.008131925947964191,0.5794000029563904,0.0,0.521916389465332,-2.267120361328125
637262747,0.2190663367509842,-0.0030215498991310596,-23.528911590576172,0.012294898740947247,-0.0013370212400332093,0.007170504424721003,-0.0014679046580567956,0.21561500430107117,-0.007965650409460068,0.5794000029563904,0.0,0.5279821753501892,-2.309565782546997
637272469,0.22488516569137573,-0.00787980668246746,-23.532608032226562,0.01244038064032793,-0.0013223628047853708,0.007510645315051079,-0.0014336325693875551,0.21583965420722961,-0.007943014614284039,0.5794000029563904,0.0,0.5431584715843201,-2.3158421516418457
637282471,0.22526149451732635,-0.013281896710395813,-23.537006378173828,0.01258023176342249,-0.0014067020965740085,0.00781850516796112,-0.0016192925395444036,0.21604402363300323,-0.008066260255873203,0.5794000029563904,0.0,0.5560722947120667,-2.2860546112060547
637292733,0.22152908146381378,-0.010997209697961807,-23.54121208190918,0.0126351835206151,-0.001444006571546197,0.007932642474770546,-0.0016967762494459748,0.21612022817134857,-0.008117996156215668,0.5794000029563904,0.0,0.5606257915496826,-2.2758872509002686
637302486,0.22312401235103607,-0.006930752191692591,-23.538911819458008,0.01270983275026083,-0.0013983958633616567,0.008079206570982933,-0.0016072251601144671,0.2162187397480011,-0.008057806640863419,0.5794000029563904,0.0,0.5662323832511902,-2.2868258953094482
637312766,0.2207564413547516,-0.005306525155901909,-23.52817726135254,0.012723228894174099,-0.0013194587081670761,0.008104107342660427,-0.001460494939237833,0.21623560786247253,-0.00795845128595829,0.5794000029563904,0.0,0.5671490430831909,-2.305504322052002
637322490,0.22062107920646667,-0.01148990634828806,-23.526586532592773,0.012722302228212357,-0.00137146410997957,0.008102474734187126,-0.001552137895487249,0.216234490275383,-0.008021019399166107,0.5794000029563904,0.0,0.5670908093452454,-2.2944741249084473
637332403,0.21930564939975739,-0.006192240864038467,-23.52745246887207,0.01268176268786192,-0.001306244870647788,0.00803467445075512,-0.0014430617447942495,0.21618777513504028,-0.007945865392684937,0.5794000029563904,0.0,0.5647320747375488,-2.3064708709716797
637342817,0.21833407878875732,-0.0038159603718668222,-23.528369903564453,0.012609684839844704,-0.0011892912443727255,0.00792015716433525,-0.0012572467094287276,0.2161080688238144,-0.007816544733941555,0.5794000029563904,0.0,0.5608262419700623,-2.3284249305725098
637352394,0.21805651485919952,-0.009388105943799019,-23.534530639648438,0.012522341683506966,-0.0012010423233732581,0.007788226008415222,-0.0012749965535476804,0.21601523458957672,-0.007829034700989723,0.5794000029563904,0.0,0.5564004778862,-2.3263349533081055
637363272,0.21610666811466217,-0.008711841888725758,-23.53445816040039,0.012379615567624569,-0.0011954798828810453,0.007584123406559229,-0.0012670421274378896,0.2158696949481964,-0.007823362946510315,0.5794000029563904,0.0,0.549654483795166,-2.327141761779785
637372378,0.21537669003009796,-0.007177815306931734,-23.533998489379883,0.012215559370815754,-0.0011530326446518302,0.007359703537076712,-0.001208976493217051,0.21570777893066406,-0.0077814687974750996,0.5794000029563904,0.0,0.5422454476356506,-2.3325135707855225
637382413,0.21388642489910126,-0.008793221786618233,-23.52720069885254,0.012010625563561916,-0.0011497439118102193,0.00709280651062727,-0.0012046934571117163,0.2155124545097351,-0.007778334431350231,0.5794000029563904,0.0,0.5334377288818359,-2.332859516143799
637392750,0.21906310319900513,-0.010906933806836605,-23.525211334228516,0.011928511783480644,-0.0011970264604315162,0.006990972440689802,-0.0012633315054699779,0.21543677151203156,-0.00782191101461649,0.5794000029563904,0.0,0.5301157236099243,-2.329251289367676
637402499,0.21709978580474854,-0.014168516732752323,-23.526962280273438,0.011790161952376366,-0.0013221852714195848,0.0068275779485702515,-0.0014111464843153954,0.21531331539154053,-0.007933597080409527,0.5794000029563904,0.0,0.524903416633606,-2.3236587047576904
637413372,0.21697162091732025,-0.015117418952286243,-23.530921936035156,0.011641516350209713,-0.0014659010339528322,0.0066611990332603455,-0.0015720069641247392,0.21518510580062866,-0.008057561703026295,0.5794000029563904,0.0,0.5197225213050842,-2.3212809562683105
637422434,0.217495858669281,-0.015172624960541725,-23.528013229370117,0.011503547430038452,-0.0016035453882068396,0.006513433530926704,-0.0017194250831380486,0.2150692343711853,-0.008173160254955292,0.5794000029563904,0.0,0.5152039527893066,-2.321335792541504
637432467,0.2154018133878708,-0.014608601108193398,-23.53054428100586,0.011307017877697945,-0.0017199711874127388,0.006313101388514042,-0.001838103635236621,0.21490883827209473,-0.008268177509307861,0.5794000029563904,0.0,0.509219765663147,-2.323004961013794
637442783,0.2205418199300766,-0.010147158056497574,-23.533523559570312,0.0112424585968256,-0.0017142299329861999,0.006250082515180111,-0.0018324994016438723,0.21485717594623566,-0.008263583295047283,0.5794000029563904,0.0,0.5073888301849365,-2.3228602409362793
637452382,0.2281787246465683,-0.010427257977426052,-23.5296688079834,0.011371806263923645,-0.00171480025164783,0.006372710224241018,-0.0018330400343984365,0.2149604856967926,-0.00826403871178627,0.5794000029563904,0.0,0.5107893943786621,-2.3228790760040283
637462766,0.22181256115436554,-0.010822637937963009,-23.529094696044922,0.01131762657314539,-0.0017245913622900844,0.006322852801531553,-0.0018420502310618758,0.21491731703281403,-0.008271841332316399,0.5794000029563904,0.0,0.5094775557518005,-2.323273181915283
637472397,0.21878045797348022,-0.0047513023018836975,-23.536230087280273,0.011176105588674545,-0.0015710681909695268,0.006196535658091307,-0.001705020316876471,0.21480487287044525,-0.008149857632815838,0.5794000029563904,0.0,0.5062494277954102,-2.315329074859619
637482392,0.22102852165699005,-0.005191293079406023,-23.535316467285156,0.01109271589666605,-0.001435534213669598,0.006124407984316349,-0.0015877911355346441,0.2147388458251953,-0.008042554371058941,0.5794000029563904,0.0,0.5044623613357544,-2.305875778198242
637492777,0.22289614379405975,-0.009274303913116455,-23.528057098388672,0.01105518639087677,-0.0014153444208204746,0.006092986091971397,-0.0015708869323134422,0.21470926702022552,-0.008026639930903912,0.5794000029563904,0.0,0.5037201642990112,-2.304154396057129
637502430,0.21964803338050842,-0.012557570822536945,-23.527362823486328,0.01092409249395132,-0.0014837976777926087,0.0059868707321584225,-0.0016262970166280866,0.21460647881031036,-0.00808031391352415,0.5794000029563904,0.0,0.501339316368103,-2.3104076385498047
637512758,0.2164992392063141,-0.009659383445978165,-23.528615951538086,0.010707074776291847,-0.0014699719613417983,0.005817280150949955,-0.0016154927434399724,0.2144373655319214,-0.008069540373980999,0.5794000029563904,0.0,0.49769383668899536,-2.309065580368042
637522414,0.21785171329975128,-0.007279039826244116,-23.526836395263672,0.010529043152928352,-0.0013913529692217708,0.005683552008122206,-0.001556438161060214,0.2143007218837738,-0.008009199984371662,0.5794000029563904,0.0,0.49497655034065247,-2.3002495765686035
637532388,0.21983455121517181,-0.006961601320654154,-23.5373592376709,0.01040532998740673,-0.0013061880599707365,0.005594456102699041,-0.0014951038174331188,0.21420815587043762,-0.007945472374558449,0.5794000029563904,0.0,0.49331429600715637,-2.2888572216033936
637542800,0.2162022739648819,-0.012055761180818081,-23.53954315185547,0.010177952237427235,-0.00136677292175591,0.005437118001282215,-0.0015370264882221818,0.21404211223125458,-0.007989714853465557,0.5794000029563904,0.0,0.49063611030578613,-2.2976298332214355
637552394,0.213547945022583,-0.006980903446674347,-23.537097930908203,0.00987844355404377,-0.00128050590865314,0.005237603560090065,-0.0014795607421547174,0.21382847428321838,-0.007928182370960712,0.5794000029563904,0.0,0.48751890659332275,-2.2841992378234863
637563190,0.21726743876934052,-0.005425590556114912,-23.53212547302246,0.009691596031188965,-0.0011527100577950478,0.005118242464959621,-0.0013979228679090738,0.21369847655296326,-0.007839268073439598,0.5794000029563904,0.0,0.4858829975128174,-2.2603507041931152
637572373,0.22048147022724152,-0.0019695323426276445,-23.53284454345703,0.009601841680705547,-0.0009314256021752954,0.0050625428557395935,-0.0012605981901288033,0.21363724768161774,-0.007688315585255623,0.5794000029563904,0.0,0.4852069318294525,-2.207139492034912
637582382,0.2280765175819397,-0.005881368648260832,-23.540611267089844,0.009731387719511986,-0.000833810365293175,0.0051402864046394825,-0.0012020169524475932,0.21372376382350922,-0.0076231281273067,0.5794000029563904,0.0,0.4859657287597656,-2.177264928817749
637592739,0.22511690855026245,-0.007082372438162565,-23.539579391479492,0.009764350019395351,-0.0007759375730529428,0.005159436259418726,-0.001168395159766078,0.2137453258037567,-0.007585270330309868,0.5794000029563904,0.0,0.48610490560531616,-2.1570231914520264
637602486,0.22451309859752655,-0.0025833745021373034,-23.534793853759766,0.009774102829396725,-0.0005906634614802897,0.00516492547467351,-0.0010641083354130387,0.21375158429145813,-0.0074664754793047905,0.5794000029563904,0.0,0.48613178730010986,-2.0775294303894043
637613445,0.22686418890953064,-0.005850749555975199,-23.531230926513672,0.009847682900726795,-0.0005097988760098815,0.005204846151173115,-0.0010202359408140182,0.21379776298999786,-0.007415719795972109,0.5794000029563904,0.0,0.4862142503261566,-2.0341930389404297
637622493,0.22008176147937775,-0.008469617925584316,-23.530834197998047,0.009718464687466621,-0.0005094046355225146,0.005136450752615929,-0.0010200272081419826,0.21371802687644958,-0.007415476720780134,0.5794000029563904,0.0,0.4862062931060791,-2.033965587615967
637632388,0.21385715901851654,-0.007515741046518087,-23.53337287902832,0.009414604865014553,-0.00048206528299488127,0.004980475641787052,-0.0010059935739263892,0.2135339230298996,-0.007398912683129311,0.5794000029563904,0.0,0.4865899682044983,-2.017659902572632
637642783,0.2162298858165741,-0.004385631997138262,-23.532634735107422,0.009192869067192078,-0.00036734220338985324,0.004870121367275715,-0.0009488979121670127,0.21340195834636688,-0.007330633234232664,0.5794000029563904,0.0,0.48718026280403137,-1.9401540756225586
637652400,0.2201688587665558,-0.005298980511724949,-23.534225463867188,0.00909321941435337,-0.0002854040649253875,0.004822064656764269,-0.0009093828266486526,0.21334366500377655,-0.0072827027179300785,0.5794000029563904,0.0,0.48758676648139954,-1.8749043941497803
637662776,0.22156758606433868,-0.010050461627542973,-23.529245376586914,0.00903703086078167,-0.0003420471039135009,0.0047958311624825,-0.0009358283714391291,0.2133113443851471,-0.007315285503864288,0.5794000029563904,0.0,0.4878944754600525,-1.9212135076522827
637672406,0.22345101833343506,-0.010966605506837368,-23.528018951416016,0.009035361930727959,-0.0004215534427203238,0.004795077722519636,-0.0009717185166664422,0.21331040561199188,-0.0073602828197181225,0.5794000029563904,0.0,0.4879058599472046,-1.980115532875061
637682400,0.2247166782617569,-0.006570270285010338,-23.53325080871582,0.009067952632904053,-0.0003763670683838427,0.004809278063476086,-0.0009520304738543928,0.21332857012748718,-0.007335107307881117,0.5794000029563904,0.0,0.48763948678970337,-1.9472706317901611
637692775,0.22640058398246765,-0.007239130791276693,-23.53107452392578,0.009144147858023643,-0.0003525393840391189,0.004841251764446497,-0.0009420317364856601,0.21337038278579712,-0.007322031073272228,0.5794000029563904,0.0,0.4869190752506256,-1.9288939237594604
637702509,0.2238360196352005,-0.011842274107038975,-23.530628204345703,0.009147461503744125,-0.0004539786314126104,0.0048425872810184956,-0.0009829147020354867,0.21337217092514038,-0.007376897148787975,0.5794000029563904,0.0,0.48688334226608276,-2.003476619720459
637712745,0.22346065938472748,-0.014354998245835304,-23.531282424926758,0.009141162037849426,-0.0006166367675177753,0.004840157460421324,-0.0010456644231453538,0.21336881816387177,-0.007463660556823015,0.5794000029563904,0.0,0.48696064949035645,-2.1036133766174316
637722519,0.22171565890312195,-0.015817010775208473,-23.536108016967773,0.009090689942240715,-0.0008087439928203821,0.004821597132831812,-0.0011163083836436272,0.21334224939346313,-0.007564784027636051,0.5794000029563904,0.0,0.48766180872917175,-2.197763681411743
637732397,0.22106726467609406,-0.013639810495078564,-23.538516998291016,0.009027657099068165,-0.0009349780739285052,0.004799614194780588,-0.0011603329330682755,0.21330948173999786,-0.0076304045505821705,0.5794000029563904,0.0,0.4886510670185089,-2.249053955078125
637742788,0.21486018598079681,-0.012006518431007862,-23.532882690429688,0.008813532069325447,-0.0010137357749044895,0.004729231353849173,-0.0011862206738442183,0.21319948136806488,-0.007670865394175053,0.5794000029563904,0.0,0.49248746037483215,-2.2779502868652344
637752501,0.2149331271648407,-0.009904103353619576,-23.528791427612305,0.008615018799901009,-0.0010368673829361796,0.004668202251195908,-0.0011933320201933384,0.21309861540794373,-0.007682619150727987,0.5794000029563904,0.0,0.4965783357620239,-2.286151647567749
637763195,0.22177237272262573,-0.01162650715559721,-23.536088943481445,0.008595633320510387,-0.00110209034755826,0.004662803374230862,-0.001211497001349926,0.2130887806415558,-0.00771572720259428,0.5794000029563904,0.0,0.4970373511314392,-2.3089404106140137
637772468,0.22686868906021118,-0.006241245660930872,-23.536090850830078,0.00870327278971672,-0.0010340448934584856,0.004690234083682299,-0.0011941564735025167,0.21314361691474915,-0.00768106197938323,0.5794000029563904,0.0,0.49428483843803406,-2.2844605445861816
637782398,0.22751443088054657,-0.005877703428268433,-23.538005828857422,0.008824162185192108,-0.0009612429421395063,0.004717683885246515,-0.001177625497803092,0.21320544183254242,-0.007643828168511391,0.5794000029563904,0.0,0.490968257188797,-2.2553701400756836
637792734,0.22779451310634613,-0.0052457088604569435,-23.5371036529541,0.008948992937803268,-0.0008776661707088351,0.004742433317005634,-0.0011610552901402116,0.21326960623264313,-0.007600863929837942,0.5794000029563904,0.0,0.48731207847595215,-2.218075752258301
637802439,0.21792523562908173,-0.01084554847329855,-23.523466110229492,0.008838295005261898,-0.0009310573805123568,0.004723807796835899,-0.0011700385948643088,0.21321234107017517,-0.0076284827664494514,0.5794000029563904,0.0,0.4908422529697418,-2.2429394721984863
637813369,0.21649876236915588,-0.010679789818823338,-23.52547264099121,0.00870349071919918,-0.0009790458716452122,0.004705821163952351,-0.001176441670395434,0.21314211189746857,-0.007653480861335993,0.5794000029563904,0.0,0.4956611394882202,-2.2648706436157227
637822400,0.21235424280166626,-0.012877002358436584,-23.533954620361328,0.00848332978785038,-0.0010760390432551503,0.004682926461100578,-0.0011865281267091632,0.21302643418312073,-0.007704445160925388,0.5794000029563904,0.0,0.5043889880180359,-2.307399272918701
637832395,0.22139370441436768,0.01161094568669796,-23.56336784362793,0.008482502773404121,-0.0006147984531708062,0.0046828691847622395,-0.0011545054148882627,0.2130260020494461,-0.007459832355380058,0.5794000029563904,0.0,0.5044251084327698,-2.0601205825805664
637842790,0.2550235390663147,-0.0412190705537796,-23.51554298400879,0.009235386736690998,-0.00135499716270715,0.004707749933004379,-0.0011789670679718256,0.21342937648296356,-0.007856403477489948,0.5794000029563904,0.0,0.4714181423187256,-2.425550937652588
637852371,0.18862654268741608,0.0071112969890236855,-23.529476165771484,0.008499137125909328,-0.0009995512664318085,0.004711609799414873,-0.0011808305280283093,0.21303053200244904,-0.007663853466510773,0.5794000029563904,0.0,0.5061869621276855,-2.2732439041137695
637862965,0.2446068376302719,0.09303471446037292,-23.567317962646484,0.009010531939566135,0.0011881485115736723,0.004688815679401159,-0.0012783424463123083,0.2133108675479889,-0.006464622914791107,0.5794000029563904,0.0,0.4798109829425812,-0.8219490051269531
637872436,0.19993601739406586,-0.25641974806785583,-23.505083084106445,0.008555634878575802,-0.004127358086407185,0.004727371968328953,-0.00082780746743083,0.21305833756923676,-0.00941548589617014,0.5794000029563904,0.0,0.5047948956489563,-2.943652391433716
637882416,0.22917331755161285,0.260160356760025,-23.501026153564453,0.008735248818993568,0.001543566002510488,0.004704752005636692,-0.0015419800765812397,0.21315939724445343,-0.006224784534424543,0.5794000029563904,0.0,0.4940440058708191,-0.7848837375640869
637892747,0.2183639258146286,-0.1857931911945343,-23.603458404541016,0.008690685965120792,-0.0021413264330476522,0.004712250083684921,-0.000921972154174,0.21313396096229553,-0.008327696472406387,0.5794000029563904,0.0,0.49684926867485046,-2.735020637512207
637902404,0.252348929643631,0.057496920228004456,-23.4791316986084,0.009328543208539486,-0.0007975361659191549,0.004577093292027712,-0.001206710236147046,0.21350346505641937,-0.007549248170107603,0.5794000029563904,0.0,0.45614343881607056,-2.1548078060150146
637912706,0.2211136668920517,0.13341587781906128,-23.543777465820312,0.00933063868433237,0.0019457670859992504,0.004576554521918297,-0.0019118183990940452,0.21350470185279846,-0.0059348214417696,0.5794000029563904,0.0,0.45600807666778564,-0.7765973806381226
637922398,0.2236420214176178,-0.29371243715286255,-23.564865112304688,0.009385527111589909,-0.003548671491444111,0.004559875000268221,-0.0002421416575089097,0.2135375440120697,-0.009222354739904404,0.5794000029563904,0.0,0.4522564709186554,-3.0734634399414062
637932394,0.21960115432739258,0.18802480399608612,-23.481969833374023,0.009367920458316803,0.0001468528644181788,0.004566085059195757,-0.0015455768443644047,0.21352683007717133,-0.006972269155085087,0.5794000029563904,0.0,0.45353075861930847,-1.4760652780532837
637942830,0.17989611625671387,-0.07300188392400742,-23.58907699584961,0.008644724264740944,-0.0010503788944333792,0.004858091939240694,-0.0010621673427522182,0.2130783349275589,-0.007714733015745878,0.5794000029563904,0.0,0.5119882225990295,-2.350613832473755
