TimeUS,DPE,TPE,PE,DVE,TVE,VE,DAE,TAE,AE
215729298,0.06580207496881485,0.06580207496881485,0.06580207496881485,-0.01052222028374672,-0.01052222028374672,-0.01052222028374672,0.0,-2.642553271811469e-15,-4.01699191894837e-15
215829315,0.0658266693353653,0.0658266693353653,0.0658266693353653,-0.009948725812137127,-0.009948725812137127,-0.009948725812137127,0.0,-1.4213090035149808e-15,-4.017945678046978e-15
215929288,0.06588306277990341,0.06588306277990341,0.06588306277990341,-0.009474840946495533,-0.009474840946495533,-0.009474840946495533,0.0,-7.644574522319323e-16,-4.018945600441212e-15
216029293,0.06591808795928955,0.06591808795928955,0.06591808795928955,-0.009431887418031693,-0.009431887418031693,-0.009431887418031693,0.0,-4.111641921573407e-16,-4.01993324085771e-15
216129388,0.06598556041717529,0.06598556041717529,0.06598556041717529,-0.010492473840713501,-0.010492473840713501,-0.010492473840713501,0.0,-2.2114783526190542e-16,-4.020822625452327e-15
216229357,0.06602471321821213,0.06602471321821213,0.06602471321821213,-0.01103957463055849,-0.01103957463055849,-0.01103957463055849,0.0,-1.1894530306734457e-16,-4.021877181471659e-15
216329269,0.06609250605106354,0.06609250605106354,0.06609250605106354,-0.010612539947032928,-0.010612539947032928,-0.010612539947032928,0.0,-6.397526030559443e-17,-4.023004158807981e-15
216429328,0.06615571677684784,0.06615571677684784,0.06615571677684784,-0.009852135553956032,-0.009852135553956032,-0.009852135553956032,0.0,-3.4409376758336066e-17,-4.023977399664376e-15
216529281,0.0662611722946167,0.0662611722946167,0.0662611722946167,-0.008897515945136547,-0.008897515945136547,-0.008897515945136547,0.0,-1.8506894002091888e-17,-4.025155622494007e-15
216629371,0.06636043637990952,0.06636043637990952,0.06636043637990952,-0.009184618480503559,-0.009184618480503559,-0.009184618480503559,0.0,-9.954195538512079e-18,-4.026486311254143e-15
216729269,0.06648305803537369,0.06648305803537369,0.06648305803537369,-0.009143714793026447,-0.009143714793026447,-0.009143714793026447,0.0,-5.35390666241477e-18,-4.02696700245171e-15
216829339,0.06655500829219818,0.06655500829219818,0.06655500829219818,-0.008483370766043663,-0.008483370766043663,-0.008483370766043663,0.0,-2.8796220938599213e-18,-4.027933890561001e-15
216929264,0.06663433462381363,0.06663433462381363,0.06663433462381363,-0.008572809398174286,-0.008572809398174286,-0.008572809398174286,0.0,-1.5488178386303878e-18,-4.029171829213413e-15
217029311,0.06650389730930328,0.06650389730930328,0.06650389730930328,-0.012236128561198711,-0.012236128561198711,-0.012236128561198711,0.0,-8.330383437596102e-19,-4.031014972906638e-15
217129285,0.06636107712984085,0.06636107712984085,0.06636107712984085,-0.012193851172924042,-0.012193851172924042,-0.012193851172924042,0.0,-4.480532355348872e-19,-4.035448766869041e-15
217229378,0.06720957159996033,0.06720957159996033,0.06790004670619965,0.009247764945030212,0.006485864520072937,0.00778921227902174,-0.002311941236257553,-0.04084986075758934,-0.01617380604147911
217329370,0.06812287867069244,0.06812287867069244,0.07050316780805588,0.009019365534186363,-0.0005017822841182351,0.017567409202456474,-0.002254841383546591,-0.1279759705066681,-0.06161448732018471
217429370,0.06901363283395767,0.06901363283395767,0.07412555813789368,0.008796608075499535,-0.011651086620986462,0.03453071787953377,-0.0021991520188748837,-0.3566894829273224,-0.1416579931974411
217529342,0.06988238543272018,0.06988238543272018,0.07884962111711502,0.008579349145293236,-0.02728958986699581,0.04769261181354523,-0.002144837286323309,-0.39455467462539673,-0.2435608059167862
217629425,0.07072968035936356,0.07072968035936356,0.08489596843719482,0.008367457427084446,-0.0482977032661438,0.07054827362298965,-0.0020918643567711115,-0.6556189060211182,-0.3613380491733551
217729373,0.07155605405569077,0.07155605405569077,0.09167209267616272,0.008160799741744995,-0.07230336964130402,0.06390709429979324,-0.0020401999354362488,-0.5136929154396057,-0.47489240765571594
217829353,0.0723620131611824,0.0723620131611824,0.09918808937072754,0.007959246635437012,-0.09934505075216293,0.0811714455485344,-0.001989811658859253,-0.7277824878692627,-0.5648826360702515
217929362,0.07314806431531906,0.07314806431531906,0.10595067590475082,0.007762673310935497,-0.12344777584075928,0.05560557171702385,-0.0019406683277338743,-0.4154258370399475,-0.5854078531265259
218029361,0.07391471415758133,0.07391471415758133,0.10969517379999161,0.0075709461234509945,-0.13555090129375458,0.032743096351623535,-0.0018927365308627486,-0.21315664052963257,-0.47525182366371155
218129357,0.07466240972280502,0.07466240972280502,0.10926574468612671,0.0073839640244841576,-0.13102935254573822,-0.0018821631092578173,-0.0018459910061210394,0.09636638313531876,-0.27079352736473083
218229473,0.07539165019989014,0.07539165019989014,0.10678015649318695,0.007201597094535828,-0.11835241317749023,-0.02166949398815632,-0.001800399273633957,0.07798830419778824,-0.13114742934703827
218329322,0.07610288262367249,0.07610288262367249,0.10247217863798141,0.007023733574897051,-0.09845345467329025,-0.03963308036327362,-0.0017559333937242627,0.22023659944534302,-0.0015575982397422194
218429400,0.07679654657840729,0.07679654657840729,0.09751958400011063,0.006850262638181448,-0.07604189962148666,-0.04918976128101349,-0.001712565659545362,0.2386750429868698,0.10131898522377014
218529304,0.07747308164834976,0.07747308164834976,0.0937139093875885,0.006681076250970364,-0.05828225612640381,-0.03522588312625885,-0.001670269062742591,0.04837224259972572,0.11811754107475281
218629446,0.07813289761543274,0.07813289761543274,0.09225693345069885,0.0065160696394741535,-0.04998009279370308,-0.02841038629412651,-0.0016290174098685384,-0.02999679185450077,0.0561002679169178
218729364,0.07877642661333084,0.07877642661333084,0.0923677533864975,0.00635513523593545,-0.04801015928387642,-0.016780780628323555,-0.0015887838089838624,-0.12620070576667786,0.010144945234060287
218829386,0.0794040635228157,0.0794040635228157,0.09437375515699387,0.006198178511112928,-0.05368060991168022,-0.002718681003898382,-0.001549544627778232,-0.2591661512851715,-0.08205097913742065
218929326,0.08001618832349777,0.08001618832349777,0.0968451276421547,0.006045095156878233,-0.06127065047621727,-0.007595534902065992,-0.0015112737892195582,-0.1703542321920395,-0.12630468606948853
219029374,0.08061321079730988,0.08061321079730988,0.09990178793668747,0.0058957957662642,-0.0712585374712944,0.0029204674065113068,-0.00147394894156605,-0.31286537647247314,-0.18456228077411652
219129358,0.08119546622037888,0.08119546622037888,0.10244462639093399,0.005750184413045645,-0.07924644649028778,-0.005383577663451433,-0.0014375461032614112,-0.16927538812160492,-0.1962435245513916
219229331,0.0817633643746376,0.0817633643746376,0.10479973256587982,0.0056081670336425304,-0.08653732389211655,0.002028506714850664,-0.0014020417584106326,-0.27527371048927307,-0.2143518179655075
219329337,0.08231722563505173,0.08231722563505173,0.10641498118638992,0.005469657480716705,-0.09092137962579727,-0.013202334754168987,-0.0013674143701791763,-0.09677230566740036,-0.20665757358074188
219429340,0.0828574076294899,0.0828574076294899,0.10727643966674805,0.005334570072591305,-0.09234154224395752,-0.005388281308114529,-0.0013336425181478262,-0.2182532697916031,-0.18380171060562134
219529324,0.08338425308465958,0.08338425308465958,0.10807184129953384,0.005202817264944315,-0.09354754537343979,-0.01662575639784336,-0.0013007043162360787,-0.09788872301578522,-0.18810416758060455
219629474,0.08389807492494583,0.08389807492494583,0.10814428329467773,0.0050743198953568935,-0.09191050380468369,-0.008187278173863888,-0.0012685799738392234,-0.18047472834587097,-0.15509170293807983
219729363,0.08439922332763672,0.08439922332763672,0.109015554189682,0.004948993679136038,-0.09351635724306107,-0.011954392306506634,-0.0012372484197840095,-0.18403831124305725,-0.18576738238334656
219829355,0.08488798141479492,0.08488798141479492,0.10962262749671936,0.004826764110475779,-0.09411182254552841,-0.015252471901476383,-0.0012066910276189446,-0.10192694514989853,-0.15347576141357422
219929355,0.08536466211080551,0.08536466211080551,0.11103031784296036,0.004707555286586285,-0.09795504063367844,-0.009164685383439064,-0.0011768888216465712,-0.2722170650959015,-0.17431150376796722
220029297,0.08582959324121475,0.08582959324121475,0.11186996102333069,0.004591288045048714,-0.09957019239664078,-0.024324072524905205,-0.0011478220112621784,-0.03430274501442909,-0.1605556607246399
220129344,0.08628302067518234,0.08628302067518234,0.11153821647167206,0.004477893467992544,-0.09654287248849869,-0.03573548421263695,-0.001119473366998136,-0.005568325985223055,-0.10270830243825912
220229377,0.08672526478767395,0.08672526478767395,0.1100071370601654,0.004367298912256956,-0.08876020461320877,-0.048861969262361526,-0.001091824728064239,0.12739582359790802,-0.042574312537908554
220329442,0.08715657889842987,0.08715657889842987,0.10706516355276108,0.00425943685695529,-0.07537489384412766,-0.064885213971138,-0.0010648592142388225,0.2166583240032196,0.04505578801035881
220429363,0.08757723867893219,0.08757723867893219,0.10277356207370758,0.0041542393155395985,-0.05663105845451355,-0.0764903798699379,-0.0010385598288848996,0.30425065755844116,0.12108905613422394
220529327,0.087987519800663,0.087987519800663,0.09784943610429764,0.00405163737013936,-0.03539604693651199,-0.0678466334939003,-0.00101290934253484,0.24027569591999054,0.19309669733047485
220629443,0.08838764578104019,0.08838764578104019,0.09391016513109207,0.0039515714161098,-0.018138494342565536,-0.06541307270526886,-0.00098789285402745,0.2111019492149353,0.20237424969673157
220729328,0.08877791464328766,0.08877791464328766,0.09109719097614288,0.0038539767265319824,-0.005423152353614569,-0.04840085282921791,-0.0009634941816329956,0.09249724447727203,0.18780143558979034
220829369,0.08915852010250092,0.08915852010250092,0.09098920971155167,0.0037587929982692003,-0.003563922829926014,-0.02459312602877617,-0.0009396982495673001,-0.17234864830970764,0.08185700327157974
220929350,0.08952978253364563,0.08952978253364563,0.09248274564743042,0.0036659501492977142,-0.00814590509980917,-0.012837524525821209,-0.0009164875373244286,-0.12811054289340973,-0.007670167367905378
221029311,0.08989179134368896,0.08989179134368896,0.0946485847234726,0.0035754197742789984,-0.015451764687895775,-0.0010160199599340558,-0.0008938549435697496,-0.20978420972824097,-0.06553267687559128
221129388,0.09024490416049957,0.09024490416049957,0.09800675511360168,0.0034871138632297516,-0.02756027691066265,0.01682278700172901,-0.0008717784658074379,-0.3346434235572815,-0.15550023317337036
221229351,0.09058929979801178,0.09058929979801178,0.10155805200338364,0.0034009870141744614,-0.040474023669958115,0.006439827382564545,-0.0008502467535436153,-0.18475854396820068,-0.21191246807575226
221329335,0.0909251794219017,0.0909251794219017,0.10367295891046524,0.0033169924281537533,-0.04767415300011635,0.006845253054052591,-0.0008292481070384383,-0.16638804972171783,-0.18399472534656525
221429395,0.09125275164842606,0.09125275164842606,0.10521866381168365,0.0032350700348615646,-0.05262855812907219,0.0017251644749194384,-0.0008087675087153912,-0.13455486297607422,-0.18639251589775085
221529447,0.09157225489616394,0.09157225489616394,0.10499653220176697,0.0031551718711853027,-0.050541952252388,-0.011272035539150238,-0.0007887929677963257,0.048902299255132675,-0.1231866329908371
221629447,0.09188386052846909,0.09188386052846909,0.1025981679558754,0.0030772462487220764,-0.03977999463677406,-0.033068154007196426,-0.0007693115621805191,0.2552427649497986,-0.014041874557733536
221729307,0.09218776226043701,0.09218776226043701,0.09832266718149185,0.0030012454371899366,-0.021538347005844116,-0.04116188362240791,-0.0007503113592974842,0.3077085018157959,0.10856597870588303
221829307,0.09248416870832443,0.09248416870832443,0.09317004680633545,0.002927121939137578,0.00018359422392677516,-0.03796534985303879,-0.0007317804847843945,0.2525036036968231,0.18984583020210266
221929296,0.09277325123548508,0.09277325123548508,0.08911771327257156,0.002854828489944339,0.017476975917816162,-0.013701003044843674,-0.0007137071224860847,0.06535085290670395,0.17663685977458954
222029436,0.09305519610643387,0.09305519610643387,0.0872064158320427,0.0027843208517879248,0.026179427281022072,-0.0071042380295693874,-0.0006960802129469812,0.04178905859589577,0.11133259534835815
222129364,0.09333017468452454,0.09333017468452454,0.08657640963792801,0.0027155540883541107,0.029730604961514473,0.013390427455306053,-0.0006788885220885277,-0.05375804379582405,0.08136290311813354
222229366,0.0935983657836914,0.0935983657836914,0.0871635153889656,0.0026484858244657516,0.02838788367807865,0.019065316766500473,-0.0006621214561164379,-0.07935383170843124,0.025054117664694786
222329338,0.09385992586612701,0.09385992586612701,0.0880257710814476,0.002583073917776346,0.025919722393155098,0.016576632857322693,-0.0006457684794440866,0.004029711242765188,-0.005402873270213604
222429480,0.09411503374576569,0.09411503374576569,0.08798464387655258,0.0025192780885845423,0.027040822431445122,0.013223539106547832,-0.0006298195221461356,0.07370077818632126,0.01804874651134014
222529357,0.09436383843421936,0.09436383843421936,0.0880511999130249,0.0024570575915277004,0.02770758979022503,0.017932718619704247,-0.0006142643978819251,-0.04008236154913902,0.00745957950130105
222629438,0.09460649639368057,0.09460649639368057,0.08857851475477219,0.002396373776718974,0.026508281007409096,0.026974698528647423,-0.0005990934441797435,-0.06168500706553459,-0.01619500294327736
222729363,0.09484315663576126,0.09484315663576126,0.08901788294315338,0.0023371889255940914,0.025638289749622345,0.022617733106017113,-0.0005842972313985229,0.01109470333904028,-0.018075136467814445
222829355,0.09507398307323456,0.09507398307323456,0.08961821347475052,0.002279465552419424,0.024102535098791122,0.028837572783231735,-0.000569866388104856,-0.07216277718544006,-0.025006994605064392
222929403,0.09529910236597061,0.09529910236597061,0.09034890681505203,0.002223168034106493,0.022023934870958328,0.025602510198950768,-0.0005557920085266232,-0.006639936938881874,-0.04066038504242897
223029363,0.09551866352558136,0.09551866352558136,0.09039170295000076,0.002168260980397463,0.022676102817058563,0.014147095382213593,-0.0005420652450993657,0.110239177942276,-0.000846423557959497
223129358,0.09573280066251755,0.09573280066251755,0.08980578929185867,0.0021147101651877165,0.02582273632287979,0.005391323938965797,-0.0005286775412969291,0.15578114986419678,0.05458724498748779
223229370,0.09594164788722992,0.09594164788722992,0.08896178752183914,0.0020624808967113495,0.029981916770339012,0.00968482531607151,-0.0005156202241778374,0.0726528912782669,0.0876513347029686
223329401,0.09614533185958862,0.09614533185958862,0.08917980641126633,0.002011542906984687,0.029873646795749664,0.013408211059868336,-0.0005028857267461717,-0.008967071771621704,0.05491618439555168
223429354,0.0963440015912056,0.0963440015912056,0.09090305119752884,0.001961862202733755,0.02372564747929573,0.027739280834794044,-0.0004904655506834388,-0.18964672088623047,-0.013440858572721481
223529328,0.096537746489048,0.096537746489048,0.09331165999174118,0.001913408050313592,0.014817777089774609,0.03252612054347992,-0.000478352012578398,-0.14353464543819427,-0.06278267502784729
223629447,0.09672672301530838,0.09672672301530838,0.0958777442574501,0.001866152510046959,0.005262067075818777,0.027395129203796387,-0.00046653812751173973,-0.10529039055109024,-0.08377306908369064
223729323,0.09691102057695389,0.09691102057695389,0.09833967685699463,0.0018200627528131008,-0.0038945728447288275,0.02056306041777134,-0.0004550156882032752,-0.11119464784860611,-0.09890152513980865
223829368,0.09709077328443527,0.09709077328443527,0.09964712709188461,0.0017751106061041355,-0.008450311608612537,0.0017451656749472022,-0.0004437776515260339,0.10207361727952957,-0.06328216195106506
223929348,0.09726607799530029,0.09726607799530029,0.0989202931523323,0.001731270458549261,-0.004885592497885227,-0.013260877691209316,-0.0004328176146373153,0.19283512234687805,0.031024865806102753
224029377,0.0974370539188385,0.0974370539188385,0.09738797694444656,0.0016885122749954462,0.0018848353065550327,-0.02426675707101822,-0.00042212806874886155,0.21539880335330963,0.08203970640897751
224129336,0.09760381281375885,0.09760381281375885,0.09513255953788757,0.001646810327656567,0.011531846597790718,-0.03099166974425316,-0.0004117025819141418,0.2406041920185089,0.13875910639762878
224229460,0.0977664515376091,0.0977664515376091,0.09327054023742676,0.0016061378410086036,0.01958981156349182,-0.015454655513167381,-0.0004015344602521509,0.0731968805193901,0.15521551668643951
224329319,0.0979250818490982,0.0979250818490982,0.09327688813209534,0.0015664708334952593,0.020159220322966576,-0.014631945639848709,-0.0003916177083738148,0.014174016192555428,0.09166327118873596
224429352,0.09807978570461273,0.09807978570461273,0.09327994287014008,0.0015277822967618704,0.02072715014219284,-0.01097196713089943,-0.0003819455741904676,0.064277283847332,0.09456158429384232
224529418,0.09823066741228104,0.09823066741228104,0.09445688873529434,0.0014900496462360024,0.016585158184170723,0.0029079874511808157,-0.0003725124115590006,-0.1505632996559143,0.04142500460147858
224629447,0.09837782382965088,0.09837782382965088,0.0975506380200386,0.0014532486675307155,0.004761992953717709,0.018748993054032326,-0.00036331216688267887,-0.27501270174980164,-0.06655193865299225
224729339,0.09852134436368942,0.09852134436368942,0.10080955177545547,0.0014173568924888968,-0.007735466584563255,0.00922843161970377,-0.0003543392231222242,-0.08243267983198166,-0.11580021679401398
224829359,0.09866132587194443,0.09866132587194443,0.103563591837883,0.0013823513872921467,-0.01822671853005886,0.00796421431005001,-0.00034558784682303667,-0.14697358012199402,-0.11919056624174118
224929328,0.09879784286022186,0.09879784286022186,0.10679926723241806,0.0013482103822752833,-0.03065747208893299,0.025162644684314728,-0.00033705259556882083,-0.31568729877471924,-0.16654102504253387
225029355,0.09893099218606949,0.09893099218606949,0.11078883707523346,0.0013149124570190907,-0.046116460114717484,0.022038402035832405,-0.00032872811425477266,-0.31367892026901245,-0.23288387060165405
225129391,0.09906085580587387,0.09906085580587387,0.11400023847818375,0.0012824374716728926,-0.058475103229284286,0.016399210318922997,-0.00032060936791822314,-0.1722993105649948,-0.23737019300460815
225229342,0.11553919315338135,0.11553919315338135,0.11582719534635544,0.008078682236373425,0.006926678121089935,0.003845316357910633,-0.01012888178229332,-0.09699784964323044,-0.1995939016342163
225329329,0.11629679054021835,0.11629679054021835,0.11734810471534729,0.0070768604055047035,0.002871598582714796,0.014968331903219223,-0.009902100078761578,-0.1932021826505661,-0.18494880199432373
225429368,0.11695532500743866,0.11695532500743866,0.11955466866493225,0.006097604054957628,-0.0042997682467103004,0.005068676546216011,-0.009677866473793983,-0.1678849309682846,-0.1944757103919983
225529322,0.11751707643270493,0.11751707643270493,0.12047598510980606,0.005140607710927725,-0.0066950349137187,-0.00423030462116003,-0.009456170722842216,-0.016415905207395554,-0.13115112483501434
225629450,0.11798419058322906,0.11798419058322906,0.12096497416496277,0.004205731675028801,-0.0077173952013254166,-0.006201158743351698,-0.009237050078809261,-0.1466558575630188,-0.10559749603271484
225729354,0.11833801865577698,0.11833801865577698,0.12220326066017151,0.0027874393854290247,-0.012673543766140938,-0.005253062583506107,-0.01507912389934063,-0.14013485610485077,-0.1364508420228958
225829368,0.11854195594787598,0.11854195594787598,0.12211143970489502,0.0012973990524187684,-0.012980550527572632,-0.030258046463131905,-0.014712986536324024,0.06715699285268784,-0.08266813308000565
225929366,0.11859870702028275,0.11859870702028275,0.12183837592601776,-0.00015662034275010228,-0.013115296140313148,-0.020568961277604103,-0.014351255260407925,-0.1454990953207016,-0.06473998725414276
226029431,0.11851190030574799,0.11851190030574799,0.12193384766578674,-0.0015739200171083212,-0.015261688269674778,-0.025766389444470406,-0.013994218781590462,-0.09225703775882721,-0.09102921187877655
226129346,0.11828511208295822,0.11828511208295822,0.1218121200799942,-0.002956113778054714,-0.017064154148101807,-0.03480469062924385,-0.013641582801938057,-0.035336922854185104,-0.08026283234357834
226229368,0.1179218515753746,0.1179218515753746,0.12053006887435913,-0.00430326210334897,-0.01473612617701292,-0.04181462153792381,-0.013293445110321045,0.06555414199829102,-0.0356263667345047
226329407,0.11742561310529709,0.11742561310529709,0.1192767396569252,-0.005615817382931709,-0.013020329177379608,-0.03858214616775513,-0.012949798256158829,-0.09084448963403702,-0.027995852753520012
226429342,0.11679983139038086,0.11679983139038086,0.11829356849193573,-0.006894227582961321,-0.012869193218648434,-0.036048006266355515,-0.012610639445483685,-0.06482833623886108,-0.05633984133601189
226529318,0.11604789644479752,0.11604789644479752,0.11751175671815872,-0.008138926699757576,-0.01399435754865408,-0.035565730184316635,-0.012275965884327888,-0.10561086237430573,-0.06604856997728348
226629487,0.11517314612865448,0.11517314612865448,0.11617981642484665,-0.009350401349365711,-0.013377074152231216,-0.03548170253634453,-0.011945762671530247,-0.026788873597979546,-0.06036040186882019
226729320,0.11417890340089798,0.11417890340089798,0.11469238251447678,-0.010529059916734695,-0.012582964263856411,-0.03273192420601845,-0.01162002794444561,-0.1420666128396988,-0.07087773829698563
226829411,0.11306828260421753,0.11306828260421753,0.11367914080619812,-0.011675486341118813,-0.014118896797299385,-0.01823703572154045,-0.011298713274300098,-0.20756851136684418,-0.10589586943387985
226929395,0.11184491217136383,0.11184491217136383,0.1137835830450058,-0.012789743021130562,-0.020544452592730522,-0.014145080000162125,-0.01098191924393177,-0.2558061480522156,-0.16474854946136475
227029333,0.11051151156425476,0.11051151156425476,0.11413166671991348,-0.013872683979570866,-0.02835329994559288,-0.008944230154156685,-0.010669514536857605,-0.22308789193630219,-0.1987936943769455
227129345,0.10907140374183655,0.10907140374183655,0.11406036466360092,-0.014924573712050915,-0.0348803848028183,-0.018326684832572937,-0.010361540131270885,-0.19411468505859375,-0.19493529200553894
227229379,0.10752759873867035,0.10752759873867035,0.11294672638177872,-0.015945909544825554,-0.037622418254613876,-0.024455463513731956,-0.010057961568236351,-0.06376516819000244,-0.1687605082988739
227329338,0.10588321089744568,0.10588321089744568,0.1113203763961792,-0.016937069594860077,-0.03868570923805237,-0.030904073268175125,-0.00975878443568945,-0.08877764642238617,-0.14379970729351044
227429385,0.10414119809865952,0.10414119809865952,0.10873448848724365,-0.01789853721857071,-0.036271728575229645,-0.03854770213365555,-0.009463978931307793,-0.001802379498258233,-0.10153625160455704
227529352,0.10230448842048645,0.10230448842048645,0.10494127124547958,-0.018830740824341774,-0.029377872124314308,-0.04899430647492409,-0.009173532016575336,0.0715634673833847,-0.037843432277441025
227629441,0.10037600249052048,0.10037600249052048,0.10041776299476624,-0.019734108820557594,-0.01990113966166973,-0.05280422046780586,-0.008887424133718014,0.08675473183393478,0.014832358807325363
227729372,0.09835860878229141,0.09835860878229141,0.09608224779367447,-0.02060907706618309,-0.01150361355394125,-0.04743009805679321,-0.008605638518929482,0.015586904250085354,0.026150185614824295
227829372,0.0962551161646843,0.0962551161646843,0.09207481890916824,-0.021456079557538033,-0.004734870046377182,-0.05240394547581673,-0.008328153751790524,0.05470024794340134,0.022581050172448158
227929416,0.09406831860542297,0.09406831860542297,0.08790693432092667,-0.022275537252426147,0.002369999885559082,-0.04519275575876236,-0.008054952137172222,0.033459991216659546,0.03955444321036339
228029369,0.09180091321468353,0.09180091321468353,0.08387061208486557,-0.023067878559231758,0.008653366006910801,-0.03923264890909195,-0.007786010392010212,-0.060012996196746826,0.026429690420627594
228129353,0.08945563435554504,0.08945563435554504,0.08084502071142197,-0.02383355051279068,0.010608882643282413,-0.02685203216969967,-0.007521302439272404,-0.07354507595300674,-0.015561412088572979
228229362,0.08703508228063583,0.08703508228063583,0.0777704045176506,-0.02457294799387455,0.012485785409808159,-0.03681469336152077,-0.007260811049491167,0.03399622440338135,-0.017673956230282784
228329341,0.08454190194606781,0.08454190194606781,0.07469397038221359,-0.025286497548222542,0.014105210080742836,-0.021655792370438576,-0.007004511076956987,-0.09652035683393478,-0.016390088945627213
228429373,0.08197863399982452,0.08197863399982452,0.07253848016262054,-0.02597462385892868,0.01178599800914526,-0.01570296473801136,-0.006752378307282925,-0.157584086060524,-0.06846095621585846
228529339,0.07934781163930893,0.07934781163930893,0.07038093358278275,-0.026637732982635498,0.009229771792888641,-0.017878351733088493,-0.006504387129098177,-0.05018991231918335,-0.08270028978586197
228629479,0.0766514390707016,0.0766514390707016,0.06724492460489273,-0.027276353910565376,0.010349729098379612,-0.02590257301926613,-0.006260471418499947,0.027557816356420517,-0.05135631561279297
228729441,0.07389336824417114,0.07389336824417114,0.0633692592382431,-0.02789057418704033,0.01420585811138153,-0.025493429973721504,-0.00602072523906827,0.02529967948794365,-0.02440929412841797
228829390,0.07107458263635635,0.07107458263635635,0.058715205639600754,-0.028481120243668556,0.020956410095095634,-0.03320388123393059,-0.005785002373158932,0.11193323135375977,0.01158997230231762
228929320,0.06819792091846466,0.06819792091846466,0.05351373925805092,-0.029048297554254532,0.029688430950045586,-0.029675645753741264,-0.005553312599658966,0.10441122949123383,0.05391060188412666
229029357,0.06526569277048111,0.06526569277048111,0.04822634533047676,-0.029592491686344147,0.03856489807367325,-0.031033016741275787,-0.005325631238520145,0.11552523076534271,0.07765834033489227
229129355,0.06228020414710045,0.06228020414710045,0.0429689958691597,-0.03011411428451538,0.04713072627782822,-0.02660953253507614,-0.005101929418742657,0.08264182507991791,0.08939497917890549
229229366,0.0592435784637928,0.0592435784637928,0.038308270275592804,-0.030613571405410767,0.05312766879796982,-0.02018973045051098,-0.004882170353084803,0.0323350764811039,0.07832736521959305
229329402,0.05615818873047829,0.05615818873047829,0.03441595658659935,-0.031091229990124702,0.05587770417332649,-0.009989313781261444,-0.00466633727774024,-0.04281546548008919,0.045446667820215225
229429388,0.05302608013153076,0.05302608013153076,0.031260427087545395,-0.03154749423265457,0.055515106767416,0.0016305065946653485,-0.004454392474144697,-0.0926365926861763,0.006963553372770548
229529333,0.04984939098358154,0.04984939098358154,0.02859661914408207,-0.03198276460170746,0.05302831530570984,0.004166945815086365,-0.00424630381166935,-0.07293820381164551,-0.024561753496527672
229629458,0.046630214899778366,0.046630214899778366,0.026006218045949936,-0.03239740431308746,0.05009857192635536,0.006911125499755144,-0.004042044747620821,-0.07951776683330536,-0.045100048184394836
229729320,0.04337058588862419,0.04337058588862419,0.023361148312687874,-0.03279179707169533,0.047245949506759644,0.007383892312645912,-0.003841583151370287,-0.07458743453025818,-0.05715096741914749
229829424,0.0400724820792675,0.0400724820792675,0.020713144913315773,-0.03316633030772209,0.044271014630794525,0.013583334162831306,-0.003644883632659912,-0.07924310863018036,-0.057805564254522324
229929393,0.03673800453543663,0.03673800453543663,0.01875564083456993,-0.0335213765501976,0.0384080670773983,0.02485019713640213,-0.0034519201144576073,-0.24824826419353485,-0.10171021521091461
230029350,0.03336884081363678,0.03336884081363678,0.016877267509698868,-0.0338573195040226,0.032108984887599945,0.015928704291582108,-0.003262647893279791,-0.08501012623310089,-0.1296461522579193
230129362,0.029967131093144417,0.029967131093144417,0.014762790873646736,-0.03417449817061424,0.02664286084473133,0.0262005515396595,-0.0030770492739975452,-0.1721993237733841,-0.12449881434440613
230229400,0.02653462439775467,0.02653462439775467,0.01340527180582285,-0.034473296254873276,0.018044115975499153,0.03136569634079933,-0.0028950839769095182,-0.31753572821617126,-0.17266923189163208
230329348,0.023073071613907814,0.023073071613907814,0.012141040526330471,-0.034754086285829544,0.008974041789770126,0.02169405110180378,-0.0027167140506207943,-0.14698348939418793,-0.20072123408317566
230429332,0.01958436146378517,0.01958436146378517,0.009989696554839611,-0.03501720726490021,0.0033614563290029764,0.018237249925732613,-0.002541910856962204,-0.11068154126405716,-0.1671701818704605
230529367,0.016070207580924034,0.016070207580924034,0.007763801608234644,-0.035263024270534515,-0.0020373964216560125,0.0222480408847332,-0.0023706399369984865,-0.23488681018352509,-0.16808822751045227
230629464,0.012532323598861694,0.012532323598861694,0.005216954275965691,-0.035491880029439926,-0.006230404134839773,0.002795327454805374,-0.00220286613330245,-0.04061826691031456,-0.16365528106689453
230729362,0.00897242221981287,0.00897242221981287,0.0019175801426172256,-0.0357041172683239,-0.007484750356525183,0.007952142506837845,-0.002038560574874282,-0.07598576694726944,-0.12333222478628159
230829457,0.005392041523009539,0.005392041523009539,-0.0005630811210721731,-0.03590010479092598,-0.012079613283276558,0.01310243085026741,-0.0018776768120005727,-0.25870975852012634,-0.15235580503940582
230929351,0.0017928971210494637,0.0017928971210494637,-0.0034530824050307274,-0.03608016297221184,-0.01509624719619751,0.001459817518480122,-0.0017201887676492333,-0.12122590094804764,-0.15103477239608765
231029333,-0.0018234713934361935,-0.0018234713934361935,-0.0060170055367052555,-0.03624463826417923,-0.01947050355374813,0.00941900908946991,-0.0015660583740100265,-0.24056348204612732,-0.16563548147678375
231129355,-0.005455521866679192,-0.005455521866679192,-0.008382274769246578,-0.03639385849237442,-0.024686848744750023,0.0058846608735620975,-0.0014152521034702659,-0.13142289221286774,-0.185100719332695
231229345,-0.009101745672523975,-0.009101745672523975,-0.010766697116196156,-0.03652815893292427,-0.0298683550208807,0.011535397730767727,-0.0012677317718043923,-0.3103196322917938,-0.18140387535095215
231329310,-0.012760666199028492,-0.012760666199028492,-0.012482655234634876,-0.036647871136665344,-0.037759918719530106,0.002980652032420039,-0.0011234635021537542,-0.23340468108654022,-0.22858627140522003
231429405,-0.016430843621492386,-0.016430843621492386,-0.015154380351305008,-0.03675331175327301,-0.04185916483402252,-0.0033245310187339783,-0.0009824096923694015,-0.12132025510072708,-0.1868189126253128
231529334,-0.02011093869805336,-0.02011093869805336,-0.017803775146603584,-0.036844801157712936,-0.04607345163822174,-0.007830719463527203,-0.0008445346029475331,-0.21621392667293549,-0.19064542651176453
231629391,-0.023799346759915352,-0.023799346759915352,-0.020775364711880684,-0.03692265599966049,-0.04901858791708946,-0.010608813725411892,-0.0007098084315657616,-0.17174163460731506,-0.17967478930950165
231729332,-0.027494950219988823,-0.027494950219988823,-0.02360621467232704,-0.036987192928791046,-0.05254213511943817,-0.01569489948451519,-0.0005781864747405052,-0.1244366317987442,-0.1805041879415512
231829411,-0.031196465715765953,-0.031196465715765953,-0.026744386181235313,-0.03703871741890907,-0.054847024381160736,-0.012900225818157196,-0.0004496329929679632,-0.28546029329299927,-0.16272389888763428
231929331,-0.03490227088332176,-0.03490227088332176,-0.029215481132268906,-0.037077538669109344,-0.05982469394803047,-0.024157356470823288,-0.000324121123412624,-0.12190333008766174,-0.19771374762058258
232029323,-0.03861144557595253,-0.03861144557595253,-0.03212088719010353,-0.03710395470261574,-0.06306619197130203,-0.02411499433219433,-0.00020160495478194207,-0.19207152724266052,-0.17151691019535065
232129392,-0.04232284054160118,-0.04232284054160118,-0.035335440188646317,-0.03711825981736183,-0.06506787240505219,-0.028796277940273285,-8.204758341889828e-05,-0.15114766359329224,-0.1645117551088333
232229347,-0.04603470116853714,-0.04603470116853714,-0.03878092020750046,-0.0371207594871521,-0.06613589823246002,-0.03323075920343399,3.4572480217320845e-05,-0.1919771283864975,-0.15705464780330658
232329388,-0.049746427685022354,-0.049746427685022354,-0.04237191006541252,-0.03711174428462982,-0.06660979986190796,-0.05066901072859764,0.000148310064105317,0.032458167523145676,-0.15309442579746246
232429384,-0.053456977009773254,-0.053456977009773254,-0.04714228957891464,-0.03709148243069649,-0.06235022470355034,-0.04540086165070534,0.00025919973268173635,-0.07367745041847229,-0.08488790690898895
232529328,-0.057164356112480164,-0.057164356112480164,-0.05167794227600098,-0.03706027567386627,-0.05900593474507332,-0.05389740318059921,0.00036725401878356934,-0.05850088968873024,-0.08760062605142593
232629442,-0.06086837500333786,-0.06086837500333786,-0.056790370494127274,-0.037018392235040665,-0.053330425173044205,-0.05862049758434296,0.0004725331091322005,0.00913169514387846,-0.04785715043544769
232729360,-0.0645676851272583,-0.0645676851272583,-0.062116097658872604,-0.036966126412153244,-0.04677249491214752,-0.06891613453626633,0.0005750709678977728,0.08160696923732758,-0.0276840440928936
232829431,-0.06826126575469971,-0.06826126575469971,-0.0683244913816452,-0.03690372779965401,-0.03665083646774292,-0.06754684448242188,0.0006748950108885765,0.09840432554483414,0.030222970992326736
232929413,-0.0719481036067009,-0.0719481036067009,-0.07390688359737396,-0.036831483244895935,-0.02899637632071972,-0.06418783217668533,0.0007720476132817566,-0.03824794292449951,0.028110185638070107
233029445,-0.07562723755836487,-0.07562723755836487,-0.08019297569990158,-0.036749642342329025,-0.018486710265278816,-0.08008541911840439,0.0008665609057061374,0.2527439296245575,0.0672614574432373
233129369,-0.07929787039756775,-0.07929787039756775,-0.08628236502408981,-0.036658480763435364,-0.008720497600734234,-0.06162334233522415,0.0009584766230545938,0.003654380328953266,0.0847691148519516
233229437,-0.0829586386680603,-0.0829586386680603,-0.09179192036390305,-0.03655825927853584,-0.0012251066509634256,-0.06057252362370491,0.0010478210169821978,0.045654285699129105,0.051412418484687805
233329324,-0.08660922944545746,-0.08660922944545746,-0.09695432335138321,-0.03644922003149986,0.004931170959025621,-0.04959706589579582,0.0011346417013555765,-0.03462916985154152,0.049055326730012894
233429374,-0.09024826437234879,-0.09024826437234879,-0.10145389288663864,-0.03633162006735802,0.00849088653922081,-0.05162471532821655,0.0012189614353701472,0.005423663649708033,0.03261617571115494
233529287,-0.09387513250112534,-0.09387513250112534,-0.10523903369903564,-0.0362057164311409,0.009249910712242126,-0.039122551679611206,0.0013008248060941696,-0.11584670096635818,-0.002145890612155199
233629437,-0.09748906642198563,-0.09748906642198563,-0.10892245918512344,-0.036071743816137314,0.009661821648478508,-0.04220758005976677,0.0013802676694467664,0.030853046104311943,-0.013156295754015446
233729402,-0.10108928382396698,-0.10108928382396698,-0.11213357746601105,-0.035929933190345764,0.008247222751379013,-0.040600501000881195,0.0014573215739801526,-0.021173665300011635,-0.04346342012286186
233829371,-0.10467490553855896,-0.10467490553855896,-0.11608762294054031,-0.035780537873506546,0.009870326146483421,-0.030443545430898666,0.0015320235397666693,-0.013687129132449627,-0.025761552155017853
233929356,-0.10824507474899292,-0.10824507474899292,-0.1202436164021492,-0.03562379255890846,0.01237034797668457,-0.028953952714800835,0.0016044055810198188,0.007177623454481363,-0.027298476547002792
234029340,-0.11179932206869125,-0.11179932206869125,-0.12433724105358124,-0.03545992448925972,0.014691745862364769,-0.03667552024126053,0.0016745084431022406,0.09583181142807007,-0.02895454317331314
234129359,-0.1153368353843689,-0.1153368353843689,-0.1286003142595291,-0.03528914973139763,0.017764750868082047,-0.023461153730750084,0.0017423623939976096,-0.03144090622663498,-0.013127225451171398
234229346,-0.11885695904493332,-0.11885695904493332,-0.1328040063381195,-0.035111695528030396,0.020676443353295326,-0.024476809427142143,0.0018080025911331177,0.05673999339342117,-0.0077669392339885235
234329338,-0.12235895544290543,-0.12235895544290543,-0.1365976184606552,-0.03492778167128563,0.02202683687210083,-0.02208106964826584,0.0018714605830609798,0.0018186651868745685,-0.019569771364331245
234429352,-0.12584228813648224,-0.12584228813648224,-0.1395532786846161,-0.03473762795329094,0.020106365904211998,0.006292251870036125,0.0019327765330672264,-0.24737553298473358,-0.0565587654709816
234529371,-0.12930642068386078,-0.12930642068386078,-0.1407250612974167,-0.034541431814432144,0.01113311480730772,0.009623524732887745,0.001991982338950038,-0.2358047068119049,-0.14982938766479492
234629467,-0.13275067508220673,-0.13275067508220673,-0.14195558428764343,-0.03433942422270775,0.0024801779072731733,0.014688876457512379,0.00204911339096725,-0.263412207365036,-0.17904247343540192
234729342,-0.13617397844791412,-0.13617397844791412,-0.14315849542617798,-0.03413183242082596,-0.006193804554641247,0.015285751782357693,0.002104194136336446,-0.18018698692321777,-0.20692512392997742
234829355,-0.1395765244960785,-0.1395765244960785,-0.14456453919410706,-0.03391881287097931,-0.013966754078865051,0.01961336098611355,0.0021572685800492764,-0.2985542118549347,-0.2147454470396042
234929345,-0.14295756816864014,-0.14295756816864014,-0.14688529074192047,-0.03370058164000511,-0.017989713698625565,0.005206524394452572,0.002208367455750704,-0.09497302025556564,-0.19114762544631958
235029497,-0.1463165432214737,-0.1463165432214737,-0.1495237499475479,-0.03347732126712799,-0.020648479461669922,0.004826202057301998,0.002257521031424403,-0.16380050778388977,-0.17414027452468872
235129341,-0.1496528834104538,-0.1496528834104538,-0.15383759140968323,-0.033249251544475555,-0.016510382294654846,-0.005556211806833744,0.0023047637660056353,-0.026192521676421165,-0.1068941205739975
235229374,-0.1529662013053894,-0.1529662013053894,-0.15781636536121368,-0.03301655128598213,-0.013615925796329975,-0.001556859933771193,0.002350130584090948,-0.15354768931865692,-0.1042817011475563
235329312,-0.1562560349702835,-0.1562560349702835,-0.1625511646270752,-0.032779403030872345,-0.0075988671742379665,-0.014299863018095493,0.0023936510551720858,0.012259382754564285,-0.06112270802259445
235429357,-0.1595219373703003,-0.1595219373703003,-0.16747844219207764,-0.03253799304366112,-0.0007119846413843334,-0.023057183250784874,0.002435357542708516,0.07099197059869766,-0.024457847699522972
235529343,-0.16276349127292633,-0.16276349127292633,-0.17254361510276794,-0.032292500138282776,0.00682797422632575,-0.010959307663142681,0.002475282410159707,-0.04644399881362915,0.0018342648399993777
235629441,-0.16598030924797058,-0.16598030924797058,-0.17639891803264618,-0.03204306960105896,0.009631380438804626,-0.01381651870906353,0.002513451036065817,0.033616140484809875,-0.02967364713549614
235729356,-0.1691722422838211,-0.1691722422838211,-0.18043439090251923,-0.03178991749882698,0.013258685357868671,-0.009881556034088135,0.0025499104522168636,-0.04779587313532829,-0.01411403063684702
235829355,-0.17233842611312866,-0.17233842611312866,-0.18324704468250275,-0.03153321519494057,0.012101254425942898,-0.004289594478905201,0.0025846785865724087,-0.06130038574337959,-0.05903280898928642
235929353,-0.17547853291034698,-0.17547853291034698,-0.1851641982793808,-0.03127313777804375,0.007469565607607365,0.009093350730836391,0.002617787104099989,-0.22732095420360565,-0.09901964664459229
236029356,-0.17859269678592682,-0.17859269678592682,-0.18682090938091278,-0.03100981004536152,0.0019030164694413543,0.006971935275942087,0.002649272559210658,-0.1501578837633133,-0.13076746463775635
236129417,-0.18168039619922638,-0.18168039619922638,-0.187867671251297,-0.03074340708553791,-0.005994238890707493,0.01477799378335476,0.002679162658751011,-0.23333120346069336,-0.17592909932136536
236229345,-0.1847412884235382,-0.1847412884235382,-0.18942035734653473,-0.0304741058498621,-0.011757825501263142,0.009054653346538544,0.0027074902318418026,-0.13276907801628113,-0.16699792444705963
236329350,-0.18777510523796082,-0.18777510523796082,-0.19130028784275055,-0.03020203299820423,-0.016101308166980743,0.0045836931094527245,0.002734279027208686,-0.176992729306221,-0.16209179162979126
236429399,-0.1907816082239151,-0.1907816082239151,-0.19389107823371887,-0.029927358031272888,-0.017489437013864517,-0.0029222655575722456,0.002759563038125634,-0.06252676993608475,-0.13313913345336914
236529346,-0.19376049935817719,-0.19376049935817719,-0.1962469220161438,-0.029650229960680008,-0.019704537466168404,-0.002662296174094081,0.0027833718340843916,-0.122917041182518,-0.13913312554359436
236629454,-0.19671177864074707,-0.19671177864074707,-0.19990792870521545,-0.029370762407779694,-0.01658615842461586,-0.019212927669286728,0.0028057321906089783,0.06720180064439774,-0.07156942039728165
236729359,-0.1996345818042755,-0.1996345818042755,-0.20409224927425385,-0.02908918261528015,-0.011258529499173164,-0.02944875881075859,0.002826675074175,0.07186286896467209,-0.030537281185388565
236829358,-0.20252932608127594,-0.20252932608127594,-0.2079208642244339,-0.028805548325181007,-0.007239422760903835,-0.014337957836687565,0.002846227493137121,-0.09388460963964462,-0.03158519044518471
236929322,-0.2053956389427185,-0.2053956389427185,-0.2107687145471573,-0.02852003276348114,-0.007027711719274521,-0.019904179498553276,0.0028644204139709473,0.007316305302083492,-0.06397821009159088
237029422,-0.2082332968711853,-0.2082332968711853,-0.21332243084907532,-0.028232760727405548,-0.007876209914684296,-0.016095981001853943,0.0028812785167247057,-0.113010935485363,-0.06933438777923584
237129412,-0.2110421359539032,-0.2110421359539032,-0.21579989790916443,-0.027943866327404976,-0.008912795223295689,-0.01531157921999693,0.002896831603720784,-0.046465080231428146,-0.0820620059967041
237229396,-0.21382202208042145,-0.21382202208042145,-0.21782657504081726,-0.02765347808599472,-0.011635235510766506,-0.018678899854421616,0.0029111059848219156,-0.0798637792468071,-0.10608784109354019
237329349,-0.2165728211402893,-0.2165728211402893,-0.21971723437309265,-0.02736172080039978,-0.01478403527289629,-0.008102199994027615,0.002924129366874695,-0.20933793485164642,-0.12278630584478378
237429358,-0.21929430961608887,-0.21929430961608887,-0.22109191119670868,-0.0270687248557806,-0.0198783241212368,-0.0136238569393754,0.0029359268955886364,-0.09692932665348053,-0.14871862530708313
237529342,-0.22198650240898132,-0.22198650240898132,-0.22216397523880005,-0.026774603873491287,-0.02606465108692646,-0.0011891720350831747,0.0029465272091329098,-0.32085898518562317,-0.1675409972667694
237629484,-0.22464919090270996,-0.22464919090270996,-0.2234136313199997,-0.026479486376047134,-0.03142175450921059,-0.01327220443636179,0.002955957781523466,-0.13534043729305267,-0.17526483535766602
237729353,-0.2272823452949524,-0.2272823452949524,-0.22465325891971588,-0.0261834803968668,-0.03669987618923187,-0.00289252121001482,0.002964242361485958,-0.2453727275133133,-0.17690891027450562
237829318,-0.22988587617874146,-0.22988587617874146,-0.22553887963294983,-0.025886699557304382,-0.04327467456459999,0.00511302100494504,0.0029714067932218313,-0.4003240168094635,-0.21593958139419556
237929379,-0.2324596792459488,-0.2324596792459488,-0.2270546406507492,-0.025589246302843094,-0.047209348529577255,-0.007976969704031944,0.0029774748254567385,-0.14033286273479462,-0.20319369435310364
238029400,-0.23500369489192963,-0.23500369489192963,-0.22856095433235168,-0.02529124915599823,-0.05106223002076149,-0.008676905184984207,0.002982476493343711,-0.2009892612695694,-0.2030729502439499
238129378,-0.23751796782016754,-0.23751796782016754,-0.23147201538085938,-0.024992797523736954,-0.04917658865451813,-0.0192008875310421,0.0029864341486245394,-0.06913629174232483,-0.14570049941539764
238229363,-0.24000224471092224,-0.24000224471092224,-0.23426596820354462,-0.02469400316476822,-0.04763912409543991,-0.028862260282039642,0.002989369910210371,-0.030115773901343346,-0.1326497197151184
238329363,-0.2424568384885788,-0.2424568384885788,-0.23855707049369812,-0.024394946172833443,-0.03999397158622742,-0.041107177734375,0.002991310553625226,0.08336565643548965,-0.055198248475790024
238429433,-0.24488133192062378,-0.24488133192062378,-0.24416625499725342,-0.024095753207802773,-0.02695607580244541,-0.0553283765912056,0.0029922788962721825,0.18830625712871552,0.03211735561490059
238529364,-0.24727584421634674,-0.24727584421634674,-0.2511325180530548,-0.02379651740193367,-0.00836984347552061,-0.07246585935354233,0.0029922982212156057,0.3942398726940155,0.13373324275016785
238629480,-0.24964062869548798,-0.24964062869548798,-0.25884076952934265,-0.023497309535741806,0.013303200714290142,-0.08265939354896545,0.0029913957696408033,0.3910846710205078,0.21915818750858307
238729363,-0.25197532773017883,-0.25197532773017883,-0.26706841588020325,-0.023198259994387627,0.037174127995967865,-0.0773632749915123,0.002989592496305704,0.35462209582328796,0.2987286150455475
238829362,-0.2542802095413208,-0.2542802095413208,-0.2742673456668854,-0.022899426519870758,0.057049039751291275,-0.0829804465174675,0.0029869123827666044,0.41932761669158936,0.3116547465324402
238929301,-0.2565551996231079,-0.2565551996231079,-0.2798365652561188,-0.022600896656513214,0.07052444666624069,-0.06520560383796692,0.002983373124152422,0.22588907182216644,0.27547487616539
239029348,-0.2588004171848297,-0.2588004171848297,-0.2839590907096863,-0.022302763536572456,0.07833196222782135,-0.04617614299058914,0.0029790017288178205,0.03736408054828644,0.22318269312381744
239129371,-0.26101580262184143,-0.26101580262184143,-0.2866534888744354,-0.0220051072537899,0.08054564148187637,-0.03340236842632294,0.002973818453028798,0.054109565913677216,0.1635420024394989
239229457,-0.26320144534111023,-0.26320144534111023,-0.2879253327846527,-0.021708011627197266,0.07718757539987564,-0.02260705828666687,0.0029678463470190763,-0.05364327132701874,0.07933958619832993
239329326,-0.2653574049472809,-0.2653574049472809,-0.28886058926582336,-0.021411551162600517,0.07260122150182724,-0.004465151112526655,0.002961104968562722,-0.13945811986923218,0.03856972977519035
239429340,-0.26748377084732056,-0.26748377084732056,-0.2899293303489685,-0.021115796640515327,0.06866642832756042,-0.0030752497259527445,0.002953615505248308,-0.09720625728368759,0.006581911351531744
239529369,-0.26958075165748596,-0.26958075165748596,-0.2912217080593109,-0.02082080952823162,0.06574297696352005,0.008143381215631962,0.0029453998431563377,-0.10151748359203339,-0.005342680029571056
239629403,-0.27164795994758606,-0.27164795994758606,-0.29210996627807617,-0.020526720210909843,0.061321258544921875,0.004498825874179602,0.002936477540060878,-0.02500537782907486,-0.035467468202114105
239729337,-0.2736859619617462,-0.2736859619617462,-0.2922847867012024,-0.02023353986442089,0.05416172742843628,0.01970590464770794,0.0029268700163811445,-0.16045692563056946,-0.0820789709687233
239829365,-0.27569469809532166,-0.27569469809532166,-0.29213985800743103,-0.019941354170441628,0.04583921283483505,0.026587311178445816,0.002916596829891205,-0.21220050752162933,-0.11106620728969574
239929359,-0.27767425775527954,-0.27767425775527954,-0.29136568307876587,-0.01965022087097168,0.035115376114845276,0.03259016573429108,0.002905675210058689,-0.24051645398139954,-0.15300901234149933
240029364,-0.2796247899532318,-0.2796247899532318,-0.29061827063560486,-0.019360210746526718,0.024613680317997932,0.03270275518298149,0.0028941261116415262,-0.24306254088878632,-0.1789976805448532
240129321,-0.28154635429382324,-0.28154635429382324,-0.29036158323287964,-0.019071387127041817,0.016189461573958397,0.0390922948718071,0.0028819688595831394,-0.2933324873447418,-0.17570005357265472
240229372,-0.28343909978866577,-0.28343909978866577,-0.29056909680366516,-0.01878380961716175,0.0097361970692873,0.025743795558810234,0.0028692223131656647,-0.11648046970367432,-0.17482979595661163
240329343,-0.28530317544937134,-0.28530317544937134,-0.2913658320903778,-0.01849752478301525,0.005753210745751858,0.02224244363605976,0.0028559034690260887,-0.09704124927520752,-0.15649370849132538
240429413,-0.2871386706829071,-0.2871386706829071,-0.2922806143760681,-0.01821260340511799,0.0023552083875983953,0.011998377740383148,0.0028420325834304094,-0.030155621469020844,-0.13584180176258087
240529337,-0.288945734500885,-0.288945734500885,-0.29302555322647095,-0.01792910136282444,-0.001609843922778964,0.012541700154542923,0.002827627584338188,-0.14238575100898743,-0.12979263067245483
240629438,-0.2907245457172394,-0.2907245457172394,-0.2934377193450928,-0.01764705777168274,-0.006794341839849949,0.015852464362978935,0.0028127050027251244,-0.19722788035869598,-0.14803853631019592
240729340,-0.29247525334358215,-0.29247525334358215,-0.29321348667144775,-0.017366524785757065,-0.01441367156803608,0.02383183129131794,0.002797281602397561,-0.3192647099494934,-0.17906586825847626
240829374,-0.2941978871822357,-0.2941978871822357,-0.2928128242492676,-0.017087576910853386,-0.022627847269177437,0.014393086545169353,0.0027813767082989216,-0.19772635400295258,-0.20568394660949707
240929361,-0.29589277505874634,-0.29589277505874634,-0.29295817017555237,-0.016810236498713493,-0.028548654168844223,0.013487320393323898,0.002765006385743618,-0.21780994534492493,-0.19111110270023346
241029358,-0.2975599765777588,-0.2975599765777588,-0.2933691740036011,-0.016534553840756416,-0.033297814428806305,-0.004299888852983713,0.002748186467215419,-0.07965673506259918,-0.18312273919582367
241129388,-0.2991997301578522,-0.2991997301578522,-0.2936803996562958,-0.016260571777820587,-0.03833790868520737,-0.006093361880630255,0.0027309327851980925,-0.14730143547058105,-0.18941135704517365
241229378,-0.3008121848106384,-0.3008121848106384,-0.2945694029331207,-0.01598832756280899,-0.04095953330397606,-4.576745777740143e-05,0.0027132611721754074,-0.2572890818119049,-0.1648959070444107
241329437,-0.3023974597454071,-0.3023974597454071,-0.29576781392097473,-0.01571788266301155,-0.042236439883708954,-0.011270294897258282,0.002695189556106925,-0.1309761255979538,-0.14483442902565002
241429369,-0.3039557933807373,-0.3039557933807373,-0.2969788610935211,-0.015449265018105507,-0.043357063084840775,-0.014738406054675579,0.0026767333038151264,-0.06677781045436859,-0.13740387558937073
241529348,-0.30548736453056335,-0.30548736453056335,-0.29783347249031067,-0.01518250536173582,-0.04579808562994003,-0.012670408003032207,0.0026579052209854126,-0.18147191405296326,-0.15530027449131012
241629440,-0.30699238181114197,-0.30699238181114197,-0.2981722950935364,-0.014917644672095776,-0.05019797384738922,-0.014741440303623676,0.0026387213729321957,-0.21156121790409088,-0.18907605111598969
241729348,-0.3084709644317627,-0.3084709644317627,-0.29926931858062744,-0.014654723927378654,-0.0514613538980484,-0.031434718519449234,0.0026191973593086004,-0.00033356904168613255,-0.16479426622390747
241829356,-0.309923380613327,-0.309923380613327,-0.30082055926322937,-0.014393766410648823,-0.05080503970384598,-0.03031783364713192,0.002599345752969384,-0.0850323885679245,-0.1382724642753601
241929367,-0.3113497793674469,-0.3113497793674469,-0.30306920409202576,-0.014134814031422138,-0.04725708067417145,-0.02693939208984375,0.0025791823863983154,-0.15378917753696442,-0.09663181006908417
242029422,-0.3127504885196686,-0.3127504885196686,-0.30588287115097046,-0.013877874240279198,-0.04134827107191086,-0.046546801924705505,0.0025587198324501514,0.093873031437397,-0.05122297257184982
242129365,-0.3141254484653473,-0.3141254484653473,-0.3092217743396759,-0.013623027130961418,-0.03323764353990555,-0.06242327392101288,0.0025379753205925226,0.2176734060049057,-0.018369853496551514
242229431,-0.31547510623931885,-0.31547510623931885,-0.31332704424858093,-0.013370249420404434,-0.02196243219077587,-0.0568573996424675,0.002516957698389888,0.05475686490535736,0.039166975766420364
242329346,-0.3167995512485504,-0.3167995512485504,-0.3185097575187683,-0.013119591400027275,-0.006278875283896923,-0.06839095056056976,0.0024956827983260155,0.20256562530994415,0.1025162860751152
242429462,-0.31809908151626587,-0.31809908151626587,-0.3241904377937317,-0.012871070764958858,0.011494415812194347,-0.0688362568616867,0.0024741622619330883,0.24367032945156097,0.166331484913826
242529370,-0.31937381625175476,-0.31937381625175476,-0.3300180435180664,-0.012624711729586124,0.02995208278298378,-0.08134657889604568,0.002452409127727151,0.40274137258529663,0.21643128991127014
242629439,-0.32062408328056335,-0.32062408328056335,-0.3360259234905243,-0.012380542233586311,0.0492267981171608,-0.08660879731178284,0.0024304368998855352,0.3939191401004791,0.27463632822036743
242729347,-0.3218500018119812,-0.3218500018119812,-0.3427429795265198,-0.012138579972088337,0.07143329828977585,-0.08341476321220398,0.002408256521448493,0.40892481803894043,0.3551352322101593
242829363,-0.32305198907852173,-0.32305198907852173,-0.34941497445106506,-0.011898820288479328,0.0935530960559845,-0.08603039383888245,0.0023858784697949886,0.48248201608657837,0.40208521485328674
242929328,-0.324229896068573,-0.324229896068573,-0.35516390204429626,-0.011661355383694172,0.1120748296380043,-0.07068587839603424,0.00236332044005394,0.2931623160839081,0.4003290832042694
243029341,-0.325384259223938,-0.325384259223938,-0.3593255877494812,-0.011426126584410667,0.12433931976556778,-0.05330503359436989,0.002340587554499507,0.2360743284225464,0.34833571314811707
243129488,-0.3265151381492615,-0.3265151381492615,-0.36092105507850647,-0.011193184182047844,0.12643036246299744,-0.032782938331365585,0.0023176935501396656,0.10082068294286728,0.23972098529338837
243229312,-0.3276229798793793,-0.3276229798793793,-0.3606181740760803,-0.010962525382637978,0.12101814150810242,-0.00194455124437809,0.002294648438692093,-0.1949400156736374,0.12710140645503998
243329351,-0.328707754611969,-0.328707754611969,-0.3586723506450653,-0.010734202340245247,0.10912425071001053,0.025277383625507355,0.002271466189995408,-0.2978896498680115,0.010554751381278038
243429504,-0.3297698497772217,-0.3297698497772217,-0.35546937584877014,-0.010508188977837563,0.09228997677564621,0.029296383261680603,0.002248153556138277,-0.17729666829109192,-0.09523362666368484
243529359,-0.33080947399139404,-0.33080947399139404,-0.3525249660015106,-0.010284511372447014,0.07657754421234131,0.022095801308751106,0.0022247224114835262,-0.0925869271159172,-0.14836078882217407
243629420,-0.3318268656730652,-0.3318268656730652,-0.35130324959754944,-0.01006318163126707,0.06784240156412125,0.02299516648054123,0.0022011830005794764,-0.05120275542140007,-0.11479586362838745
243729362,-0.33282217383384705,-0.33282217383384705,-0.3522079288959503,-0.009844216518104076,0.06769881397485733,0.015608865767717361,0.0021775460336357355,-0.01515943743288517,-0.034750085324048996
243829414,-0.3337957561016083,-0.3337957561016083,-0.3540882468223572,-0.009627616964280605,0.07154230028390884,0.00867048092186451,0.0021538203582167625,0.13001877069473267,0.015354553237557411
243929309,-0.3347477912902832,-0.3347477912902832,-0.35560476779937744,-0.009413398802280426,0.0740145593881607,0.011580931022763252,0.002130016451701522,0.08771025389432907,0.008338757790625095
244029427,-0.3356785774230957,-0.3356785774230957,-0.3565180003643036,-0.009201545268297195,0.07415615767240524,0.022430920973420143,0.002106140600517392,-0.0851927101612091,-0.0072958702221512794
244129330,-0.33658820390701294,-0.33658820390701294,-0.3565150797367096,-0.008992111310362816,0.07071545720100403,0.03298109024763107,0.0020822070073336363,-0.1332254856824875,-0.044199388474226
244229362,-0.33747702836990356,-0.33747702836990356,-0.35569754242897034,-0.008785059675574303,0.06409703940153122,0.04209989309310913,0.002058220561593771,-0.16866061091423035,-0.08015865087509155
244329358,-0.3383452594280243,-0.3383452594280243,-0.3544295132160187,-0.008580409921705723,0.05575652793049812,0.035682931542396545,0.002034190809354186,-0.1169867143034935,-0.12113834917545319
244429349,-0.339193195104599,-0.339193195104599,-0.3532329797744751,-0.008378162980079651,0.0477810762822628,0.04000743478536606,0.002010126132518053,-0.1925218105316162,-0.14159536361694336
244529317,-0.3400209844112396,-0.3400209844112396,-0.35270044207572937,-0.008178327232599258,0.04253959655761719,0.036760058254003525,0.0019860356114804745,-0.11854983121156693,-0.12243063002824783
244629473,-0.34082892537117004,-0.34082892537117004,-0.35264819860458374,-0.007980898022651672,0.03929618373513222,0.031048020347952843,0.0019619266968220472,-0.10404551029205322,-0.10107621550559998
244729345,-0.341617226600647,-0.341617226600647,-0.35273322463035583,-0.007785880006849766,0.036678049713373184,0.03169401362538338,0.0019378073047846556,-0.09715867042541504,-0.10332097113132477
244829357,-0.3423861563205719,-0.3423861563205719,-0.3514016568660736,-0.007593275513499975,0.028468698263168335,0.03679328039288521,0.0019136853516101837,-0.19331546127796173,-0.1730099618434906
244929429,-0.3431359827518463,-0.3431359827518463,-0.3493030369281769,-0.0074030812829732895,0.0172652006149292,0.048523444682359695,0.001889568055048585,-0.38528215885162354,-0.2181006520986557
245029331,-0.34386688470840454,-0.34386688470840454,-0.34796378016471863,-0.00721530057489872,0.009172330610454082,0.038052771240472794,0.0018654635641723871,-0.19257459044456482,-0.1997261792421341
245129356,-0.34457913041114807,-0.34457913041114807,-0.3471702039241791,-0.0070299264043569565,0.0033344256225973368,0.027231089770793915,0.0018413776997476816,-0.09701669216156006,-0.16875873506069183
245229403,-0.345272958278656,-0.345272958278656,-0.3476482629776001,-0.006846951320767403,0.002654170384630561,0.003321065567433834,0.0018173172138631344,0.09295770525932312,-0.11717217415571213
245329420,-0.34594860672950745,-0.34594860672950745,-0.34946319460868835,-0.0066664027981460094,0.007391991559416056,-0.018486956134438515,0.0017932925838977098,0.23931296169757843,-0.05109122022986412
245429337,-0.3466063141822815,-0.3466063141822815,-0.35347238183021545,-0.006488238926976919,0.02097608707845211,-0.03310396894812584,0.0017693055560812354,0.27694445848464966,0.07702229171991348
245529483,-0.34724631905555725,-0.34724631905555725,-0.35837703943252563,-0.006312479730695486,0.03821036219596863,-0.03629952669143677,0.0017453660257160664,0.2186066210269928,0.1670326143503189
245629493,-0.3478688597679138,-0.3478688597679138,-0.3622514605522156,-0.006139108445495367,0.05139124393463135,-0.025078264996409416,0.0017214780673384666,0.10337749868631363,0.17750884592533112
245729358,-0.3484742343425751,-0.3484742343425751,-0.36460429430007935,-0.0059681236743927,0.05855217203497887,-0.021916303783655167,0.0016976487822830677,0.06397208571434021,0.150393545627594
245829409,-0.34906256198883057,-0.34906256198883057,-0.36518022418022156,-0.005799517966806889,0.05867110192775726,-0.00039927128818817437,0.0016738837584853172,-0.20584531128406525,0.08540023863315582
